[{"店舗名":"寿製麺 よしかわ　上尾店","住所":"〒362-0002 埼玉県上尾市南９７−５","ステータス":"APP_DISPLAY","region":"Ageo","lat":35.995342,"lng":139.585999},{"店舗名":"中华料理 福源","住所":"〒362-0003 埼玉県上尾市菅谷１丁目１０５","ステータス":"APP_DISPLAY","region":"Ageo","lat":36.000057,"lng":139.594254},{"店舗名":"台湾料理興福順","住所":"〒362-0003 埼玉県上尾市菅谷１丁目１０５","ステータス":"APP_DISPLAY","region":"Ageo","lat":36.000057,"lng":139.594254},{"店舗名":"たこ顔上尾店","住所":"〒362-0004 埼玉県上尾市須ケ谷１丁目","ステータス":"APP_DISPLAY","region":"Ageo","lat":36.000916,"lng":139.601624},{"店舗名":"立川マシマシ上尾店","住所":"〒362-0005 埼玉県上尾市西門前３２７−５","ステータス":"APP_DISPLAY","region":"Ageo","lat":35.992847,"lng":139.582672},{"店舗名":"スタミナ丼 活家 上尾店","住所":"〒362-0006 埼玉県上尾市錦町３−８","ステータス":"RECEIPT","region":"Ageo","lat":35.988113,"lng":139.589981},{"店舗名":"宅配とんかつ かさねや 上尾店","住所":"〒362-0006 埼玉県上尾市錦町３−８","ステータス":"APP_DISPLAY","region":"Ageo","lat":35.988113,"lng":139.589981},{"店舗名":"かつ丼屋 のぶお 上尾店","住所":"〒362-0006 埼玉県上尾市錦町３−８","ステータス":"APP_DISPLAY","region":"Ageo","lat":35.988113,"lng":139.589981},{"店舗名":"韓国カルビ丼とスンドゥブ 洞山 上尾店","住所":"〒362-0006 埼玉県上尾市錦町３−８","ステータス":"APP_DISPLAY","region":"Ageo","lat":35.988113,"lng":139.589981},{"店舗名":"台湾カフェ 時香茶 上尾店","住所":"〒362-0006 埼玉県上尾市錦町３−８","ステータス":"APP_DISPLAY","region":"Ageo","lat":35.988113,"lng":139.589981},{"店舗名":"かつ丼 とん吉 上尾店","住所":"〒362-0006 埼玉県上尾市錦町３−８","ステータス":"APP_DISPLAY","region":"Ageo","lat":35.988113,"lng":139.589981},{"店舗名":"焼きかつ丼 勝吉 上尾店","住所":"〒362-0006 埼玉県上尾市錦町３−８","ステータス":"APP_DISPLAY","region":"Ageo","lat":35.988113,"lng":139.589981},{"店舗名":"出前つけ麺専門店 三田製麺所 上尾店","住所":"〒362-0006 埼玉県上尾市錦町３−８","ステータス":"APP_DISPLAY","region":"Ageo","lat":35.988113,"lng":139.589981},{"店舗名":"どんぶり 神宮軒 上尾店","住所":"〒362-0006 埼玉県上尾市錦町３−８","ステータス":"APP_DISPLAY","region":"Ageo","lat":35.988113,"lng":139.589981},{"店舗名":"お粥 煮え花 上尾店","住所":"〒362-0006 埼玉県上尾市錦町３−８","ステータス":"APP_DISPLAY","region":"Ageo","lat":35.988113,"lng":139.589981},{"店舗名":"うどんと肉 角立 上尾店","住所":"〒362-0006 埼玉県上尾市錦町３−８","ステータス":"APP_DISPLAY","region":"Ageo","lat":35.988113,"lng":139.589981},{"店舗名":"伝説のすた丼屋 上尾店","住所":"〒362-0006 埼玉県上尾市錦町３−８","ステータス":"APP_DISPLAY","region":"Ageo","lat":35.988113,"lng":139.589981},{"店舗名":"元祖金沢チャンピオンカレーデリバリー 上尾店","住所":"〒362-0006 埼玉県上尾市錦町３−８","ステータス":"APP_DISPLAY","region":"Ageo","lat":35.988113,"lng":139.589981},{"店舗名":"さぬきうどん・どんぶり 博好 上尾店","住所":"〒362-0006 埼玉県上尾市錦町３−８","ステータス":"APP_DISPLAY","region":"Ageo","lat":35.988113,"lng":139.589981},{"店舗名":"出前家系ラーメン 吉祥寺 武蔵家 上尾店","住所":"〒362-0006 埼玉県上尾市錦町３−８","ステータス":"APP_DISPLAY","region":"Ageo","lat":35.988113,"lng":139.589981},{"店舗名":"本格もつ鍋 竹名屋総本店 上尾店","住所":"〒362-0006 埼玉県上尾市錦町３−８","ステータス":"APP_DISPLAY","region":"Ageo","lat":35.988113,"lng":139.589981},{"店舗名":"十勝帯広豚丼 三代目ぶた広 上尾店","住所":"〒362-0006 埼玉県上尾市錦町３−８","ステータス":"APP_DISPLAY","region":"Ageo","lat":35.988113,"lng":139.589981},{"店舗名":"うなぎの照本 上尾店","住所":"〒362-0006 埼玉県上尾市錦町３−８","ステータス":"RECEIPT","region":"Ageo","lat":35.988113,"lng":139.589981},{"店舗名":"旨辛スタミナ鉄板焼き 天神軒 上尾店","住所":"〒362-0006 埼玉県上尾市錦町３−８ 富士コーポ","ステータス":"APP_DISPLAY","region":"Ageo","lat":35.988113,"lng":139.589981},{"店舗名":"韓国クッパとビビンバ 全州 上尾店","住所":"〒362-0006 埼玉県上尾市錦町３−８ 富士コーポ","ステータス":"APP_DISPLAY","region":"Ageo","lat":35.988113,"lng":139.589981},{"店舗名":"熟成厚切りとんてき 三元道 上尾店","住所":"〒362-0006 埼玉県上尾市錦町３−８ 富士コーポ","ステータス":"APP_DISPLAY","region":"Ageo","lat":35.988113,"lng":139.589981},{"店舗名":"肉汁つけうどん 六三四 上尾店","住所":"〒362-0006 埼玉県上尾市錦町３−８ 富士コーポ","ステータス":"APP_DISPLAY","region":"Ageo","lat":35.988113,"lng":139.589981},{"店舗名":"とりめし かえで食堂 上尾店","住所":"〒362-0006 埼玉県上尾市錦町３−８ 富士コーポ 1F 店舗A","ステータス":"APP_DISPLAY","region":"Ageo","lat":35.988113,"lng":139.589981},{"店舗名":"鶏弁 とり日和 上尾店","住所":"〒362-0006 埼玉県上尾市錦町３−８ 富士コーポ 1F 店舗A","ステータス":"APP_DISPLAY","region":"Ageo","lat":35.988113,"lng":139.589981},{"店舗名":"背徳めし食堂 上尾店","住所":"〒362-0006 埼玉県上尾市錦町３−８ 富士コーポ 1F 店舗A","ステータス":"APP_DISPLAY","region":"Ageo","lat":35.988113,"lng":139.589981},{"店舗名":"のり弁 浅草屋 上尾店","住所":"〒362-0006 埼玉県上尾市錦町３−８ 富士コーポ 1F 店舗A","ステータス":"APP_DISPLAY","region":"Ageo","lat":35.988113,"lng":139.589981},{"店舗名":"吉野家 17号線上尾店","住所":"〒362-0007 埼玉県上尾市久保７７−１","ステータス":"APP_DISPLAY","region":"Ageo","lat":35.992111,"lng":139.577759},{"店舗名":"【本格麻辣×自家製春雨】白虎麻辣湯 上尾平塚店","住所":"〒362-0011 埼玉県上尾市平塚７５４−７","ステータス":"APP_DISPLAY","region":"Ageo","lat":35.981819,"lng":139.61087},{"店舗名":"【もっちり玄米と低脂質チキン】とりげん食堂 上尾平塚店","住所":"〒362-0011 埼玉県上尾市平塚７５４−７","ステータス":"APP_DISPLAY","region":"Ageo","lat":35.981819,"lng":139.61087},{"店舗名":"【メガ盛り‼】1キロ弁当工房肉MAX!!大盛りからあげお弁当 上尾平塚店","住所":"〒362-0011 埼玉県上尾市平塚７５４−７","ステータス":"APP_DISPLAY","region":"Ageo","lat":35.981819,"lng":139.61087},{"店舗名":"やきとり市場","住所":"〒362-0014 埼玉県上尾市本町","ステータス":"APP_DISPLAY","region":"Ageo","lat":35.975945,"lng":139.595917},{"店舗名":"花火カレー&ダイニングバー","住所":"〒362-0014 埼玉県上尾市本町１丁目１−５ 遠山ビル","ステータス":"APP_DISPLAY","region":"Ageo","lat":35.97739,"lng":139.593948},{"店舗名":"ROYAL KITCHEN Nepali Indian Restro & Bar","住所":"〒362-0014 埼玉県上尾市本町１丁目１−５ 遠山ビル","ステータス":"APP_DISPLAY","region":"Ageo","lat":35.97739,"lng":139.593948},{"店舗名":"かつや　上尾店","住所":"〒362-0014 埼玉県上尾市本町１丁目５−２２","ステータス":"APP_DISPLAY","region":"Ageo","lat":35.974415,"lng":139.596939},{"店舗名":"ASIAN DINING AND BAR JAMUNA","住所":"〒362-0014 埼玉県上尾市本町３丁目３−９","ステータス":"APP_DISPLAY","region":"Ageo","lat":35.979534,"lng":139.5905},{"店舗名":"キングチキン 青郷店","住所":"〒362-0014 埼玉県上尾市本町３丁目３−９ 華渡ビル","ステータス":"RECEIPT","region":"Ageo","lat":35.979534,"lng":139.5905},{"店舗名":"キングチキン　青郷店","住所":"〒362-0014 埼玉県上尾市本町３丁目３−９ 華渡ビル","ステータス":"APP_DISPLAY","region":"Ageo","lat":35.979534,"lng":139.5905},{"店舗名":"横浜家系ラーメン  青郷家","住所":"〒362-0014 埼玉県上尾市本町３丁目３−９ 華渡ビル","ステータス":"APP_DISPLAY","region":"Ageo","lat":35.979534,"lng":139.5905},{"店舗名":"鰻の成瀬 上尾店","住所":"〒362-0014 埼玉県上尾市本町４丁目１−３１","ステータス":"APP_DISPLAY","region":"Ageo","lat":35.978531,"lng":139.595078},{"店舗名":"うなぎ屋 江戸名代亜門 上尾店","住所":"〒362-0014 埼玉県上尾市本町５丁目３−６","ステータス":"APP_DISPLAY","region":"Ageo","lat":35.981457,"lng":139.588425},{"店舗名":"OLIVEIRA","住所":"〒362-0015 埼玉県上尾市緑丘１丁目５−４ 阿久津ビル","ステータス":"APP_DISPLAY","region":"Ageo","lat":35.981167,"lng":139.582977},{"店舗名":"ステーキのどん　上尾店","住所":"〒362-0015 埼玉県上尾市緑丘２丁目２−３","ステータス":"APP_DISPLAY","region":"Ageo","lat":35.982544,"lng":139.581894},{"店舗名":"ルチ","住所":"〒362-0015 埼玉県上尾市緑丘３－３－１１","ステータス":"APP_DISPLAY","region":"Ageo","lat":35.986404,"lng":139.579102},{"店舗名":"かっぱ寿司 北上尾店","住所":"〒362-0015 埼玉県上尾市緑丘３丁目５−３７","ステータス":"APP_DISPLAY","region":"Ageo","lat":35.990368,"lng":139.580032},{"店舗名":"丼ぶり専門 清水港 バンノウ水産 北上尾店","住所":"〒362-0015 埼玉県上尾市緑丘３丁目５−３７","ステータス":"APP_DISPLAY","region":"Ageo","lat":35.990368,"lng":139.580032},{"店舗名":"みわくのキッチン","住所":"〒362-0021 埼玉県上尾市原市３１０１−１","ステータス":"APP_DISPLAY","region":"Ageo","lat":35.967747,"lng":139.633698},{"店舗名":"クリスピーチキンアンドトマト 上尾原市店 CRISPY CHICKEN n' TOMATO Ageo Haraichi","住所":"〒362-0021 埼玉県上尾市原市３１５","ステータス":"APP_DISPLAY","region":"Ageo","lat":35.959515,"lng":139.625977},{"店舗名":"らあめん花月嵐 上尾原市店","住所":"〒362-0021 埼玉県上尾市原市３１６−１","ステータス":"APP_DISPLAY","region":"Ageo","lat":35.967705,"lng":139.627502},{"店舗名":"セスパ東大宮","住所":"〒362-0021 埼玉県上尾市原市４１５４","ステータス":"APP_DISPLAY","region":"Ageo","lat":35.959091,"lng":139.629608},{"店舗名":"グムティーヒルインドネパールレストラン","住所":"〒362-0021 埼玉県上尾市原市４１７０－６６","ステータス":"APP_DISPLAY","region":"Ageo","lat":35.957474,"lng":139.630234},{"店舗名":"Bakery Sokoni","住所":"〒362-0022 埼玉県上尾市瓦葺５４４−１","ステータス":"APP_DISPLAY","region":"Ageo","lat":35.962746,"lng":139.639084},{"店舗名":"ドミノ・ピザ 上尾水上公園店","住所":"〒362-0031 埼玉県上尾市東町３丁目１９７３−４","ステータス":"APP_DISPLAY","region":"Ageo","lat":35.973129,"lng":139.605118},{"店舗名":"紅虎餃子房 イオンモール上尾","住所":"〒362-0034 埼玉県上尾市愛宕３丁目８−１","ステータス":"APP_DISPLAY","region":"Ageo","lat":35.965076,"lng":139.598068},{"店舗名":"リンガーハット イオンモール上尾店","住所":"〒362-0034 埼玉県上尾市愛宕３丁目８−１","ステータス":"APP_DISPLAY","region":"Ageo","lat":35.965076,"lng":139.598068},{"店舗名":"ケンタッキーフライドチキン イオンモール上尾店","住所":"〒362-0034 埼玉県上尾市愛宕３丁目８−１","ステータス":"APP_DISPLAY","region":"Ageo","lat":35.965076,"lng":139.598068},{"店舗名":"呑み処美恵","住所":"〒362-0035 埼玉県上尾市仲町１丁目１２−２","ステータス":"APP_DISPLAY","region":"Ageo","lat":35.973946,"lng":139.591568},{"店舗名":"隠れ菴　忍家上尾駅東口店","住所":"〒362-0035 埼玉県上尾市仲町１丁目７−２３","ステータス":"APP_DISPLAY","region":"Ageo","lat":35.972908,"lng":139.590912},{"店舗名":"大盛スタミナ肉丼 ニンニク野郎 上尾店","住所":"〒362-0036 埼玉県上尾市宮本町３−１６","ステータス":"APP_DISPLAY","region":"Ageo","lat":35.974308,"lng":139.589981},{"店舗名":"串カツ田中 上尾店","住所":"〒362-0036 埼玉県上尾市宮本町３−１６ グロアール上尾","ステータス":"APP_DISPLAY","region":"Ageo","lat":35.974308,"lng":139.589981},{"店舗名":"北の国バル 上尾店","住所":"〒362-0036 埼玉県上尾市宮本町３−２","ステータス":"RECEIPT","region":"Ageo","lat":35.974155,"lng":139.589462},{"店舗名":"ナニズキッチン","住所":"〒362-0036 埼玉県上尾市宮本町９−２１","ステータス":"APP_DISPLAY","region":"Ageo","lat":35.975319,"lng":139.59169},{"店舗名":"どん亭 上尾店","住所":"〒362-0037 埼玉県上尾市上町２丁目５−３４","ステータス":"APP_DISPLAY","region":"Ageo","lat":35.977524,"lng":139.58696},{"店舗名":"ピザハット 上尾店","住所":"〒362-0041 埼玉県上尾市富士見２丁目１−１９","ステータス":"APP_DISPLAY","region":"Ageo","lat":35.96946,"lng":139.581543},{"店舗名":"チキン・ウイングストリート 上尾店","住所":"〒362-0041 埼玉県上尾市富士見２丁目１−１９","ステータス":"APP_DISPLAY","region":"Ageo","lat":35.96946,"lng":139.581543},{"店舗名":"トスカーニパスタ 上尾店","住所":"〒362-0041 埼玉県上尾市富士見２丁目１−１９","ステータス":"APP_DISPLAY","region":"Ageo","lat":35.96946,"lng":139.581543},{"店舗名":"上海亭","住所":"〒362-0042 埼玉県上尾市谷津２丁目１−３７","ステータス":"APP_DISPLAY","region":"Ageo","lat":35.973186,"lng":139.586349},{"店舗名":"インド・タイ料理 エベレストイン","住所":"〒362-0042 埼玉県上尾市谷津２丁目１−５０","ステータス":"APP_DISPLAY","region":"Ageo","lat":35.972843,"lng":139.58609},{"店舗名":"吉野家 上尾駅前店","住所":"〒362-0042 埼玉県上尾市谷津２丁目１−５０−１","ステータス":"APP_DISPLAY","region":"Ageo","lat":35.972843,"lng":139.58609},{"店舗名":"ケンタッキーフライドチキン 上尾駅前店","住所":"〒362-0042 埼玉県上尾市谷津２丁目１−５０−１","ステータス":"APP_DISPLAY","region":"Ageo","lat":35.972843,"lng":139.58609},{"店舗名":"とんかつの和吉 上尾西口駅前店","住所":"〒362-0042 埼玉県上尾市谷津２丁目１−５０−１０","ステータス":"APP_DISPLAY","region":"Ageo","lat":35.972843,"lng":139.58609},{"店舗名":"大衆鰻 うな銀 上尾西口駅前店","住所":"〒362-0042 埼玉県上尾市谷津２丁目１−５０−１０","ステータス":"APP_DISPLAY","region":"Ageo","lat":35.972843,"lng":139.58609},{"店舗名":"目利きの銀次 上尾西口駅前店","住所":"〒362-0042 埼玉県上尾市谷津２丁目１−５０−１０","ステータス":"APP_DISPLAY","region":"Ageo","lat":35.972843,"lng":139.58609},{"店舗名":"カルビ丼・赤チゲ グンチャン 上尾西口駅前店","住所":"〒362-0042 埼玉県上尾市谷津２丁目１−５０−１０","ステータス":"APP_DISPLAY","region":"Ageo","lat":35.972843,"lng":139.58609},{"店舗名":"韓国クリスピーチキン＆HOTドッグ　チキンモッコパ 上尾西口駅前店","住所":"〒362-0042 埼玉県上尾市谷津２丁目１−５０−１０","ステータス":"APP_DISPLAY","region":"Ageo","lat":35.972843,"lng":139.58609},{"店舗名":"山内農場 上尾西口駅前店","住所":"〒362-0042 埼玉県上尾市谷津２丁目１−５０−１０","ステータス":"APP_DISPLAY","region":"Ageo","lat":35.972843,"lng":139.58609},{"店舗名":"上尾飯店 west side","住所":"〒362-0042 埼玉県上尾市谷津２丁目２−１６","ステータス":"APP_DISPLAY","region":"Ageo","lat":35.971306,"lng":139.586975},{"店舗名":"IRIES Bar&Grill","住所":"〒362-0042 埼玉県上尾市谷津２丁目４−３","ステータス":"APP_DISPLAY","region":"Ageo","lat":35.970638,"lng":139.586487},{"店舗名":"台湾料理　嘉宴楼","住所":"〒362-0044 埼玉県上尾市大谷本郷７０４−１","ステータス":"APP_DISPLAY","region":"Ageo","lat":35.957325,"lng":139.580338},{"店舗名":"カレーハウス CoCo壱番屋 上尾向山店","住所":"〒362-0045 埼玉県上尾市向山２丁目１−１","ステータス":"APP_DISPLAY","region":"Ageo","lat":35.958195,"lng":139.580994},{"店舗名":"かっぱ寿司 上尾店","住所":"〒362-0045 埼玉県上尾市向山２丁目１７−１","ステータス":"APP_DISPLAY","region":"Ageo","lat":35.957848,"lng":139.580154},{"店舗名":"丼ぶり専門 清水港 バンノウ水産 上尾店","住所":"〒362-0045 埼玉県上尾市向山２丁目１７−１","ステータス":"APP_DISPLAY","region":"Ageo","lat":35.957848,"lng":139.580154},{"店舗名":"鶏笑　上尾店","住所":"〒362-0045 埼玉県上尾市向山３丁目５１−２","ステータス":"APP_DISPLAY","region":"Ageo","lat":35.961956,"lng":139.578995},{"店舗名":"麺処ろくめい","住所":"〒362-0047 埼玉県上尾市川２５９−２","ステータス":"APP_DISPLAY","region":"Ageo","lat":35.963036,"lng":139.575546},{"店舗名":"肉と煮込みのビストロ酒場 RARIATT","住所":"〒362-0064 埼玉県上尾市小敷谷８５４－１","ステータス":"APP_DISPLAY","region":"Ageo","lat":35.963306,"lng":139.562531},{"店舗名":"ルチ アリオ上尾店","住所":"〒362-0064 埼玉県上尾市壱丁目北29番地14","ステータス":"APP_DISPLAY","region":"Ageo","lat":35.959564,"lng":139.569489},{"店舗名":"東坡","住所":"〒362-0065 埼玉県上尾市畔吉１１２６","ステータス":"APP_DISPLAY","region":"Ageo","lat":35.968048,"lng":139.548615},{"店舗名":"らぁめん麺楽屋","住所":"〒362-0072","ステータス":"APP_DISPLAY","region":"Ageo","lat":35.984989,"lng":139.574478},{"店舗名":"ドミノ・ピザ 上尾店","住所":"〒362-0072 埼玉県上尾市中妻３丁目８−３","ステータス":"APP_DISPLAY","region":"Ageo","lat":35.985168,"lng":139.569733},{"店舗名":"インド料理 サリナ","住所":"〒362-0073 埼玉県上尾市浅間台２丁目１０−６ タツオビル","ステータス":"APP_DISPLAY","region":"Ageo","lat":35.981945,"lng":139.574554},{"店舗名":"くいしんぼう","住所":"〒362-0073 埼玉県上尾市浅間台３丁目４−１４","ステータス":"APP_DISPLAY","region":"Ageo","lat":35.979019,"lng":139.572815},{"店舗名":"インド料理ニュームンバイ","住所":"〒362-0074 埼玉県上尾市春日２丁目１０−４","ステータス":"APP_DISPLAY","region":"Ageo","lat":35.974781,"lng":139.579224},{"店舗名":"からやま 埼玉上尾店","住所":"〒362-0074 埼玉県上尾市春日２丁目９−３","ステータス":"APP_DISPLAY","region":"Ageo","lat":35.975826,"lng":139.579453},{"店舗名":"中華料理 馬場","住所":"〒362-0075 埼玉県上尾市柏座1-11-5","ステータス":"APP_DISPLAY","region":"Ageo","lat":35.973618,"lng":139.585403},{"店舗名":"【本格麻辣×自家製春雨】白虎麻辣湯 北上尾店","住所":"〒362-0075 埼玉県上尾市柏座１丁目１１−５","ステータス":"RECEIPT","region":"Ageo","lat":35.973618,"lng":139.585403},{"店舗名":"【自家製燻製と洋食のお店】SHIBASANCHI","住所":"〒362-0075 埼玉県上尾市柏座１丁目１２−２","ステータス":"APP_DISPLAY","region":"Ageo","lat":35.973961,"lng":139.586121},{"店舗名":"笑笑麻辣燙","住所":"〒362-0075 埼玉県上尾市柏座１丁目１−２７ 上尾プリンスビル","ステータス":"APP_DISPLAY","region":"Ageo","lat":35.974468,"lng":139.588104},{"店舗名":"酒笑酒笑","住所":"〒362-0075 埼玉県上尾市柏座2-4-5","ステータス":"APP_DISPLAY","region":"Ageo","lat":35.972149,"lng":139.586411},{"店舗名":"塩ホルモン三島まるたか 上尾店","住所":"〒362-0075 埼玉県上尾市柏座２丁目１０−３","ステータス":"APP_DISPLAY","region":"Ageo","lat":35.972145,"lng":139.581497},{"店舗名":"鳥八","住所":"〒362-0075 埼玉県上尾市柏座２丁目３−２９","ステータス":"APP_DISPLAY","region":"Ageo","lat":35.973148,"lng":139.585052},{"店舗名":"まいこカフェ","住所":"〒362-0075 埼玉県上尾市柏座３丁目１０−１０","ステータス":"APP_DISPLAY","region":"Ageo","lat":35.972187,"lng":139.579941},{"店舗名":"ナマステ キッチン","住所":"〒362-0081","ステータス":"RECEIPT","region":"Ageo","lat":35.959564,"lng":139.569489},{"店舗名":"横浜中華 華星 アリオ上尾フードコート店","住所":"〒362-0081","ステータス":"APP_DISPLAY","region":"Ageo","lat":35.959564,"lng":139.569489},{"店舗名":"バーガーキングアリオ上尾店","住所":"〒362-0081 埼玉県上尾市壱丁目３６７","ステータス":"APP_DISPLAY","region":"Ageo","lat":35.961884,"lng":139.566193},{"店舗名":"東京冷麺スタンド 上尾店","住所":"〒362-0081 埼玉県上尾市壱丁目北２９−１４","ステータス":"APP_DISPLAY","region":"Ageo","lat":35.959564,"lng":139.569489},{"店舗名":"オリジナルガパオライス アロイ・ガパオ 上尾店","住所":"〒362-0081 埼玉県上尾市壱丁目北２９−１４","ステータス":"APP_DISPLAY","region":"Ageo","lat":35.959564,"lng":139.569489},{"店舗名":"オリジナルタコライス【Taco feliz】 上尾店","住所":"〒362-0081 埼玉県上尾市壱丁目北２９−１４","ステータス":"APP_DISPLAY","region":"Ageo","lat":35.959564,"lng":139.569489},{"店舗名":"高たんぱく・糖質制限カオマンガイ 東京鶏飯食堂 上尾店","住所":"〒362-0081 埼玉県上尾市壱丁目北２９−１４","ステータス":"APP_DISPLAY","region":"Ageo","lat":35.959564,"lng":139.569489},{"店舗名":"チキンオーバーライス【NY CHICKEN STAND】 上尾店","住所":"〒362-0081 埼玉県上尾市壱丁目北２９−１４","ステータス":"APP_DISPLAY","region":"Ageo","lat":35.959564,"lng":139.569489},{"店舗名":"美と健康 10salad(テンサラダ) 上尾店","住所":"〒362-0081 埼玉県上尾市壱丁目北２９−１４","ステータス":"APP_DISPLAY","region":"Ageo","lat":35.959564,"lng":139.569489},{"店舗名":"たっぷりたんぱく肉とブロッコリー生活 上尾店","住所":"〒362-0081 埼玉県上尾市壱丁目北２９−１４","ステータス":"APP_DISPLAY","region":"Ageo","lat":35.959564,"lng":139.569489},{"店舗名":"美と健康 スムージースタイル 上尾店","住所":"〒362-0081 埼玉県上尾市壱丁目北２９−１４ アリオ上尾","ステータス":"APP_DISPLAY","region":"Ageo","lat":35.959564,"lng":139.569489},{"店舗名":"【メガ盛り‼】1キロ弁当工房肉MAX!!大盛りからあげお弁当 アリオ上尾店","住所":"〒362-0081 埼玉県上尾市壱丁目北２９−１４ アリオ上尾","ステータス":"APP_DISPLAY","region":"Ageo","lat":35.959564,"lng":139.569489},{"店舗名":"ナマステ キッチン","住所":"〒362-0081埼玉県上尾市壱丁目北29-14","ステータス":"APP_DISPLAY","region":"Ageo","lat":35.959564,"lng":139.569489},{"店舗名":"アジアンダイニング ニューデリ","住所":"〒362-0083 埼玉県上尾市壱丁目南３１－３","ステータス":"APP_DISPLAY","region":"Ageo","lat":35.952923,"lng":139.567535},{"店舗名":"カフェ・ベローチェ 上尾店","住所":"埼玉県上尾市","ステータス":"APP_DISPLAY","region":"Ageo","lat":35.977417,"lng":139.593185}]