[{"店舗名":"クリーム専門店 宮井","住所":"〒196-0001 東京都昭島市美堀町５丁目１２−１１","ステータス":"APP_DISPLAY","region":"Akishima","lat":35.720119,"lng":139.348877},{"店舗名":"ナマステキッチン 拝島","住所":"〒196-0001 東京都昭島市美堀町５丁目２０−７","ステータス":"APP_DISPLAY","region":"Akishima","lat":35.720642,"lng":139.345642},{"店舗名":"ケンタッキーフライドチキン 西武拝島店","住所":"〒196-0001 東京都昭島市美堀町５丁目２１−２","ステータス":"APP_DISPLAY","region":"Akishima","lat":35.719959,"lng":139.345016},{"店舗名":"韓国豚焼肉 デジ家 昭島店","住所":"〒196-0002","ステータス":"APP_DISPLAY","region":"Akishima","lat":35.718567,"lng":139.360031},{"店舗名":"かつや 東京昭島店","住所":"〒196-0002 東京都昭島市拝島町１丁目８","ステータス":"APP_DISPLAY","region":"Akishima","lat":35.70734,"lng":139.346237},{"店舗名":"スタミナ丼 活家 昭島店","住所":"〒196-0002 東京都昭島市拝島町２丁目１２−１２","ステータス":"RECEIPT","region":"Akishima","lat":35.70882,"lng":139.338837},{"店舗名":"焼きかつ丼 勝吉 昭島店","住所":"〒196-0002 東京都昭島市拝島町２丁目１２−１２","ステータス":"APP_DISPLAY","region":"Akishima","lat":35.70882,"lng":139.338837},{"店舗名":"かつ丼 とん吉 昭島店","住所":"〒196-0002 東京都昭島市拝島町２丁目１２−１２","ステータス":"APP_DISPLAY","region":"Akishima","lat":35.70882,"lng":139.338837},{"店舗名":"台湾カフェ 時香茶 昭島店","住所":"〒196-0002 東京都昭島市拝島町２丁目１２−１２","ステータス":"APP_DISPLAY","region":"Akishima","lat":35.70882,"lng":139.338837},{"店舗名":"かつ丼屋 のぶお 昭島店","住所":"〒196-0002 東京都昭島市拝島町２丁目１２−１２","ステータス":"APP_DISPLAY","region":"Akishima","lat":35.70882,"lng":139.338837},{"店舗名":"出前つけ麺専門店 三田製麺所 昭島店","住所":"〒196-0002 東京都昭島市拝島町２丁目１２−１２","ステータス":"APP_DISPLAY","region":"Akishima","lat":35.70882,"lng":139.338837},{"店舗名":"韓国カルビ丼とスンドゥブ 洞山 昭島店","住所":"〒196-0002 東京都昭島市拝島町２丁目１２−１２","ステータス":"APP_DISPLAY","region":"Akishima","lat":35.70882,"lng":139.338837},{"店舗名":"どんぶり 神宮軒 昭島店","住所":"〒196-0002 東京都昭島市拝島町２丁目１２−１２","ステータス":"APP_DISPLAY","region":"Akishima","lat":35.70882,"lng":139.338837},{"店舗名":"お粥 煮え花 昭島店","住所":"〒196-0002 東京都昭島市拝島町２丁目１２−１２","ステータス":"APP_DISPLAY","region":"Akishima","lat":35.70882,"lng":139.338837},{"店舗名":"うどんと肉 角立 昭島店","住所":"〒196-0002 東京都昭島市拝島町２丁目１２−１２","ステータス":"APP_DISPLAY","region":"Akishima","lat":35.70882,"lng":139.338837},{"店舗名":"背徳めし食堂 昭島店","住所":"〒196-0002 東京都昭島市拝島町２丁目１２−１２","ステータス":"APP_DISPLAY","region":"Akishima","lat":35.70882,"lng":139.338837},{"店舗名":"元祖金沢チャンピオンカレーデリバリー 昭島店","住所":"〒196-0002 東京都昭島市拝島町２丁目１２−１２","ステータス":"APP_DISPLAY","region":"Akishima","lat":35.70882,"lng":139.338837},{"店舗名":"さぬきうどん・どんぶり 博好 昭島店","住所":"〒196-0002 東京都昭島市拝島町２丁目１２−１２","ステータス":"APP_DISPLAY","region":"Akishima","lat":35.70882,"lng":139.338837},{"店舗名":"出前家系ラーメン 吉祥寺 武蔵家 昭島店","住所":"〒196-0002 東京都昭島市拝島町２丁目１２−１２","ステータス":"APP_DISPLAY","region":"Akishima","lat":35.70882,"lng":139.338837},{"店舗名":"本格もつ鍋 竹名屋総本店 昭島店","住所":"〒196-0002 東京都昭島市拝島町２丁目１２−１２","ステータス":"APP_DISPLAY","region":"Akishima","lat":35.70882,"lng":139.338837},{"店舗名":"十勝帯広豚丼 三代目ぶた広 昭島店","住所":"〒196-0002 東京都昭島市拝島町２丁目１２−１２","ステータス":"APP_DISPLAY","region":"Akishima","lat":35.70882,"lng":139.338837},{"店舗名":"うなぎの照本 昭島店","住所":"〒196-0002 東京都昭島市拝島町２丁目１２−１２","ステータス":"RECEIPT","region":"Akishima","lat":35.70882,"lng":139.338837},{"店舗名":"宅配とんかつ かさねや 昭島店","住所":"〒196-0002 東京都昭島市拝島町２丁目１２−１２ ハイツニート","ステータス":"APP_DISPLAY","region":"Akishima","lat":35.70882,"lng":139.338837},{"店舗名":"鶏弁 とり日和 昭島店","住所":"〒196-0002 東京都昭島市拝島町２丁目１２−１２ ハイツニート","ステータス":"APP_DISPLAY","region":"Akishima","lat":35.70882,"lng":139.338837},{"店舗名":"旨辛スタミナ鉄板焼き 天神軒 昭島店","住所":"〒196-0002 東京都昭島市拝島町２丁目１２−１２ ハイツニート","ステータス":"APP_DISPLAY","region":"Akishima","lat":35.70882,"lng":139.338837},{"店舗名":"韓国クッパとビビンバ 全州 昭島店","住所":"〒196-0002 東京都昭島市拝島町２丁目１２−１２ ハイツニート","ステータス":"APP_DISPLAY","region":"Akishima","lat":35.70882,"lng":139.338837},{"店舗名":"肉汁つけうどん 六三四 昭島店","住所":"〒196-0002 東京都昭島市拝島町２丁目１２−１２ ハイツニート","ステータス":"APP_DISPLAY","region":"Akishima","lat":35.70882,"lng":139.338837},{"店舗名":"とりめし かえで食堂 昭島店","住所":"〒196-0002 東京都昭島市拝島町２丁目１２−１２ ハイツニート 101","ステータス":"APP_DISPLAY","region":"Akishima","lat":35.70882,"lng":139.338837},{"店舗名":"ぶた玉丼とうどん ぶた玉家 昭島店","住所":"〒196-0002 東京都昭島市拝島町２丁目１２−１２ ハイツニート 101","ステータス":"APP_DISPLAY","region":"Akishima","lat":35.70882,"lng":139.338837},{"店舗名":"熟成厚切りとんてき 三元道 昭島店","住所":"〒196-0002 東京都昭島市拝島町２丁目１２−１２ ハイツニート 101","ステータス":"APP_DISPLAY","region":"Akishima","lat":35.70882,"lng":139.338837},{"店舗名":"鶏天豚天 通天道 昭島店","住所":"〒196-0002 東京都昭島市拝島町２丁目１２−１２ ハイツニート 101","ステータス":"APP_DISPLAY","region":"Akishima","lat":35.70882,"lng":139.338837},{"店舗名":"昭島大和家","住所":"〒196-0003 東京都昭島市松原町１丁目９−１","ステータス":"APP_DISPLAY","region":"Akishima","lat":35.713867,"lng":139.355896},{"店舗名":"台湾料理 祥瑞 昭島店 Taiwanese cuisine SHOZUI","住所":"〒196-0003 東京都昭島市松原町２丁目１０−４","ステータス":"RECEIPT","region":"Akishima","lat":35.715168,"lng":139.350433},{"店舗名":"チャンドラギリネパールレストラン","住所":"〒196-0003 東京都昭島市松原町２丁目８−２６","ステータス":"APP_DISPLAY","region":"Akishima","lat":35.715099,"lng":139.351532},{"店舗名":"【グリルダイニング】BIGORA 拝島駅前店","住所":"〒196-0003 東京都昭島市松原町４－１２－２０","ステータス":"APP_DISPLAY","region":"Akishima","lat":35.720531,"lng":139.343002},{"店舗名":"インド・アジアンレストラン＆バー SEWA 世話v","住所":"〒196-0003 東京都昭島市松原町４－１２－４三愛ビル","ステータス":"APP_DISPLAY","region":"Akishima","lat":35.720253,"lng":139.343445},{"店舗名":"魚民 拝島南口駅前店","住所":"〒196-0003 東京都昭島市松原町４丁目１２","ステータス":"APP_DISPLAY","region":"Akishima","lat":35.720001,"lng":139.343155},{"店舗名":"インド・アジアンレストラン＆バー SEWA　世話","住所":"〒196-0003 東京都昭島市松原町４丁目１２−４ 三愛ビル","ステータス":"APP_DISPLAY","region":"Akishima","lat":35.720253,"lng":139.343445},{"店舗名":"からあげの鉄人 拝島南口駅前店","住所":"〒196-0003 東京都昭島市松原町４丁目１２−６ 増田ビル 1階","ステータス":"APP_DISPLAY","region":"Akishima","lat":35.719994,"lng":139.343536},{"店舗名":"韓国クリスピーチキン＆HOTドッグ　チキンモッコパ 拝島南口駅前店","住所":"〒196-0003 東京都昭島市松原町４丁目１２−６ 増田ビル 1階","ステータス":"APP_DISPLAY","region":"Akishima","lat":35.719994,"lng":139.343536},{"店舗名":"とろり天使のわらびもち拝島駅前店","住所":"〒196-0003 東京都昭島市松原町４丁目１３−２１","ステータス":"APP_DISPLAY","region":"Akishima","lat":35.721054,"lng":139.342957},{"店舗名":"油そば専門店 麺や独歩 拝島店","住所":"〒196-0003 東京都昭島市松原町５丁目１−２５ 拝島第一ロータリービル","ステータス":"APP_DISPLAY","region":"Akishima","lat":35.720673,"lng":139.342804},{"店舗名":"アジ庵ガンジー昭島店","住所":"〒196-0004 東京都昭島市緑町３丁目４－９","ステータス":"APP_DISPLAY","region":"Akishima","lat":35.706337,"lng":139.349976},{"店舗名":"吉野家 16号線昭島緑町店","住所":"〒196-0004 東京都昭島市緑町３丁目５−１４","ステータス":"APP_DISPLAY","region":"Akishima","lat":35.70673,"lng":139.348389},{"店舗名":"JECE STORE RESTO &BAR","住所":"〒196-0004 東京都昭島市緑町４丁目１−２７ ニッシンホーム昭島","ステータス":"APP_DISPLAY","region":"Akishima","lat":35.714733,"lng":139.347702},{"店舗名":"やきとりマル義","住所":"〒196-0004 東京都昭島市緑町４丁目１９−２０","ステータス":"RECEIPT","region":"Akishima","lat":35.715065,"lng":139.342667},{"店舗名":"ヤンニョムチキン&チーズキンパ 梨泰院トンバンキンパ!! 昭島緑町店","住所":"〒196-0004 東京都昭島市緑町５丁目１−９","ステータス":"APP_DISPLAY","region":"Akishima","lat":35.715191,"lng":139.34259},{"店舗名":"韓国ジャージャー麺 梨泰院トンバンジャージャー麺 昭島緑町店","住所":"〒196-0004 東京都昭島市緑町５丁目１−９","ステータス":"APP_DISPLAY","region":"Akishima","lat":35.715191,"lng":139.34259},{"店舗名":"魚介豚骨まぜそば 漁夫の利 昭島緑町店 Seafood and Pork Bone Mazesoba Gyofunori Akishimamidoricho","住所":"〒196-0004 東京都昭島市緑町５丁目１−９","ステータス":"APP_DISPLAY","region":"Akishima","lat":35.715191,"lng":139.34259},{"店舗名":"アジアンダイニングSASA","住所":"〒196-0004 東京都昭島市緑町五丁目１番９号","ステータス":"APP_DISPLAY","region":"Akishima","lat":35.715191,"lng":139.34259},{"店舗名":"インドカリーダイニングCobara Cafe 昭島モリタウン店","住所":"〒196-0005","ステータス":"APP_DISPLAY","region":"Akishima","lat":35.71991,"lng":139.360687},{"店舗名":"しゃぶしゃぶ温野菜 昭島モリタウン店","住所":"〒196-0005 東京都昭島市代官山２丁目３−１","ステータス":"APP_DISPLAY","region":"Akishima","lat":35.713612,"lng":139.362946},{"店舗名":"リンガーハット モリタウン昭島店","住所":"〒196-0005 東京都昭島市代官山２丁目３−１","ステータス":"APP_DISPLAY","region":"Akishima","lat":35.713612,"lng":139.362946},{"店舗名":"炭焼きステーキピラフとステーキのお店 なかのグリル 昭島モリタウン店","住所":"〒196-0005 東京都昭島市代官山２丁目３−１","ステータス":"APP_DISPLAY","region":"Akishima","lat":35.713612,"lng":139.362946},{"店舗名":"らあめん花月嵐Express 昭島モリタウン店","住所":"〒196-0005 東京都昭島市代官山２丁目３−１","ステータス":"APP_DISPLAY","region":"Akishima","lat":35.713612,"lng":139.362946},{"店舗名":"焼肉 丑輪","住所":"〒196-0011 東京都昭島市上川原町二丁目23番1号","ステータス":"APP_DISPLAY","region":"Akishima","lat":35.710293,"lng":139.355957},{"店舗名":"からやま 昭島店","住所":"〒196-0012 東京都昭島市つつじが丘１丁目１−９","ステータス":"APP_DISPLAY","region":"Akishima","lat":35.723858,"lng":139.373291},{"店舗名":"燻製グルメバーガー グリル2910 byなかのグリル昭島モリタウン店","住所":"〒196-0014 東京都昭島市田中町","ステータス":"APP_DISPLAY","region":"Akishima","lat":35.715012,"lng":139.362717},{"店舗名":"らーめん専門店小川 昭島店","住所":"〒196-0014 東京都昭島市田中町","ステータス":"APP_DISPLAY","region":"Akishima","lat":35.715012,"lng":139.362717},{"店舗名":"吉野家 昭島モリタウン店","住所":"〒196-0014 東京都昭島市田中町５６２－１","ステータス":"APP_DISPLAY","region":"Akishima","lat":35.715012,"lng":139.362717},{"店舗名":"バーガーキング昭島モリタウン店","住所":"〒196-0014 東京都昭島市田中町562番地1","ステータス":"APP_DISPLAY","region":"Akishima","lat":35.715012,"lng":139.362717},{"店舗名":"玄米とお茶　今","住所":"〒196-0015","ステータス":"APP_DISPLAY","region":"Akishima","lat":35.711151,"lng":139.366318},{"店舗名":"デニーズ 昭島店","住所":"〒196-0015 東京都昭島市昭和町１丁目１−１２","ステータス":"APP_DISPLAY","region":"Akishima","lat":35.709339,"lng":139.369217},{"店舗名":"魚民 昭島南口駅前店","住所":"〒196-0015 東京都昭島市昭和町２丁目１−１４","ステータス":"APP_DISPLAY","region":"Akishima","lat":35.713127,"lng":139.361343},{"店舗名":"からあげの鉄人 昭島南口駅前店","住所":"〒196-0015 東京都昭島市昭和町２丁目１−１４ 松葉家ビル","ステータス":"APP_DISPLAY","region":"Akishima","lat":35.713127,"lng":139.361343},{"店舗名":"カミナリステーキ 昭島南口駅前店","住所":"〒196-0015 東京都昭島市昭和町２丁目１−１４ 松葉家ビル 1,2","ステータス":"APP_DISPLAY","region":"Akishima","lat":35.713127,"lng":139.361343},{"店舗名":"カマル ファーストフード ケバブ＆バー 昭島店","住所":"〒196-0015 東京都昭島市昭和町２丁目１−１６","ステータス":"APP_DISPLAY","region":"Akishima","lat":35.71323,"lng":139.361023},{"店舗名":"KAMAL FAST FOOD昭島　カマルファーストフードアキシマ","住所":"〒196-0015 東京都昭島市昭和町２丁目１−１６","ステータス":"APP_DISPLAY","region":"Akishima","lat":35.71323,"lng":139.361023},{"店舗名":"マウンテンスパイスカレー","住所":"〒196-0015 東京都昭島市昭和町２丁目７−１９","ステータス":"APP_DISPLAY","region":"Akishima","lat":35.714001,"lng":139.359039},{"店舗名":"串カツ田中 昭島店","住所":"〒196-0015 東京都昭島市昭和町５丁目１４−１７","ステータス":"APP_DISPLAY","region":"Akishima","lat":35.712955,"lng":139.359268},{"店舗名":"大盛スタミナ肉丼 ニンニク野郎 昭島店","住所":"〒196-0015 東京都昭島市昭和町５丁目１４−１７","ステータス":"APP_DISPLAY","region":"Akishima","lat":35.712955,"lng":139.359268},{"店舗名":"ABC FARM CAFE","住所":"〒196-0021 東京都昭島市武蔵野２丁目","ステータス":"APP_DISPLAY","region":"Akishima","lat":35.72184,"lng":139.376068},{"店舗名":"油そば専門店 麺や独歩","住所":"〒196-0022 東京都昭島市中神町１１５７−５５","ステータス":"APP_DISPLAY","region":"Akishima","lat":35.712082,"lng":139.375534},{"店舗名":"麺屋 自由奔放","住所":"〒196-0022 東京都昭島市中神町1171番地","ステータス":"APP_DISPLAY","region":"Akishima","lat":35.710892,"lng":139.374802},{"店舗名":"東京昭島 ラーメンサカモト","住所":"〒196-0022 東京都昭島市中神町１丁目２３－１４","ステータス":"APP_DISPLAY","region":"Akishima","lat":35.704769,"lng":139.366791},{"店舗名":"大好き日本","住所":"〒196-0022東京都昭島市中神町１３５６－３","ステータス":"APP_DISPLAY","region":"Akishima","lat":35.715748,"lng":139.383377},{"店舗名":"リトモキッチン","住所":"〒196-0025","ステータス":"APP_DISPLAY","region":"Akishima","lat":35.708347,"lng":139.375031},{"店舗名":"カレーキング","住所":"〒196-0025 東京都昭島市朝日町－１－１－１５","ステータス":"APP_DISPLAY","region":"Akishima","lat":35.709114,"lng":139.374954},{"店舗名":"キングチキン 中神駅前店","住所":"〒196-0025 東京都昭島市朝日町１丁目１−１５","ステータス":"APP_DISPLAY","region":"Akishima","lat":35.709114,"lng":139.374954},{"店舗名":"横浜家系ラーメン 中神家","住所":"〒196-0025 東京都昭島市朝日町１丁目１−１５","ステータス":"APP_DISPLAY","region":"Akishima","lat":35.709114,"lng":139.374954},{"店舗名":"酒選料理 弥生亭","住所":"〒196-0025 東京都昭島市朝日町１丁目１１−５","ステータス":"APP_DISPLAY","region":"Akishima","lat":35.70871,"lng":139.374268},{"店舗名":"ルカル","住所":"〒196-0025 東京都昭島市朝日町１丁目１１−８","ステータス":"APP_DISPLAY","region":"Akishima","lat":35.708424,"lng":139.373962},{"店舗名":"ドミノ・ピザ 昭島店","住所":"〒196-0025 東京都昭島市朝日町１丁目２−１","ステータス":"APP_DISPLAY","region":"Akishima","lat":35.70837,"lng":139.376968},{"店舗名":"伝説のすた丼屋 昭島店","住所":"〒196-0025 東京都昭島市朝日町２丁目４−１０","ステータス":"APP_DISPLAY","region":"Akishima","lat":35.708881,"lng":139.370605},{"店舗名":"まぐろや　昭島店","住所":"〒196-0025 東京都昭島市朝日町２丁目６−２０","ステータス":"APP_DISPLAY","region":"Akishima","lat":35.710144,"lng":139.369766},{"店舗名":"築地丸義","住所":"〒196-0025 東京都昭島市朝日町３丁目１１−１９","ステータス":"APP_DISPLAY","region":"Akishima","lat":35.706638,"lng":139.374222},{"店舗名":"本格常夏料理 米とSpiceのハッピーダイニング","住所":"〒196-0031 東京都昭島市福島町１０１１−３０","ステータス":"APP_DISPLAY","region":"Akishima","lat":35.7071,"lng":139.384048},{"店舗名":"Nico","住所":"〒196-0033 東京都昭島市東町１丁目２−３","ステータス":"APP_DISPLAY","region":"Akishima","lat":35.70179,"lng":139.393585},{"店舗名":"中華そばうゑ田","住所":"〒196-0033 東京都昭島市東町４丁目１１−１１","ステータス":"APP_DISPLAY","region":"Akishima","lat":35.702045,"lng":139.389877},{"店舗名":"豊庵","住所":"〒196-0033 東京都昭島市東町一丁目2番3号","ステータス":"APP_DISPLAY","region":"Akishima","lat":35.70179,"lng":139.393585},{"店舗名":"開花","住所":"〒196-0034 東京都昭島市玉川町１－１－１５","ステータス":"APP_DISPLAY","region":"Akishima","lat":35.706066,"lng":139.384872},{"店舗名":"カレーライスハウス","住所":"〒196-0034 東京都昭島市玉川町１丁目1-15","ステータス":"APP_DISPLAY","region":"Akishima","lat":35.706066,"lng":139.384872},{"店舗名":"タコライスショップ「Deep」","住所":"〒196-0034 東京都昭島市玉川町１丁目1－15","ステータス":"APP_DISPLAY","region":"Akishima","lat":35.706066,"lng":139.384872},{"店舗名":"Spicy 焼きそば店","住所":"〒196-0034 東京都昭島市玉川町１丁目１−１５","ステータス":"APP_DISPLAY","region":"Akishima","lat":35.706066,"lng":139.384872},{"店舗名":"ガパオライスショップ","住所":"〒196-0034 東京都昭島市玉川町１丁目１−１５","ステータス":"APP_DISPLAY","region":"Akishima","lat":35.706066,"lng":139.384872},{"店舗名":"Heaven","住所":"〒196-0034 東京都昭島市玉川町１丁目１−１５エハラビル1F","ステータス":"APP_DISPLAY","region":"Akishima","lat":35.706066,"lng":139.384872},{"店舗名":"タイ料理サワディーカー","住所":"〒196-0034 東京都昭島市玉川町１丁目７","ステータス":"APP_DISPLAY","region":"Akishima","lat":35.706417,"lng":139.383698},{"店舗名":"お好み焼き もんじゃ R&M","住所":"〒196-0034 東京都昭島市玉川町２丁目５−７","ステータス":"APP_DISPLAY","region":"Akishima","lat":35.706779,"lng":139.37825},{"店舗名":"ごんにんごん中神店","住所":"〒196-0034 東京都昭島市玉川町２丁目５−７","ステータス":"APP_DISPLAY","region":"Akishima","lat":35.706779,"lng":139.37825},{"店舗名":"【本格コーヒーと手作りケーキの幸せセット】awesome coffee and more","住所":"〒196-0034 東京都昭島市玉川町３丁目１８−１１ 玉川町ビル","ステータス":"APP_DISPLAY","region":"Akishima","lat":35.705383,"lng":139.381592},{"店舗名":"焼肉居酒屋シンゴル亭","住所":"〒196-0034 東京都昭島市玉川町４丁目１−１０","ステータス":"APP_DISPLAY","region":"Akishima","lat":35.70562,"lng":139.380829}]