[{"店舗名":"町屋MOGU-RA","住所":"〒116-0001","ステータス":"APP_DISPLAY","region":"Arakawa","lat":35.744644,"lng":139.785294},{"店舗名":"バラカケバブ＆バーガー町屋店","住所":"〒116-0001","ステータス":"RECEIPT","region":"Arakawa","lat":35.744644,"lng":139.785294},{"店舗名":"薬膳甘味処　りくゆう","住所":"〒116-0001 東京都荒川区町屋","ステータス":"APP_DISPLAY","region":"Arakawa","lat":35.744644,"lng":139.785294},{"店舗名":"本格チーズナン「ナンの日だ」町屋店","住所":"〒116-0001 東京都荒川区町屋１丁目","ステータス":"APP_DISPLAY","region":"Arakawa","lat":35.744644,"lng":139.785294},{"店舗名":"スナック藍","住所":"〒116-0001 東京都荒川区町屋１丁目２０−１１","ステータス":"APP_DISPLAY","region":"Arakawa","lat":35.743217,"lng":139.782074},{"店舗名":"やま","住所":"〒116-0001 東京都荒川区町屋１丁目２０−７","ステータス":"APP_DISPLAY","region":"Arakawa","lat":35.743183,"lng":139.781509},{"店舗名":"広島てっぱんの店 ひな","住所":"〒116-0001 東京都荒川区町屋１丁目２−１","ステータス":"APP_DISPLAY","region":"Arakawa","lat":35.743298,"lng":139.782089},{"店舗名":"メロディランド 町屋店","住所":"〒116-0001 東京都荒川区町屋１丁目２−１１","ステータス":"APP_DISPLAY","region":"Arakawa","lat":35.743549,"lng":139.781128},{"店舗名":"あつめ","住所":"〒116-0001 東京都荒川区町屋１丁目２１−１２","ステータス":"APP_DISPLAY","region":"Arakawa","lat":35.743324,"lng":139.782822},{"店舗名":"ホルモン弘","住所":"〒116-0001 東京都荒川区町屋１丁目２-１３","ステータス":"APP_DISPLAY","region":"Arakawa","lat":35.743603,"lng":139.781403},{"店舗名":"とんかつレストラン勝かど","住所":"〒116-0001 東京都荒川区町屋１丁目２２−６","ステータス":"APP_DISPLAY","region":"Arakawa","lat":35.744244,"lng":139.783356},{"店舗名":"炙りトロ肉ホタテ丼 帆立男児 町屋店","住所":"〒116-0001 東京都荒川区町屋１丁目２−４","ステータス":"APP_DISPLAY","region":"Arakawa","lat":35.743324,"lng":139.781601},{"店舗名":"ユッケの目線 町屋店","住所":"〒116-0001 東京都荒川区町屋１丁目２−４","ステータス":"APP_DISPLAY","region":"Arakawa","lat":35.743324,"lng":139.781601},{"店舗名":"チキン南蛮大衆酒場あんじゅ 町屋店","住所":"〒116-0001 東京都荒川区町屋１丁目２−5","ステータス":"APP_DISPLAY","region":"Arakawa","lat":35.74332,"lng":139.781433},{"店舗名":"串屋横丁もつ焼きセンター","住所":"〒116-0001 東京都荒川区町屋１丁目３−７","ステータス":"APP_DISPLAY","region":"Arakawa","lat":35.743774,"lng":139.781281},{"店舗名":"カレーハウス CoCo壱番屋 東京メトロ町屋駅前通店","住所":"〒116-0001 東京都荒川区町屋１丁目４−５","ステータス":"APP_DISPLAY","region":"Arakawa","lat":35.74445,"lng":139.781723},{"店舗名":"パリジャン カフェ","住所":"〒116-0001 東京都荒川区町屋１丁目４−５","ステータス":"APP_DISPLAY","region":"Arakawa","lat":35.74445,"lng":139.781723},{"店舗名":"餃子は一龍　町屋一丁目店","住所":"〒116-0001 東京都荒川区町屋１丁目５−７","ステータス":"APP_DISPLAY","region":"Arakawa","lat":35.745075,"lng":139.78215},{"店舗名":"Halal Burger","住所":"〒116-0001 東京都荒川区町屋１丁目５−８","ステータス":"APP_DISPLAY","region":"Arakawa","lat":35.745159,"lng":139.782196},{"店舗名":"KEBAB PADISAH","住所":"〒116-0001 東京都荒川区町屋１丁目９−８","ステータス":"APP_DISPLAY","region":"Arakawa","lat":35.746574,"lng":139.783142},{"店舗名":"バー いそむら","住所":"〒116-0001 東京都荒川区町屋２丁目１−１４","ステータス":"APP_DISPLAY","region":"Arakawa","lat":35.743145,"lng":139.780396},{"店舗名":"ちよだ鮨 町屋駅前店","住所":"〒116-0001 東京都荒川区町屋２丁目１−１４ 町屋プラザビル","ステータス":"APP_DISPLAY","region":"Arakawa","lat":35.743145,"lng":139.780396},{"店舗名":"名匠 たこ焼 上木家 町屋店","住所":"〒116-0001 東京都荒川区町屋２丁目１−２ 明和ビル","ステータス":"APP_DISPLAY","region":"Arakawa","lat":35.742939,"lng":139.780273},{"店舗名":"町屋大勝軒孤珀","住所":"〒116-0001 東京都荒川区町屋２丁目１７−２","ステータス":"APP_DISPLAY","region":"Arakawa","lat":35.743652,"lng":139.777405},{"店舗名":"今日一番家","住所":"〒116-0001 東京都荒川区町屋２丁目１７－７","ステータス":"APP_DISPLAY","region":"Arakawa","lat":35.744015,"lng":139.776947},{"店舗名":"江戸前天麩羅 天堂","住所":"〒116-0001 東京都荒川区町屋２丁目２−３ 旭堂ビル ２階","ステータス":"APP_DISPLAY","region":"Arakawa","lat":35.743191,"lng":139.780289},{"店舗名":"韓無量 町屋店","住所":"〒116-0001 東京都荒川区町屋２丁目３−１０","ステータス":"APP_DISPLAY","region":"Arakawa","lat":35.744202,"lng":139.781372},{"店舗名":"ドミノ・ピザ 町屋店","住所":"〒116-0001 東京都荒川区町屋２丁目３−１０","ステータス":"APP_DISPLAY","region":"Arakawa","lat":35.744202,"lng":139.781372},{"店舗名":"大衆焼鳥とりぞう 町屋店","住所":"〒116-0001 東京都荒川区町屋２丁目８−１","ステータス":"RECEIPT","region":"Arakawa","lat":35.743202,"lng":139.78006},{"店舗名":"Meat Italiana Angie","住所":"〒116-0001 東京都荒川区町屋３丁目２−１","ステータス":"APP_DISPLAY","region":"Arakawa","lat":35.745777,"lng":139.782333},{"店舗名":"Dal Bhat Eatery & Halal Foods","住所":"〒116-0001 東京都荒川区町屋３丁目２−１","ステータス":"APP_DISPLAY","region":"Arakawa","lat":35.745777,"lng":139.782333},{"店舗名":"ASIAN DINING&BAR JASMINE 町屋店","住所":"〒116-0001 東京都荒川区町屋３丁目２１−９ ビビンパの家","ステータス":"APP_DISPLAY","region":"Arakawa","lat":35.747402,"lng":139.783508},{"店舗名":"塗装屋さんのミニたいやき 希空","住所":"〒116-0001 東京都荒川区町屋３丁目２８−１４","ステータス":"APP_DISPLAY","region":"Arakawa","lat":35.748978,"lng":139.781967},{"店舗名":"炭火庵串屋","住所":"〒116-0001 東京都荒川区町屋３丁目８−１５","ステータス":"APP_DISPLAY","region":"Arakawa","lat":35.747009,"lng":139.783249},{"店舗名":"【本場韓国の味をご家庭で!】モゴモゴ ダイニング","住所":"〒116-0001 東京都荒川区町屋３丁目９−１６ マツバビル 1階","ステータス":"APP_DISPLAY","region":"Arakawa","lat":35.747414,"lng":139.783524},{"店舗名":"マチヤクレープ","住所":"〒116-0001 東京都荒川区町屋３丁目９−１７","ステータス":"RECEIPT","region":"Arakawa","lat":35.747292,"lng":139.783447},{"店舗名":"はななベーカリー","住所":"〒116-0001 東京都荒川区町屋４丁目２４−７","ステータス":"APP_DISPLAY","region":"Arakawa","lat":35.747925,"lng":139.777771},{"店舗名":"アジアンダイニング&バーkalika","住所":"〒116-0001 東京都荒川区町屋５丁目６−１","ステータス":"APP_DISPLAY","region":"Arakawa","lat":35.749672,"lng":139.778778},{"店舗名":"エスニックレストラン＆バー アユス AYUSH EthnicRestaurant&Bar","住所":"〒116-0001 東京都荒川区町屋８丁目４−８ 藤和シティコープ町屋２","ステータス":"APP_DISPLAY","region":"Arakawa","lat":35.749187,"lng":139.784897},{"店舗名":"タナカタロウ","住所":"〒116-0001 東京都荒川区町屋８丁目４−８ 藤和シティコープ町屋２","ステータス":"APP_DISPLAY","region":"Arakawa","lat":35.749187,"lng":139.784897},{"店舗名":"Chii coffee ﾁｰｺｰﾋｰ","住所":"〒116-0001 東京都荒川区町屋８丁目８−１５ すえひろ企画","ステータス":"APP_DISPLAY","region":"Arakawa","lat":35.747276,"lng":139.784531},{"店舗名":"おはな丼丸　荒川店","住所":"〒116-0002","ステータス":"APP_DISPLAY","region":"Arakawa","lat":35.73476,"lng":139.786835},{"店舗名":"アジアン料理ガンディジー町屋店 「GANDHIJI","住所":"〒116-0002","ステータス":"APP_DISPLAY","region":"Arakawa","lat":35.73476,"lng":139.786835},{"店舗名":"ガパオ","住所":"〒116-0002 東京都荒川区荒川","ステータス":"APP_DISPLAY","region":"Arakawa","lat":35.73476,"lng":139.786835},{"店舗名":"ニルヴァーナ","住所":"〒116-0002 東京都荒川区荒川１丁目４９−２","ステータス":"APP_DISPLAY","region":"Arakawa","lat":35.734501,"lng":139.785019},{"店舗名":"合家福  ゴウカフク","住所":"〒116-0002 東京都荒川区荒川１丁目４９−２","ステータス":"APP_DISPLAY","region":"Arakawa","lat":35.734501,"lng":139.785019},{"店舗名":"yosuha","住所":"〒116-0002 東京都荒川区荒川１丁目５７−９","ステータス":"APP_DISPLAY","region":"Arakawa","lat":35.732433,"lng":139.786179},{"店舗名":"からあげ縁 荒川区役所前","住所":"〒116-0002 東京都荒川区荒川２丁目１−８","ステータス":"APP_DISPLAY","region":"Arakawa","lat":35.734814,"lng":139.784698},{"店舗名":"まんぞくランド","住所":"〒116-0002 東京都荒川区荒川３丁目２０番５号","ステータス":"APP_DISPLAY","region":"Arakawa","lat":35.73381,"lng":139.782639},{"店舗名":"チキンクラス 日暮里店 Chicken Class","住所":"〒116-0002 東京都荒川区荒川３丁目２３−６ 明治荘","ステータス":"APP_DISPLAY","region":"Arakawa","lat":35.733952,"lng":139.782211},{"店舗名":"炭火焼き鳥みなしげ荒川店","住所":"〒116-0002 東京都荒川区荒川３丁目３２- 28","ステータス":"APP_DISPLAY","region":"Arakawa","lat":35.735313,"lng":139.782089},{"店舗名":"アジアンキッチン＆バー ママガル","住所":"〒116-0002 東京都荒川区荒川３丁目４６−１１","ステータス":"APP_DISPLAY","region":"Arakawa","lat":35.734173,"lng":139.7798},{"店舗名":"仁寺洞","住所":"〒116-0002 東京都荒川区荒川３丁目６０−４","ステータス":"APP_DISPLAY","region":"Arakawa","lat":35.733456,"lng":139.779266},{"店舗名":"エスニック料理ハベリ- Ethic Food Haveli","住所":"〒116-0002 東京都荒川区荒川３丁目６１−５ 三河島会館","ステータス":"APP_DISPLAY","region":"Arakawa","lat":35.73341,"lng":139.779099},{"店舗名":"韓国式中華料理専門店 東京ガーデン","住所":"〒116-0002 東京都荒川区荒川３丁目６１−５ 三河島会館 １F","ステータス":"APP_DISPLAY","region":"Arakawa","lat":35.73341,"lng":139.779099},{"店舗名":"江原商店","住所":"〒116-0002 東京都荒川区荒川３丁目６３−５","ステータス":"APP_DISPLAY","region":"Arakawa","lat":35.73423,"lng":139.778961},{"店舗名":"すなっくさと","住所":"〒116-0002 東京都荒川区荒川３丁目６４−９","ステータス":"APP_DISPLAY","region":"Arakawa","lat":35.734692,"lng":139.778961},{"店舗名":"焼肉リン","住所":"〒116-0002 東京都荒川区荒川３丁目６８−１","ステータス":"APP_DISPLAY","region":"Arakawa","lat":35.735191,"lng":139.777756},{"店舗名":"千惠中华物产","住所":"〒116-0002 東京都荒川区荒川４丁目１１−２","ステータス":"APP_DISPLAY","region":"Arakawa","lat":35.738255,"lng":139.777588},{"店舗名":"中華物産速送","住所":"〒116-0002 東京都荒川区荒川４丁目１１−２","ステータス":"APP_DISPLAY","region":"Arakawa","lat":35.738255,"lng":139.777588},{"店舗名":"中華物產北区倉","住所":"〒116-0002 東京都荒川区荒川４丁目１１−２","ステータス":"APP_DISPLAY","region":"Arakawa","lat":35.738255,"lng":139.777588},{"店舗名":"中華物產及時送","住所":"〒116-0002 東京都荒川区荒川４丁目１１−２","ステータス":"APP_DISPLAY","region":"Arakawa","lat":35.738255,"lng":139.777588},{"店舗名":"中華物產一站購","住所":"〒116-0002 東京都荒川区荒川４丁目１１−２","ステータス":"APP_DISPLAY","region":"Arakawa","lat":35.738255,"lng":139.777588},{"店舗名":"中華物產優選快送","住所":"〒116-0002 東京都荒川区荒川４丁目１１−２","ステータス":"APP_DISPLAY","region":"Arakawa","lat":35.738255,"lng":139.777588},{"店舗名":"小吃之家","住所":"〒116-0002 東京都荒川区荒川４丁目１１−２","ステータス":"APP_DISPLAY","region":"Arakawa","lat":35.738255,"lng":139.777588},{"店舗名":"ツンボール","住所":"〒116-0002 東京都荒川区荒川４丁目５４−８","ステータス":"APP_DISPLAY","region":"Arakawa","lat":35.739861,"lng":139.781494},{"店舗名":"タルタルMADMAX","住所":"〒116-0002 東京都荒川区荒川５丁目２６−１３","ステータス":"APP_DISPLAY","region":"Arakawa","lat":35.737949,"lng":139.774948},{"店舗名":"極太麻婆春雨 新三河島駅前店","住所":"〒116-0002 東京都荒川区荒川５丁目２６−１３","ステータス":"APP_DISPLAY","region":"Arakawa","lat":35.737949,"lng":139.774948},{"店舗名":"豚汁とほかほかごはん時々豚飯 新三河島駅前店","住所":"〒116-0002 東京都荒川区荒川５丁目２６−１３","ステータス":"APP_DISPLAY","region":"Arakawa","lat":35.737949,"lng":139.774948},{"店舗名":"赤身厳選荒川精肉処","住所":"〒116-0002 東京都荒川区荒川５丁目２６−１３","ステータス":"APP_DISPLAY","region":"Arakawa","lat":35.737949,"lng":139.774948},{"店舗名":"丸屋","住所":"〒116-0002 東京都荒川区荒川６ー４０ー５","ステータス":"APP_DISPLAY","region":"Arakawa","lat":35.743557,"lng":139.776962},{"店舗名":"沁涼茶品","住所":"〒116-0002 東京都荒川区荒川６丁目２０−１０","ステータス":"APP_DISPLAY","region":"Arakawa","lat":35.743256,"lng":139.778259},{"店舗名":"御食事酒処　弾","住所":"〒116-0002 東京都荒川区荒川６丁目３７−１０","ステータス":"APP_DISPLAY","region":"Arakawa","lat":35.742779,"lng":139.776489},{"店舗名":"名物やきとん【とみちゃん 町屋店】","住所":"〒116-0002 東京都荒川区荒川６丁目５−５","ステータス":"APP_DISPLAY","region":"Arakawa","lat":35.741913,"lng":139.779816},{"店舗名":"宮崎産の旨い焼鳥～とり家ゑび寿 町屋店","住所":"〒116-0002 東京都荒川区荒川６丁目６−１","ステータス":"APP_DISPLAY","region":"Arakawa","lat":35.74263,"lng":139.780319},{"店舗名":"大衆食堂 吉ざわ","住所":"〒116-0002 東京都荒川区荒川７丁目２０−１","ステータス":"APP_DISPLAY","region":"Arakawa","lat":35.741844,"lng":139.782074},{"店舗名":"あしびなぁ","住所":"〒116-0002 東京都荒川区荒川７丁目２０−１","ステータス":"APP_DISPLAY","region":"Arakawa","lat":35.741844,"lng":139.782074},{"店舗名":"サルガム 町屋店 Sargam Machiya","住所":"〒116-0002 東京都荒川区荒川７丁目２２−３","ステータス":"APP_DISPLAY","region":"Arakawa","lat":35.742035,"lng":139.781387},{"店舗名":"かちゃぐり酒場 コテヤ 居酒屋 町屋","住所":"〒116-0002 東京都荒川区荒川７丁目２２−８","ステータス":"APP_DISPLAY","region":"Arakawa","lat":35.741951,"lng":139.781616},{"店舗名":"横浜家系ラーメン 檜家 町屋店","住所":"〒116-0002 東京都荒川区荒川７丁目３９−２ 町屋esビル","ステータス":"APP_DISPLAY","region":"Arakawa","lat":35.741665,"lng":139.780899},{"店舗名":"麺屋愛心TOKYO 町屋店","住所":"〒116-0002 東京都荒川区荒川７丁目３９−３","ステータス":"APP_DISPLAY","region":"Arakawa","lat":35.74176,"lng":139.781036},{"店舗名":"カントンの思い出ペダルチキン町屋店","住所":"〒116-0002 東京都荒川区荒川７丁目３９−４ スリーリバーＭ","ステータス":"APP_DISPLAY","region":"Arakawa","lat":35.741863,"lng":139.781174},{"店舗名":"呑み処 まちや","住所":"〒116-0002 東京都荒川区荒川７丁目３９−５","ステータス":"RECEIPT","region":"Arakawa","lat":35.74192,"lng":139.781326},{"店舗名":"フレッシュネスバーガー 町屋店","住所":"〒116-0002 東京都荒川区荒川７丁目４６−１","ステータス":"APP_DISPLAY","region":"Arakawa","lat":35.742023,"lng":139.78035},{"店舗名":"デニーズ 町屋駅前店","住所":"〒116-0002 東京都荒川区荒川７丁目４９−１","ステータス":"APP_DISPLAY","region":"Arakawa","lat":35.742504,"lng":139.781281},{"店舗名":"ケンタッキーフライドチキン サンポップ町屋店","住所":"〒116-0002 東京都荒川区荒川７丁目５０−９","ステータス":"APP_DISPLAY","region":"Arakawa","lat":35.742722,"lng":139.780869},{"店舗名":"リンガーハット 町屋サンポップ店","住所":"〒116-0002 東京都荒川区荒川７丁目５０−９","ステータス":"APP_DISPLAY","region":"Arakawa","lat":35.742722,"lng":139.780869},{"店舗名":"おにぎり専門店おむふく","住所":"〒116-0002 東京都荒川区荒川７丁目５０−９ センターまちや","ステータス":"APP_DISPLAY","region":"Arakawa","lat":35.742722,"lng":139.780869},{"店舗名":"クロッフル・パラダイス Croffle Paradise","住所":"〒116-0002 東京都荒川区荒川三丁目23番6号","ステータス":"APP_DISPLAY","region":"Arakawa","lat":35.733952,"lng":139.782211},{"店舗名":"豚首領 荒川店","住所":"〒116-0002 東京都荒川区荒川五丁目26番13号","ステータス":"APP_DISPLAY","region":"Arakawa","lat":35.737949,"lng":139.774948},{"店舗名":"食通に贈る至高のローカロリー麺 LOCALO Noodle（ロカロヌードル）南千住店","住所":"〒116-0003","ステータス":"APP_DISPLAY","region":"Arakawa","lat":35.733543,"lng":139.791092},{"店舗名":"甲州屋","住所":"〒116-0003","ステータス":"APP_DISPLAY","region":"Arakawa","lat":35.733543,"lng":139.791092},{"店舗名":"おつかれ酒場","住所":"〒116-0003","ステータス":"APP_DISPLAY","region":"Arakawa","lat":35.733543,"lng":139.791092},{"店舗名":"ＢＳキッチンインド＆ネパールダイニングバー","住所":"〒116-0003","ステータス":"APP_DISPLAY","region":"Arakawa","lat":35.733543,"lng":139.791092},{"店舗名":"【元フレンチシェフオーナーの手作りの味】メインがパスタのまちの洋食屋さん。南千住店","住所":"〒116-0003 東京都荒川区南千住１丁目１３−１９","ステータス":"APP_DISPLAY","region":"Arakawa","lat":35.731979,"lng":139.790619},{"店舗名":"【新潟米と国産肉とパスタ】ハマる屋。 南千住店","住所":"〒116-0003 東京都荒川区南千住１丁目１３−１９","ステータス":"APP_DISPLAY","region":"Arakawa","lat":35.731979,"lng":139.790619},{"店舗名":"ニュー紅豆","住所":"〒116-0003 東京都荒川区南千住１丁目１３−８","ステータス":"APP_DISPLAY","region":"Arakawa","lat":35.731739,"lng":139.791733},{"店舗名":"ほうじ茶とコーヒー 小林商店","住所":"〒116-0003 東京都荒川区南千住１丁目１５−１６","ステータス":"APP_DISPLAY","region":"Arakawa","lat":35.732292,"lng":139.791977},{"店舗名":"胖胖山東面食 パンパンサントウメンショク","住所":"〒116-0003 東京都荒川区南千住１丁目１７−１","ステータス":"APP_DISPLAY","region":"Arakawa","lat":35.7328,"lng":139.791412},{"店舗名":"コロンバキッチン","住所":"〒116-0003 東京都荒川区南千住１丁目１８−２","ステータス":"APP_DISPLAY","region":"Arakawa","lat":35.733002,"lng":139.791031},{"店舗名":"アジアンキッチン クマル 三ノ輪店","住所":"〒116-0003 東京都荒川区南千住１丁目１８−３","ステータス":"APP_DISPLAY","region":"Arakawa","lat":35.732929,"lng":139.791168},{"店舗名":"エスニック料理ハリオム　Ethnic Food HARI OM","住所":"〒116-0003 東京都荒川区南千住１丁目１８−３","ステータス":"APP_DISPLAY","region":"Arakawa","lat":35.732929,"lng":139.791168},{"店舗名":"交流純喫茶 なごり","住所":"〒116-0003 東京都荒川区南千住１丁目１８−３","ステータス":"APP_DISPLAY","region":"Arakawa","lat":35.732929,"lng":139.791168},{"店舗名":"ロケ弁タカネット","住所":"〒116-0003 東京都荒川区南千住１丁目２１−１","ステータス":"APP_DISPLAY","region":"Arakawa","lat":35.734085,"lng":139.789032},{"店舗名":"おいしいタカネット","住所":"〒116-0003 東京都荒川区南千住１丁目２２−９","ステータス":"APP_DISPLAY","region":"Arakawa","lat":35.734047,"lng":139.7892},{"店舗名":"ジェラート工房エルバ","住所":"〒116-0003 東京都荒川区南千住１丁目２５−８ メゾンヒロセ","ステータス":"APP_DISPLAY","region":"Arakawa","lat":35.733528,"lng":139.790161},{"店舗名":"しらすドンドン","住所":"〒116-0003 東京都荒川区南千住１丁目２８−７","ステータス":"APP_DISPLAY","region":"Arakawa","lat":35.73304,"lng":139.791061},{"店舗名":"Farmer’s Lab ベジ365","住所":"〒116-0003 東京都荒川区南千住１丁目２８−８","ステータス":"APP_DISPLAY","region":"Arakawa","lat":35.733109,"lng":139.790924},{"店舗名":"ごはんがススム食堂 HAWAIIAN","住所":"〒116-0003 東京都荒川区南千住１丁目５０−１０","ステータス":"APP_DISPLAY","region":"Arakawa","lat":35.734997,"lng":139.792068},{"店舗名":"ピザハット 南千住店","住所":"〒116-0003 東京都荒川区南千住２丁目２５−８","ステータス":"APP_DISPLAY","region":"Arakawa","lat":35.728977,"lng":139.796982},{"店舗名":"トスカーニパスタ 南千住店","住所":"〒116-0003 東京都荒川区南千住２丁目２５−８","ステータス":"APP_DISPLAY","region":"Arakawa","lat":35.728977,"lng":139.796982},{"店舗名":"チキン・ウイングストリート 南千住店","住所":"〒116-0003 東京都荒川区南千住２丁目２５−８","ステータス":"APP_DISPLAY","region":"Arakawa","lat":35.728977,"lng":139.796982},{"店舗名":"麺や うえ村","住所":"〒116-0003 東京都荒川区南千住２丁目２８−８","ステータス":"APP_DISPLAY","region":"Arakawa","lat":35.729076,"lng":139.799164},{"店舗名":"胡弓 南千住店","住所":"〒116-0003 東京都荒川区南千住４丁目１−２","ステータス":"APP_DISPLAY","region":"Arakawa","lat":35.732895,"lng":139.802719},{"店舗名":"カレーハウス CoCo壱番屋 荒川区南千住駅前店","住所":"〒116-0003 東京都荒川区南千住４丁目２−２","ステータス":"APP_DISPLAY","region":"Arakawa","lat":35.733475,"lng":139.799728},{"店舗名":"濃厚魚介豚骨つけ麺 つじ田 南千住店","住所":"〒116-0003 東京都荒川区南千住４丁目３−１","ステータス":"APP_DISPLAY","region":"Arakawa","lat":35.732197,"lng":139.798798},{"店舗名":"油そば つじ田 南千住店","住所":"〒116-0003 東京都荒川区南千住４丁目３−１","ステータス":"APP_DISPLAY","region":"Arakawa","lat":35.732197,"lng":139.798798},{"店舗名":"にんにく豚脂そば 麵126 南千住店","住所":"〒116-0003 東京都荒川区南千住４丁目３−１","ステータス":"APP_DISPLAY","region":"Arakawa","lat":35.732197,"lng":139.798798},{"店舗名":"山形冷麺 りんご苑 南千住店","住所":"〒116-0003 東京都荒川区南千住４丁目３−１","ステータス":"APP_DISPLAY","region":"Arakawa","lat":35.732197,"lng":139.798798},{"店舗名":"【アサイー&グリーク】 THE BOWL 南千住店","住所":"〒116-0003 東京都荒川区南千住４丁目３−１","ステータス":"APP_DISPLAY","region":"Arakawa","lat":35.732197,"lng":139.798798},{"店舗名":"元祖台湾まぜそば麺屋はなびエクスプレス 南千住駅前店","住所":"〒116-0003 東京都荒川区南千住４丁目３−１","ステータス":"APP_DISPLAY","region":"Arakawa","lat":35.732197,"lng":139.798798},{"店舗名":"鮨 酒 肴 杉玉 南千住店","住所":"〒116-0003 東京都荒川区南千住４丁目５−３","ステータス":"APP_DISPLAY","region":"Arakawa","lat":35.733612,"lng":139.799255},{"店舗名":"鮨 おくうら 南千住店","住所":"〒116-0003 東京都荒川区南千住４丁目５−３ 西口ビル 2階","ステータス":"APP_DISPLAY","region":"Arakawa","lat":35.733612,"lng":139.799255},{"店舗名":"鮨 よし田 南千住店","住所":"〒116-0003 東京都荒川区南千住４丁目５−３ 西口ビル 2階","ステータス":"APP_DISPLAY","region":"Arakawa","lat":35.733612,"lng":139.799255},{"店舗名":"まぐろ丼と海鮮丼 近衛 南千住店","住所":"〒116-0003 東京都荒川区南千住４丁目５−３ 西口ビル 2階","ステータス":"APP_DISPLAY","region":"Arakawa","lat":35.733612,"lng":139.799255},{"店舗名":"大阪王将 南千住店","住所":"〒116-0003 東京都荒川区南千住４丁目７−１","ステータス":"APP_DISPLAY","region":"Arakawa","lat":35.735828,"lng":139.801926},{"店舗名":"ケンタッキーフライドチキン 三ノ輪店","住所":"〒116-0003 東京都荒川区南千住５丁目３−１６","ステータス":"APP_DISPLAY","region":"Arakawa","lat":35.731991,"lng":139.792679},{"店舗名":"【和冷麺】虎徹 ー KOTETSU ー 南千住店","住所":"〒116-0003 東京都荒川区南千住５丁目３−１６ ３番１６号","ステータス":"APP_DISPLAY","region":"Arakawa","lat":35.731991,"lng":139.792679},{"店舗名":"Tacoo!! TOKYO【究極のタコライス】 南千住店","住所":"〒116-0003 東京都荒川区南千住５丁目３−１６ ３番１６号","ステータス":"APP_DISPLAY","region":"Arakawa","lat":35.731991,"lng":139.792679},{"店舗名":"からだ喜ぶ！東京カオマンガイ 南千住店","住所":"〒116-0003 東京都荒川区南千住５丁目３−１６ ３番１６号","ステータス":"APP_DISPLAY","region":"Arakawa","lat":35.731991,"lng":139.792679},{"店舗名":"やみつきガパオ食堂 南千住店","住所":"〒116-0003 東京都荒川区南千住５丁目３−１６ ３番１６号","ステータス":"APP_DISPLAY","region":"Arakawa","lat":35.731991,"lng":139.792679},{"店舗名":"東京チキンオーバーライス【Tokyo Chicken 】 南千住店","住所":"〒116-0003 東京都荒川区南千住５丁目３−１６ ３番１６号","ステータス":"APP_DISPLAY","region":"Arakawa","lat":35.731991,"lng":139.792679},{"店舗名":"16穀米の美活カオマンガイ 南千住店","住所":"〒116-0003 東京都荒川区南千住５丁目３−１６ ３番１６号","ステータス":"APP_DISPLAY","region":"Arakawa","lat":35.731991,"lng":139.792679},{"店舗名":"【B級グルメ】今治の焼豚玉子飯 今治食堂 南千住店","住所":"〒116-0003 東京都荒川区南千住５丁目３−１６ ３番１６号","ステータス":"APP_DISPLAY","region":"Arakawa","lat":35.731991,"lng":139.792679},{"店舗名":"魯肉食堂 (ルーローショクドウ) 南千住店","住所":"〒116-0003 東京都荒川区南千住５丁目３−１６ ３番１６号","ステータス":"APP_DISPLAY","region":"Arakawa","lat":35.731991,"lng":139.792679},{"店舗名":"炙り豚丼 香ばし屋 南千住店","住所":"〒116-0003 東京都荒川区南千住５丁目３−１６ ３番１６号","ステータス":"APP_DISPLAY","region":"Arakawa","lat":35.731991,"lng":139.792679},{"店舗名":"Fishtail Restaurant &Bar","住所":"〒116-0003 東京都荒川区南千住５丁目３−３ リバース三ノ輪","ステータス":"APP_DISPLAY","region":"Arakawa","lat":35.732475,"lng":139.793365},{"店舗名":"オールブルーキッチン","住所":"〒116-0003 東京都荒川区南千住５丁目３−４","ステータス":"APP_DISPLAY","region":"Arakawa","lat":35.732426,"lng":139.793518},{"店舗名":"星降るクレープ【プリュイ・デトワール】 南千住店","住所":"〒116-0003 東京都荒川区南千住６丁目５９−１９","ステータス":"APP_DISPLAY","region":"Arakawa","lat":35.736362,"lng":139.796021},{"店舗名":"アサイーボウルxバナナxギリシャヨーグルト Hawaiian Restaurant MIYAKO 南千住店","住所":"〒116-0003 東京都荒川区南千住６丁目５９−１９","ステータス":"APP_DISPLAY","region":"Arakawa","lat":35.736362,"lng":139.796021},{"店舗名":"ソルバンコク","住所":"〒116-0003 東京都荒川区南千住６丁目５９−１９","ステータス":"APP_DISPLAY","region":"Arakawa","lat":35.736362,"lng":139.796021},{"店舗名":"【グリークヨーグルト】Greek Life 南千住6丁目2号店","住所":"〒116-0003 東京都荒川区南千住６丁目５９−１９ ＳＳＫグリーンパーク荒川","ステータス":"APP_DISPLAY","region":"Arakawa","lat":35.736362,"lng":139.796021},{"店舗名":"中国茶寮 一華","住所":"〒116-0003 東京都荒川区南千住６丁目６−４","ステータス":"APP_DISPLAY","region":"Arakawa","lat":35.738178,"lng":139.78894},{"店舗名":"バーガーキング南千住駅前店","住所":"〒116-0003 東京都荒川区南千住7-28-1南千住駅前","ステータス":"APP_DISPLAY","region":"Arakawa","lat":35.733543,"lng":139.798691},{"店舗名":"フルバリ南千住駅前店","住所":"〒116-0003 東京都荒川区南千住７丁目１−１","ステータス":"APP_DISPLAY","region":"Arakawa","lat":35.733074,"lng":139.798203},{"店舗名":"からあげの鉄人 南千住西口駅前店","住所":"〒116-0003 東京都荒川区南千住７丁目２−６","ステータス":"APP_DISPLAY","region":"Arakawa","lat":35.733624,"lng":139.79863},{"店舗名":"魚民 南千住西口駅前店","住所":"〒116-0003 東京都荒川区南千住７丁目２−６","ステータス":"APP_DISPLAY","region":"Arakawa","lat":35.733624,"lng":139.79863},{"店舗名":"カミナリステーキ 南千住西口駅前店","住所":"〒116-0003 東京都荒川区南千住７丁目２−６","ステータス":"APP_DISPLAY","region":"Arakawa","lat":35.733624,"lng":139.79863},{"店舗名":"デニーズ 南千住駅前店","住所":"〒116-0003 東京都荒川区南千住７丁目２−６","ステータス":"APP_DISPLAY","region":"Arakawa","lat":35.733624,"lng":139.79863},{"店舗名":"名代 うなまる酒場 南千住店","住所":"〒116-0003 東京都荒川区南千住７丁目２８−２","ステータス":"APP_DISPLAY","region":"Arakawa","lat":35.733681,"lng":139.798706},{"店舗名":"Power Blend Tanaka","住所":"〒116-0003 東京都荒川区南千住７丁目４−７","ステータス":"APP_DISPLAY","region":"Arakawa","lat":35.734585,"lng":139.798782},{"店舗名":"ナンステーションはるき","住所":"〒116-0003 東京都荒川区南千住７丁目５−１","ステータス":"APP_DISPLAY","region":"Arakawa","lat":35.734142,"lng":139.797699},{"店舗名":"宗家一条流 がんこラーメン","住所":"〒116-0003 東京都荒川区南千住７丁目５−１","ステータス":"APP_DISPLAY","region":"Arakawa","lat":35.734142,"lng":139.797699},{"店舗名":"五福中華料理","住所":"〒116-0003 東京都荒川区南千住８丁目１２−５","ステータス":"APP_DISPLAY","region":"Arakawa","lat":35.737713,"lng":139.808395},{"店舗名":"フルバリ 汐入店","住所":"〒116-0003 東京都荒川区南千住８丁目１２−５","ステータス":"APP_DISPLAY","region":"Arakawa","lat":35.737713,"lng":139.808395},{"店舗名":"Quokka","住所":"〒116-0003 東京都荒川区南千住８丁目４−５","ステータス":"APP_DISPLAY","region":"Arakawa","lat":35.737522,"lng":139.806534},{"店舗名":"鰻の成瀬 南千住店","住所":"〒116-0003 東京都荒川区南千住８丁目４−５ 北参番館 105","ステータス":"APP_DISPLAY","region":"Arakawa","lat":35.737522,"lng":139.806534},{"店舗名":"ロータスキッチン 南千住店","住所":"〒116-0003東京都荒川区南千住5-3-16","ステータス":"APP_DISPLAY","region":"Arakawa","lat":35.731991,"lng":139.792679},{"店舗名":"CRYSTALS JEWEL POKE〜食べる宝石、進化するポキ丼〜","住所":"〒116-0011","ステータス":"RECEIPT","region":"Arakawa","lat":35.745815,"lng":139.763397},{"店舗名":"黄金からっと本舗西尾久店","住所":"〒116-0011 東京都荒川区西尾久","ステータス":"RECEIPT","region":"Arakawa","lat":35.745815,"lng":139.763397},{"店舗名":"匠の鶏から屋西尾久店","住所":"〒116-0011 東京都荒川区西尾久","ステータス":"RECEIPT","region":"Arakawa","lat":35.745815,"lng":139.763397},{"店舗名":"Curry Lab Spice8西尾久店","住所":"〒116-0011 東京都荒川区西尾久","ステータス":"RECEIPT","region":"Arakawa","lat":35.745815,"lng":139.763397},{"店舗名":"スパイス食堂Roji西尾久店","住所":"〒116-0011 東京都荒川区西尾久","ステータス":"RECEIPT","region":"Arakawa","lat":35.745815,"lng":139.763397},{"店舗名":"マイルドカリーキッチン西尾久店","住所":"〒116-0011 東京都荒川区西尾久","ステータス":"RECEIPT","region":"Arakawa","lat":35.745815,"lng":139.763397},{"店舗名":"肉匠グリルベース西尾久店","住所":"〒116-0011 東京都荒川区西尾久","ステータス":"RECEIPT","region":"Arakawa","lat":35.745815,"lng":139.763397},{"店舗名":"炙りステーキ道西尾久店","住所":"〒116-0011 東京都荒川区西尾久","ステータス":"RECEIPT","region":"Arakawa","lat":35.745815,"lng":139.763397},{"店舗名":"ハンバーグ食堂29西尾久店","住所":"〒116-0011 東京都荒川区西尾久","ステータス":"RECEIPT","region":"Arakawa","lat":35.745815,"lng":139.763397},{"店舗名":"熟成肉プレートLab西尾久店","住所":"〒116-0011 東京都荒川区西尾久","ステータス":"RECEIPT","region":"Arakawa","lat":35.745815,"lng":139.763397},{"店舗名":"手ごねバーグ工房西尾久店","住所":"〒116-0011 東京都荒川区西尾久","ステータス":"RECEIPT","region":"Arakawa","lat":35.745815,"lng":139.763397},{"店舗名":"THE JUICY HOUSE西尾久店","住所":"〒116-0011 東京都荒川区西尾久","ステータス":"RECEIPT","region":"Arakawa","lat":35.745815,"lng":139.763397},{"店舗名":"炭火グリル匠西尾久店","住所":"〒116-0011 東京都荒川区西尾久","ステータス":"RECEIPT","region":"Arakawa","lat":35.745815,"lng":139.763397},{"店舗名":"MEAT&PLATE西尾久店","住所":"〒116-0011 東京都荒川区西尾久","ステータス":"RECEIPT","region":"Arakawa","lat":35.745815,"lng":139.763397},{"店舗名":"RoastBowl Tokyo西尾久店","住所":"〒116-0011 東京都荒川区西尾久","ステータス":"RECEIPT","region":"Arakawa","lat":35.745815,"lng":139.763397},{"店舗名":"肉飯研究所西尾久店","住所":"〒116-0011 東京都荒川区西尾久","ステータス":"RECEIPT","region":"Arakawa","lat":35.745815,"lng":139.763397},{"店舗名":"ビーフライスFactory西尾久店","住所":"〒116-0011 東京都荒川区西尾久","ステータス":"RECEIPT","region":"Arakawa","lat":35.745815,"lng":139.763397},{"店舗名":"The Roast Stand西尾久店","住所":"〒116-0011 東京都荒川区西尾久","ステータス":"RECEIPT","region":"Arakawa","lat":35.745815,"lng":139.763397},{"店舗名":"ロービーステーキ庵西尾久店","住所":"〒116-0011 東京都荒川区西尾久","ステータス":"RECEIPT","region":"Arakawa","lat":35.745815,"lng":139.763397},{"店舗名":"肉重ダイナー西尾久店","住所":"〒116-0011 東京都荒川区西尾久","ステータス":"RECEIPT","region":"Arakawa","lat":35.745815,"lng":139.763397},{"店舗名":"極旨ビーフ丼処西尾久店","住所":"〒116-0011 東京都荒川区西尾久","ステータス":"RECEIPT","region":"Arakawa","lat":35.745815,"lng":139.763397},{"店舗名":"Roast & Rice Works西尾久店","住所":"〒116-0011 東京都荒川区西尾久","ステータス":"RECEIPT","region":"Arakawa","lat":35.745815,"lng":139.763397},{"店舗名":"とろたま食堂西尾久店","住所":"〒116-0011 東京都荒川区西尾久","ステータス":"RECEIPT","region":"Arakawa","lat":35.745815,"lng":139.763397},{"店舗名":"夢見るオムライス西尾久店","住所":"〒116-0011 東京都荒川区西尾久","ステータス":"RECEIPT","region":"Arakawa","lat":35.745815,"lng":139.763397},{"店舗名":"Egg’n Rice Factory西尾久店","住所":"〒116-0011 東京都荒川区西尾久","ステータス":"RECEIPT","region":"Arakawa","lat":35.745815,"lng":139.763397},{"店舗名":"オムルームTokyo西尾久店","住所":"〒116-0011 東京都荒川区西尾久","ステータス":"RECEIPT","region":"Arakawa","lat":35.745815,"lng":139.763397},{"店舗名":"ふわふわ亭西尾久店","住所":"〒116-0011 東京都荒川区西尾久","ステータス":"RECEIPT","region":"Arakawa","lat":35.745815,"lng":139.763397},{"店舗名":"卵ごはんの森西尾久店","住所":"〒116-0011 東京都荒川区西尾久","ステータス":"RECEIPT","region":"Arakawa","lat":35.745815,"lng":139.763397},{"店舗名":"オムキッチンHaru西尾久店","住所":"〒116-0011 東京都荒川区西尾久","ステータス":"RECEIPT","region":"Arakawa","lat":35.745815,"lng":139.763397},{"店舗名":"Omu Cafe Style西尾久店","住所":"〒116-0011 東京都荒川区西尾久","ステータス":"RECEIPT","region":"Arakawa","lat":35.745815,"lng":139.763397},{"店舗名":"Seoul Table チキン工房西尾久店","住所":"〒116-0011 東京都荒川区西尾久","ステータス":"RECEIPT","region":"Arakawa","lat":35.745815,"lng":139.763397},{"店舗名":"K-BAR Chicken Lab西尾久店","住所":"〒116-0011 東京都荒川区西尾久","ステータス":"RECEIPT","region":"Arakawa","lat":35.745815,"lng":139.763397},{"店舗名":"韓食マシッタ亭西尾久店","住所":"〒116-0011 東京都荒川区西尾久","ステータス":"RECEIPT","region":"Arakawa","lat":35.745815,"lng":139.763397},{"店舗名":"チーズチキン食堂西尾久店","住所":"〒116-0011 東京都荒川区西尾久","ステータス":"RECEIPT","region":"Arakawa","lat":35.745815,"lng":139.763397},{"店舗名":"HoneyChick TOKYO西尾久店","住所":"〒116-0011 東京都荒川区西尾久","ステータス":"RECEIPT","region":"Arakawa","lat":35.745815,"lng":139.763397},{"店舗名":"ヤンニョム研究室西尾久店","住所":"〒116-0011 東京都荒川区西尾久","ステータス":"RECEIPT","region":"Arakawa","lat":35.745815,"lng":139.763397},{"店舗名":"Seoul Fried Factory西尾久店","住所":"〒116-0011 東京都荒川区西尾久","ステータス":"RECEIPT","region":"Arakawa","lat":35.745815,"lng":139.763397},{"店舗名":"コリアンバル99西尾久店","住所":"〒116-0011 東京都荒川区西尾久","ステータス":"RECEIPT","region":"Arakawa","lat":35.745815,"lng":139.763397},{"店舗名":"ガリバタ亭西尾久店","住所":"〒116-0011 東京都荒川区西尾久","ステータス":"RECEIPT","region":"Arakawa","lat":35.745815,"lng":139.763397},{"店舗名":"Garlic Soul Kitchen西尾久店","住所":"〒116-0011 東京都荒川区西尾久","ステータス":"RECEIPT","region":"Arakawa","lat":35.745815,"lng":139.763397},{"店舗名":"炒香ステーキBase西尾久店","住所":"〒116-0011 東京都荒川区西尾久","ステータス":"RECEIPT","region":"Arakawa","lat":35.745815,"lng":139.763397},{"店舗名":"にんにく食堂ZEN西尾久店","住所":"〒116-0011 東京都荒川区西尾久","ステータス":"RECEIPT","region":"Arakawa","lat":35.745815,"lng":139.763397},{"店舗名":"Steak & Rice Route西尾久店","住所":"〒116-0011 東京都荒川区西尾久","ステータス":"RECEIPT","region":"Arakawa","lat":35.745815,"lng":139.763397},{"店舗名":"ガリバル食堂西尾久店","住所":"〒116-0011 東京都荒川区西尾久","ステータス":"RECEIPT","region":"Arakawa","lat":35.745815,"lng":139.763397},{"店舗名":"炙りステーキプレートLab西尾久店","住所":"〒116-0011 東京都荒川区西尾久","ステータス":"RECEIPT","region":"Arakawa","lat":35.745815,"lng":139.763397},{"店舗名":"Garlic Heaven Tokyo西尾久店","住所":"〒116-0011 東京都荒川区西尾久","ステータス":"RECEIPT","region":"Arakawa","lat":35.745815,"lng":139.763397},{"店舗名":"ごはん屋なごみ庵西尾久店","住所":"〒116-0011 東京都荒川区西尾久","ステータス":"RECEIPT","region":"Arakawa","lat":35.745815,"lng":139.763397},{"店舗名":"丼丸食堂西尾久店","住所":"〒116-0011 東京都荒川区西尾久","ステータス":"RECEIPT","region":"Arakawa","lat":35.745815,"lng":139.763397},{"店舗名":"焼肉丼専門にくまる西尾久店","住所":"〒116-0011 東京都荒川区西尾久","ステータス":"RECEIPT","region":"Arakawa","lat":35.745815,"lng":139.763397},{"店舗名":"海鮮食堂ふじ西尾久店","住所":"〒116-0011 東京都荒川区西尾久","ステータス":"RECEIPT","region":"Arakawa","lat":35.745815,"lng":139.763397},{"店舗名":"豚角煮屋一膳西尾久店","住所":"〒116-0011 東京都荒川区西尾久","ステータス":"RECEIPT","region":"Arakawa","lat":35.745815,"lng":139.763397},{"店舗名":"和ごころ弁当西尾久店","住所":"〒116-0011 東京都荒川区西尾久","ステータス":"RECEIPT","region":"Arakawa","lat":35.745815,"lng":139.763397},{"店舗名":"旨丼Kitchen西尾久店","住所":"〒116-0011 東京都荒川区西尾久","ステータス":"RECEIPT","region":"Arakawa","lat":35.745815,"lng":139.763397},{"店舗名":"にっぽん飯研究所西尾久店","住所":"〒116-0011 東京都荒川区西尾久","ステータス":"RECEIPT","region":"Arakawa","lat":35.745815,"lng":139.763397},{"店舗名":"Pasta Studio Ricco西尾久店","住所":"〒116-0011 東京都荒川区西尾久","ステータス":"RECEIPT","region":"Arakawa","lat":35.745815,"lng":139.763397},{"店舗名":"トラットリアアモーレ西尾久店","住所":"〒116-0011 東京都荒川区西尾久","ステータス":"RECEIPT","region":"Arakawa","lat":35.745815,"lng":139.763397},{"店舗名":"ボロネーゼ研究所西尾久店","住所":"〒116-0011 東京都荒川区西尾久","ステータス":"RECEIPT","region":"Arakawa","lat":35.745815,"lng":139.763397},{"店舗名":"生パスタキッチンmio西尾久店","住所":"〒116-0011 東京都荒川区西尾久","ステータス":"RECEIPT","region":"Arakawa","lat":35.745815,"lng":139.763397},{"店舗名":"Pasta & Co.西尾久店","住所":"〒116-0011 東京都荒川区西尾久","ステータス":"RECEIPT","region":"Arakawa","lat":35.745815,"lng":139.763397},{"店舗名":"クリームパスタ工房西尾久店","住所":"〒116-0011 東京都荒川区西尾久","ステータス":"RECEIPT","region":"Arakawa","lat":35.745815,"lng":139.763397},{"店舗名":"トマトバジル食堂西尾久店","住所":"〒116-0011 東京都荒川区西尾久","ステータス":"RECEIPT","region":"Arakawa","lat":35.745815,"lng":139.763397},{"店舗名":"イタリア宅麺バル西尾久店","住所":"〒116-0011 東京都荒川区西尾久","ステータス":"RECEIPT","region":"Arakawa","lat":35.745815,"lng":139.763397},{"店舗名":"TACO RICE LOVER西尾久店","住所":"〒116-0011 東京都荒川区西尾久","ステータス":"RECEIPT","region":"Arakawa","lat":35.745815,"lng":139.763397},{"店舗名":"メキシコごはんSUN西尾久店","住所":"〒116-0011 東京都荒川区西尾久","ステータス":"RECEIPT","region":"Arakawa","lat":35.745815,"lng":139.763397},{"店舗名":"Viva! Tacos Tokyo西尾久店","住所":"〒116-0011 東京都荒川区西尾久","ステータス":"RECEIPT","region":"Arakawa","lat":35.745815,"lng":139.763397},{"店舗名":"Bueno Rice Bar西尾久店","住所":"〒116-0011 東京都荒川区西尾久","ステータス":"RECEIPT","region":"Arakawa","lat":35.745815,"lng":139.763397},{"店舗名":"Rio Spice Works西尾久店","住所":"〒116-0011 東京都荒川区西尾久","ステータス":"RECEIPT","region":"Arakawa","lat":35.745815,"lng":139.763397},{"店舗名":"SUNSET TACORICO西尾久店","住所":"〒116-0011 東京都荒川区西尾久","ステータス":"RECEIPT","region":"Arakawa","lat":35.745815,"lng":139.763397},{"店舗名":"Cali Bowl Kitchen西尾久店","住所":"〒116-0011 東京都荒川区西尾久","ステータス":"RECEIPT","region":"Arakawa","lat":35.745815,"lng":139.763397},{"店舗名":"タコススタンドLOCO西尾久店","住所":"〒116-0011 東京都荒川区西尾久","ステータス":"RECEIPT","region":"Arakawa","lat":35.745815,"lng":139.763397},{"店舗名":"Açaí Bowl Works西尾久店","住所":"〒116-0011 東京都荒川区西尾久","ステータス":"RECEIPT","region":"Arakawa","lat":35.745815,"lng":139.763397},{"店舗名":"Tropical Energy Bowl西尾久店","住所":"〒116-0011 東京都荒川区西尾久","ステータス":"RECEIPT","region":"Arakawa","lat":35.745815,"lng":139.763397},{"店舗名":"Smoothie Base NANA西尾久店","住所":"〒116-0011 東京都荒川区西尾久","ステータス":"RECEIPT","region":"Arakawa","lat":35.745815,"lng":139.763397},{"店舗名":"Açaí Cafe Bloom西尾久店","住所":"〒116-0011 東京都荒川区西尾久","ステータス":"RECEIPT","region":"Arakawa","lat":35.745815,"lng":139.763397},{"店舗名":"Berry Power Kitchen西尾久店","住所":"〒116-0011 東京都荒川区西尾久","ステータス":"RECEIPT","region":"Arakawa","lat":35.745815,"lng":139.763397},{"店舗名":"ハワイアンボウル研究所西尾久店","住所":"〒116-0011 東京都荒川区西尾久","ステータス":"RECEIPT","region":"Arakawa","lat":35.745815,"lng":139.763397},{"店舗名":"SUNNY Açaí Stand西尾久店","住所":"〒116-0011 東京都荒川区西尾久","ステータス":"RECEIPT","region":"Arakawa","lat":35.745815,"lng":139.763397},{"店舗名":"Paradise Bowl Tokyo西尾久店","住所":"〒116-0011 東京都荒川区西尾久","ステータス":"RECEIPT","region":"Arakawa","lat":35.745815,"lng":139.763397},{"店舗名":"Fluffy Pancake Works西尾久店","住所":"〒116-0011 東京都荒川区西尾久","ステータス":"RECEIPT","region":"Arakawa","lat":35.745815,"lng":139.763397},{"店舗名":"Butter & Honey Factory西尾久店","住所":"〒116-0011 東京都荒川区西尾久","ステータス":"RECEIPT","region":"Arakawa","lat":35.745815,"lng":139.763397},{"店舗名":"ふわふわパンケーキ屋西尾久店","住所":"〒116-0011 東京都荒川区西尾久","ステータス":"RECEIPT","region":"Arakawa","lat":35.745815,"lng":139.763397},{"店舗名":"ミルクバタースタンド西尾久店","住所":"〒116-0011 東京都荒川区西尾久","ステータス":"RECEIPT","region":"Arakawa","lat":35.745815,"lng":139.763397},{"店舗名":"濃厚チーズ舎西尾久店","住所":"〒116-0011 東京都荒川区西尾久","ステータス":"RECEIPT","region":"Arakawa","lat":35.745815,"lng":139.763397},{"店舗名":"Tiramisu Room西尾久店","住所":"〒116-0011 東京都荒川区西尾久","ステータス":"RECEIPT","region":"Arakawa","lat":35.745815,"lng":139.763397},{"店舗名":"プリンと私西尾久店","住所":"〒116-0011 東京都荒川区西尾久","ステータス":"RECEIPT","region":"Arakawa","lat":35.745815,"lng":139.763397},{"店舗名":"カップスイーツラボ西尾久店","住所":"〒116-0011 東京都荒川区西尾久","ステータス":"RECEIPT","region":"Arakawa","lat":35.745815,"lng":139.763397},{"店舗名":"Cream Dessert Tokyo西尾久店","住所":"〒116-0011 東京都荒川区西尾久","ステータス":"RECEIPT","region":"Arakawa","lat":35.745815,"lng":139.763397},{"店舗名":"ティラミス食堂西尾久店","住所":"〒116-0011 東京都荒川区西尾久","ステータス":"RECEIPT","region":"Arakawa","lat":35.745815,"lng":139.763397},{"店舗名":"Dolce Works西尾久店","住所":"〒116-0011 東京都荒川区西尾久","ステータス":"RECEIPT","region":"Arakawa","lat":35.745815,"lng":139.763397},{"店舗名":"Crepe Cloud Tokyo西尾久店","住所":"〒116-0011 東京都荒川区西尾久","ステータス":"RECEIPT","region":"Arakawa","lat":35.745815,"lng":139.763397},{"店舗名":"Parfait Base西尾久店","住所":"〒116-0011 東京都荒川区西尾久","ステータス":"RECEIPT","region":"Arakawa","lat":35.745815,"lng":139.763397},{"店舗名":"アイスラボMELT西尾久店","住所":"〒116-0011 東京都荒川区西尾久","ステータス":"RECEIPT","region":"Arakawa","lat":35.745815,"lng":139.763397},{"店舗名":"Sweet Parlor西尾久店","住所":"〒116-0011 東京都荒川区西尾久","ステータス":"RECEIPT","region":"Arakawa","lat":35.745815,"lng":139.763397},{"店舗名":"クレープスタンド88西尾久店","住所":"〒116-0011 東京都荒川区西尾久","ステータス":"RECEIPT","region":"Arakawa","lat":35.745815,"lng":139.763397},{"店舗名":"Gelato & Dreams西尾久店","住所":"〒116-0011 東京都荒川区西尾久","ステータス":"RECEIPT","region":"Arakawa","lat":35.745815,"lng":139.763397},{"店舗名":"アジアンマート西尾久","住所":"〒116-0011 東京都荒川区西尾久１丁目２６−７","ステータス":"APP_DISPLAY","region":"Arakawa","lat":35.745724,"lng":139.761688},{"店舗名":"麺屋酒場","住所":"〒116-0011 東京都荒川区西尾久１丁目３１−１０","ステータス":"APP_DISPLAY","region":"Arakawa","lat":35.747551,"lng":139.762482},{"店舗名":"濃厚つけそば・中華そば のぶ良し","住所":"〒116-0011 東京都荒川区西尾久１丁目３１−５","ステータス":"APP_DISPLAY","region":"Arakawa","lat":35.747208,"lng":139.76239},{"店舗名":"Pizzeria & Trattori Giggi","住所":"〒116-0011 東京都荒川区西尾久１丁目３２−１２","ステータス":"APP_DISPLAY","region":"Arakawa","lat":35.747581,"lng":139.762161},{"店舗名":"喫茶 ミヨシ","住所":"〒116-0011 東京都荒川区西尾久２丁目１０−１","ステータス":"APP_DISPLAY","region":"Arakawa","lat":35.747738,"lng":139.765228},{"店舗名":"どん平","住所":"〒116-0011 東京都荒川区西尾久２丁目２−５","ステータス":"APP_DISPLAY","region":"Arakawa","lat":35.749027,"lng":139.765152},{"店舗名":"旬菜 あかり","住所":"〒116-0011 東京都荒川区西尾久２丁目３４−１３","ステータス":"APP_DISPLAY","region":"Arakawa","lat":35.749634,"lng":139.761902},{"店舗名":"きちきち","住所":"〒116-0011 東京都荒川区西尾久２丁目３４-５","ステータス":"APP_DISPLAY","region":"Arakawa","lat":35.748901,"lng":139.761551},{"店舗名":"おにぎり屋　ふじた","住所":"〒116-0011 東京都荒川区西尾久２丁目３−７","ステータス":"APP_DISPLAY","region":"Arakawa","lat":35.749992,"lng":139.765259},{"店舗名":"ドミノ・ピザ 西尾久小台店","住所":"〒116-0011 東京都荒川区西尾久２丁目３７−２","ステータス":"APP_DISPLAY","region":"Arakawa","lat":35.749737,"lng":139.762253},{"店舗名":"茶漬け屋","住所":"〒116-0011 東京都荒川区西尾久２丁目３７−６","ステータス":"APP_DISPLAY","region":"Arakawa","lat":35.750301,"lng":139.762146},{"店舗名":"MSLA","住所":"〒116-0011 東京都荒川区西尾久２丁目３７−６","ステータス":"APP_DISPLAY","region":"Arakawa","lat":35.750301,"lng":139.762146},{"店舗名":"アラカワラボ","住所":"〒116-0011 東京都荒川区西尾久２丁目３７−６","ステータス":"APP_DISPLAY","region":"Arakawa","lat":35.750301,"lng":139.762146},{"店舗名":"つくねや292","住所":"〒116-0011 東京都荒川区西尾久２丁目３８−１４","ステータス":"APP_DISPLAY","region":"Arakawa","lat":35.749729,"lng":139.762131},{"店舗名":"ニューガネーシャ","住所":"〒116-0011 東京都荒川区西尾久２丁目３８−１４ カミザワビル １F","ステータス":"APP_DISPLAY","region":"Arakawa","lat":35.749729,"lng":139.762131},{"店舗名":"日本そば 朝日屋総本店","住所":"〒116-0011 東京都荒川区西尾久２丁目４−１５","ステータス":"APP_DISPLAY","region":"Arakawa","lat":35.750095,"lng":139.764893},{"店舗名":"居酒屋ボンド","住所":"〒116-0011 東京都荒川区西尾久２丁目８−２ コーポ石橋","ステータス":"APP_DISPLAY","region":"Arakawa","lat":35.748665,"lng":139.764847},{"店舗名":"おでん専門店大阪屋","住所":"〒116-0011 東京都荒川区西尾久３丁目２２−１５","ステータス":"APP_DISPLAY","region":"Arakawa","lat":35.751251,"lng":139.761932},{"店舗名":"優香 刀削麺 小台店","住所":"〒116-0011 東京都荒川区西尾久３丁目２２−１５","ステータス":"APP_DISPLAY","region":"Arakawa","lat":35.751251,"lng":139.761932},{"店舗名":"ラーメン シェルター","住所":"〒116-0011 東京都荒川区西尾久５丁目３−２４ きりのこ","ステータス":"APP_DISPLAY","region":"Arakawa","lat":35.748524,"lng":139.761475},{"店舗名":"天麩羅dining 和木","住所":"〒116-0011 東京都荒川区西尾久６丁目１−８","ステータス":"APP_DISPLAY","region":"Arakawa","lat":35.751102,"lng":139.761078},{"店舗名":"ソルティカージャガル尾久店","住所":"〒116-0011 東京都荒川区西尾久６丁目３１−４","ステータス":"APP_DISPLAY","region":"Arakawa","lat":35.751583,"lng":139.757935},{"店舗名":"&BURGER.","住所":"〒116-0011 東京都荒川区西尾久６丁目３４−８","ステータス":"APP_DISPLAY","region":"Arakawa","lat":35.753162,"lng":139.757797},{"店舗名":"The Greek Yogurt Bowl","住所":"〒116-0011 東京都荒川区西尾久８丁目３３−３４","ステータス":"APP_DISPLAY","region":"Arakawa","lat":35.751167,"lng":139.753433},{"店舗名":"ベンダーオブニューヨーク 尾久店","住所":"〒116-0011 東京都荒川区西尾久８丁目３３−３４","ステータス":"APP_DISPLAY","region":"Arakawa","lat":35.751167,"lng":139.753433},{"店舗名":"タコライスベイビー","住所":"〒116-0011 東京都荒川区西尾久８丁目３３−３４","ステータス":"APP_DISPLAY","region":"Arakawa","lat":35.751167,"lng":139.753433},{"店舗名":"【低GI&高タンパクのカオマンガイ】Perfect meal パーフェクトミール","住所":"〒116-0011 東京都荒川区西尾久８丁目３３−３４","ステータス":"APP_DISPLAY","region":"Arakawa","lat":35.751167,"lng":139.753433},{"店舗名":"ヘルシー＆パワーサラダ サラダ大学","住所":"〒116-0011 東京都荒川区西尾久８丁目３３−３４","ステータス":"APP_DISPLAY","region":"Arakawa","lat":35.751167,"lng":139.753433},{"店舗名":"シリアルモンスター尾久","住所":"〒116-0011 東京都荒川区西尾久８丁目３３−３４","ステータス":"APP_DISPLAY","region":"Arakawa","lat":35.751167,"lng":139.753433},{"店舗名":"伝説のジャークチキンと至高のケイジャンチキンのお店 カフェ＆バー キャンプファイヤー","住所":"〒116-0011 東京都荒川区西尾久８丁目３３−３４","ステータス":"APP_DISPLAY","region":"Arakawa","lat":35.751167,"lng":139.753433},{"店舗名":"世界玄米協会","住所":"〒116-0011 東京都荒川区西尾久８丁目３３−３４ 真木亜","ステータス":"APP_DISPLAY","region":"Arakawa","lat":35.751167,"lng":139.753433},{"店舗名":"【スーパーヴィーガンカレー】SUPER VEGAN CURRY","住所":"〒116-0011 東京都荒川区西尾久８丁目３３−３４ 真木亜","ステータス":"APP_DISPLAY","region":"Arakawa","lat":35.751167,"lng":139.753433},{"店舗名":"ニューヨークガイズ【The Newyork guys】","住所":"〒116-0011 東京都荒川区西尾久８丁目３３−３４ 真木亜","ステータス":"APP_DISPLAY","region":"Arakawa","lat":35.751167,"lng":139.753433},{"店舗名":"【厳選チーズのわがままドリア】王様のドリア","住所":"〒116-0011 東京都荒川区西尾久８丁目３３−３４ 真木亜","ステータス":"APP_DISPLAY","region":"Arakawa","lat":35.751167,"lng":139.753433},{"店舗名":"【鬼煮干し中華そば】セメント中毒","住所":"〒116-0011 東京都荒川区西尾久８丁目３３−３４ 真木亜","ステータス":"APP_DISPLAY","region":"Arakawa","lat":35.751167,"lng":139.753433},{"店舗名":"【タコス＆ブリトー】チポトレボウルズ","住所":"〒116-0011 東京都荒川区西尾久８丁目３３−３４ 真木亜 2F","ステータス":"APP_DISPLAY","region":"Arakawa","lat":35.751167,"lng":139.753433},{"店舗名":"【健康御膳と豚汁】百魚繚乱(ひゃくぎょりょうらん)","住所":"〒116-0011 東京都荒川区西尾久８丁目３３−３４ 真木亜 2F","ステータス":"APP_DISPLAY","region":"Arakawa","lat":35.751167,"lng":139.753433},{"店舗名":"The Philly Cheese Beast（フィリー・チーズ・ビースト）","住所":"〒116-0011 東京都荒川区西尾久８丁目３３−３４ 真木亜 2F","ステータス":"RECEIPT","region":"Arakawa","lat":35.751167,"lng":139.753433},{"店舗名":"ホットサンドとサンドウィッチのお店 サンドウィッチマン","住所":"〒116-0011 東京都荒川区西尾久８丁目３３−３４ 真木亜 2F","ステータス":"APP_DISPLAY","region":"Arakawa","lat":35.751167,"lng":139.753433},{"店舗名":"百年御田","住所":"〒116-0011 東京都荒川区西尾久８丁目３３−３４ 真木亜 2F","ステータス":"APP_DISPLAY","region":"Arakawa","lat":35.751167,"lng":139.753433},{"店舗名":"バインミー専門店 レモングラス","住所":"〒116-0011 東京都荒川区西尾久８丁目３３−３４ 真木亜ビル","ステータス":"APP_DISPLAY","region":"Arakawa","lat":35.751167,"lng":139.753433},{"店舗名":"クールカフェ","住所":"〒116-0011 東京都荒川区西尾久８丁目３８−１","ステータス":"APP_DISPLAY","region":"Arakawa","lat":35.751133,"lng":139.751541},{"店舗名":"MOE'S kitchen ASIAN restaurant","住所":"〒116-0012","ステータス":"APP_DISPLAY","region":"Arakawa","lat":35.739967,"lng":139.771347},{"店舗名":"星ノ厨房","住所":"〒116-0012 東京都荒川区東尾久１丁目３０−１７","ステータス":"APP_DISPLAY","region":"Arakawa","lat":35.73967,"lng":139.769775},{"店舗名":"cafe OGU1","住所":"〒116-0012 東京都荒川区東尾久１丁目３３−１","ステータス":"APP_DISPLAY","region":"Arakawa","lat":35.740841,"lng":139.769638},{"店舗名":"ななつぼし荒川東尾久店","住所":"〒116-0012 東京都荒川区東尾久１丁目６−４","ステータス":"APP_DISPLAY","region":"Arakawa","lat":35.739532,"lng":139.772293},{"店舗名":"YUMEN荒川東尾久店","住所":"〒116-0012 東京都荒川区東尾久１丁目６−４","ステータス":"APP_DISPLAY","region":"Arakawa","lat":35.739532,"lng":139.772293},{"店舗名":"まつ乃荒川東尾久店","住所":"〒116-0012 東京都荒川区東尾久１丁目６−４","ステータス":"APP_DISPLAY","region":"Arakawa","lat":35.739532,"lng":139.772293},{"店舗名":"海のみち荒川東尾久店","住所":"〒116-0012 東京都荒川区東尾久１丁目６−４","ステータス":"APP_DISPLAY","region":"Arakawa","lat":35.739532,"lng":139.772293},{"店舗名":"つきじ海賓 荒川東尾久","住所":"〒116-0012 東京都荒川区東尾久１丁目６−４ イワタハイツ","ステータス":"APP_DISPLAY","region":"Arakawa","lat":35.739532,"lng":139.772293},{"店舗名":"丼ぶり 天晴 荒川東尾久店","住所":"〒116-0012 東京都荒川区東尾久１丁目６−４ イワタハイツ","ステータス":"APP_DISPLAY","region":"Arakawa","lat":35.739532,"lng":139.772293},{"店舗名":"おすし日和 荒川東尾久","住所":"〒116-0012 東京都荒川区東尾久１丁目６−４ イワタハイツ","ステータス":"APP_DISPLAY","region":"Arakawa","lat":35.739532,"lng":139.772293},{"店舗名":"ADO KEBAB","住所":"〒116-0012 東京都荒川区東尾久２丁目４９−７ キンカメビル","ステータス":"APP_DISPLAY","region":"Arakawa","lat":35.744968,"lng":139.769424},{"店舗名":"ヒマルインドネパールレストラン","住所":"〒116-0012 東京都荒川区東尾久３丁目２９−６ 岩崎ビル","ステータス":"APP_DISPLAY","region":"Arakawa","lat":35.746414,"lng":139.76976},{"店舗名":"パンチ＆ジュディ","住所":"〒116-0012 東京都荒川区東尾久３丁目３０−５","ステータス":"APP_DISPLAY","region":"Arakawa","lat":35.746662,"lng":139.769745},{"店舗名":"ピザハット 町屋店","住所":"〒116-0012 東京都荒川区東尾久３丁目３０−６","ステータス":"APP_DISPLAY","region":"Arakawa","lat":35.746784,"lng":139.76976},{"店舗名":"バルコタツヤ BARKOTATSUYA","住所":"〒116-0012 東京都荒川区東尾久４丁目１１−１２","ステータス":"APP_DISPLAY","region":"Arakawa","lat":35.745049,"lng":139.769135},{"店舗名":"KISMAT KITCHEN","住所":"〒116-0012 東京都荒川区東尾久４丁目１５−８","ステータス":"APP_DISPLAY","region":"Arakawa","lat":35.744671,"lng":139.767563},{"店舗名":"朋来亭","住所":"〒116-0012 東京都荒川区東尾久４丁目１５−８","ステータス":"APP_DISPLAY","region":"Arakawa","lat":35.744671,"lng":139.767563},{"店舗名":"デリーダワット","住所":"〒116-0012 東京都荒川区東尾久４丁目１９−８","ステータス":"APP_DISPLAY","region":"Arakawa","lat":35.743362,"lng":139.767166},{"店舗名":"Cafe UYU","住所":"〒116-0012 東京都荒川区東尾久４丁目２９−１８ 島田ビル","ステータス":"APP_DISPLAY","region":"Arakawa","lat":35.742771,"lng":139.766861},{"店舗名":"横浜家系ラーメン 金安商店 尾久店","住所":"〒116-0012 東京都荒川区東尾久４丁目３３−９","ステータス":"APP_DISPLAY","region":"Arakawa","lat":35.745117,"lng":139.767212},{"店舗名":"塩点麻辣一尾久店Awesome Spicy（パンテンマーラー）","住所":"〒116-0012 東京都荒川区東尾久４丁目３３−９ コンフォート－Ｆ","ステータス":"APP_DISPLAY","region":"Arakawa","lat":35.745117,"lng":139.767212},{"店舗名":"ベビーカステラ専門店ふくふく堂","住所":"〒116-0012 東京都荒川区東尾久５丁目８−６","ステータス":"APP_DISPLAY","region":"Arakawa","lat":35.747864,"lng":139.768539},{"店舗名":"居食処 ふくい","住所":"〒116-0012 東京都荒川区東尾久５丁目９−６","ステータス":"APP_DISPLAY","region":"Arakawa","lat":35.748516,"lng":139.768555},{"店舗名":"備長炭焼き鳥俊","住所":"〒116-0012 東京都荒川区東尾久８丁目１４番７号","ステータス":"APP_DISPLAY","region":"Arakawa","lat":35.749496,"lng":139.768707},{"店舗名":"金繭厨華麺飯店","住所":"〒116-0013 東京都荒川区西日暮里","ステータス":"APP_DISPLAY","region":"Arakawa","lat":35.735165,"lng":139.774368},{"店舗名":"Pho Nhau NO.1","住所":"〒116-0013 東京都荒川区西日暮里","ステータス":"APP_DISPLAY","region":"Arakawa","lat":35.735165,"lng":139.774368},{"店舗名":"大江戸屋台","住所":"〒116-0013 東京都荒川区西日暮里１丁目","ステータス":"APP_DISPLAY","region":"Arakawa","lat":35.735165,"lng":139.774368},{"店舗名":"すき家 西日暮里一丁目店","住所":"〒116-0013 東京都荒川区西日暮里１丁目１−１","ステータス":"PENDING","region":"Arakawa","lat":35.736912,"lng":139.776062},{"店舗名":"上村そば店","住所":"〒116-0013 東京都荒川区西日暮里１丁目３７−１３","ステータス":"APP_DISPLAY","region":"Arakawa","lat":35.737026,"lng":139.773987},{"店舗名":"ANYTIME CHICKEN","住所":"〒116-0013 東京都荒川区西日暮里１丁目３７−２","ステータス":"APP_DISPLAY","region":"Arakawa","lat":35.737049,"lng":139.774597},{"店舗名":"アリランホットドッグ 三河島店","住所":"〒116-0013 東京都荒川区西日暮里１丁目４−２２","ステータス":"APP_DISPLAY","region":"Arakawa","lat":35.734722,"lng":139.777603},{"店舗名":"【本場タイ×欧風アジアンのスパイシーキッチン】BURMIX","住所":"〒116-0013 東京都荒川区西日暮里１丁目４２−２","ステータス":"APP_DISPLAY","region":"Arakawa","lat":35.735142,"lng":139.774094},{"店舗名":"KOIベトナムフォー KOI Vietnam Pho　日暮里","住所":"〒116-0013 東京都荒川区西日暮里２丁目","ステータス":"APP_DISPLAY","region":"Arakawa","lat":35.730396,"lng":139.771027},{"店舗名":"SRR Burmese Restaurant","住所":"〒116-0013 東京都荒川区西日暮里２丁目","ステータス":"APP_DISPLAY","region":"Arakawa","lat":35.730396,"lng":139.771027},{"店舗名":"肉屋のハンバーグとガーリックライス 日暮里店","住所":"〒116-0013 東京都荒川区西日暮里２丁目","ステータス":"APP_DISPLAY","region":"Arakawa","lat":35.730396,"lng":139.771027},{"店舗名":"好味茶房 Our Tea #タピオカと好きな時間。 日暮里店","住所":"〒116-0013 東京都荒川区西日暮里２丁目","ステータス":"RECEIPT","region":"Arakawa","lat":35.730396,"lng":139.771027},{"店舗名":"楽食苑","住所":"〒116-0013 東京都荒川区西日暮里２丁目１３−１１","ステータス":"APP_DISPLAY","region":"Arakawa","lat":35.730419,"lng":139.773453},{"店舗名":"麻婆豆腐専門店しびれや 日暮里","住所":"〒116-0013 東京都荒川区西日暮里２丁目１５−７","ステータス":"APP_DISPLAY","region":"Arakawa","lat":35.7299,"lng":139.772339},{"店舗名":"麻婆豆腐専門店 しびれや","住所":"〒116-0013 東京都荒川区西日暮里２丁目１５−７ ＪＫビル","ステータス":"RECEIPT","region":"Arakawa","lat":35.7299,"lng":139.772339},{"店舗名":"天空ビアガーデン　WBcafe ～tokyo～","住所":"〒116-0013 東京都荒川区西日暮里２丁目１８−７","ステータス":"APP_DISPLAY","region":"Arakawa","lat":35.728958,"lng":139.771606},{"店舗名":"玄米と豚汁 お玄さんのとん汁食堂 日暮里店","住所":"〒116-0013 東京都荒川区西日暮里２丁目２０−1","ステータス":"APP_DISPLAY","region":"Arakawa","lat":35.729099,"lng":139.770569},{"店舗名":"エベレストカレー","住所":"〒116-0013 東京都荒川区西日暮里２丁目２０−１","ステータス":"APP_DISPLAY","region":"Arakawa","lat":35.729099,"lng":139.770569},{"店舗名":"NYバターステーキ ジャッキーグリル 日暮里店","住所":"〒116-0013 東京都荒川区西日暮里２丁目２０−１","ステータス":"APP_DISPLAY","region":"Arakawa","lat":35.729099,"lng":139.770569},{"店舗名":"【超美味でも980円】まぜぬなら まぜてみせよう 西日暮里店","住所":"〒116-0013 東京都荒川区西日暮里２丁目２０−1 303 (3F","ステータス":"APP_DISPLAY","region":"Arakawa","lat":35.729099,"lng":139.770569},{"店舗名":"【ご飯大盛り無料】キッチン バラティエ 日暮里店","住所":"〒116-0013 東京都荒川区西日暮里2丁目20番1号","ステータス":"APP_DISPLAY","region":"Arakawa","lat":35.729099,"lng":139.770569},{"店舗名":"Nippori Asian Foods","住所":"〒116-0013 東京都荒川区西日暮里２丁目２１−７ 第二ムサシビル","ステータス":"APP_DISPLAY","region":"Arakawa","lat":35.729733,"lng":139.769913},{"店舗名":"PANDAの茶 タピオカ","住所":"〒116-0013 東京都荒川区西日暮里２丁目２２−１","ステータス":"APP_DISPLAY","region":"Arakawa","lat":35.729847,"lng":139.770752},{"店舗名":"japanese光ラーメン","住所":"〒116-0013 東京都荒川区西日暮里２丁目２５−１","ステータス":"APP_DISPLAY","region":"Arakawa","lat":35.729454,"lng":139.771805},{"店舗名":"クリスピーチキンアンドトマト 日暮里店 CRISPY CHICKEN n' TOMATO Nippori","住所":"〒116-0013 東京都荒川区西日暮里２丁目２５−１","ステータス":"APP_DISPLAY","region":"Arakawa","lat":35.729454,"lng":139.771805},{"店舗名":"SUNAO 日暮里店","住所":"〒116-0013 東京都荒川区西日暮里２丁目２５−１","ステータス":"APP_DISPLAY","region":"Arakawa","lat":35.729454,"lng":139.771805},{"店舗名":"すなお 日暮里店","住所":"〒116-0013 東京都荒川区西日暮里２丁目２５−１","ステータス":"APP_DISPLAY","region":"Arakawa","lat":35.729454,"lng":139.771805},{"店舗名":"【インドネパール料理店】サムラートキッチン","住所":"〒116-0013 東京都荒川区西日暮里２丁目２５−１","ステータス":"APP_DISPLAY","region":"Arakawa","lat":35.729454,"lng":139.771805},{"店舗名":"真面目焼鳥助平","住所":"〒116-0013 東京都荒川区西日暮里２丁目２５−１","ステータス":"APP_DISPLAY","region":"Arakawa","lat":35.729454,"lng":139.771805},{"店舗名":"カントンの思い出日暮里店","住所":"〒116-0013 東京都荒川区西日暮里２丁目２５−１ ステーションガーデンタワー","ステータス":"APP_DISPLAY","region":"Arakawa","lat":35.729454,"lng":139.771805},{"店舗名":"やまちゃん食堂","住所":"〒116-0013 東京都荒川区西日暮里２丁目２５−１ ステーションガーデンタワー","ステータス":"APP_DISPLAY","region":"Arakawa","lat":35.729454,"lng":139.771805},{"店舗名":"【アサイー&グリークヨーグルト】GREEKSPOON 日暮里駅前店","住所":"〒116-0013 東京都荒川区西日暮里２丁目２５−１ ステーションガーデンタワー","ステータス":"APP_DISPLAY","region":"Arakawa","lat":35.729454,"lng":139.771805},{"店舗名":"【フルーツたっぷりアサイーボウル】ワイキキ・ボウルズ 日暮里駅前店","住所":"〒116-0013 東京都荒川区西日暮里２丁目２５−１ ステーションガーデンタワー","ステータス":"APP_DISPLAY","region":"Arakawa","lat":35.729454,"lng":139.771805},{"店舗名":"幸の羽","住所":"〒116-0013 東京都荒川区西日暮里２丁目２５−１ ステーションガーデンタワー 315","ステータス":"APP_DISPLAY","region":"Arakawa","lat":35.729454,"lng":139.771805},{"店舗名":"タピオカ チャテン Tapioca CHA x TEN","住所":"〒116-0013 東京都荒川区西日暮里２丁目２６−１０","ステータス":"APP_DISPLAY","region":"Arakawa","lat":35.730202,"lng":139.771088},{"店舗名":"コッテリの塩らー麺専門店 MANNISH","住所":"〒116-0013 東京都荒川区西日暮里２丁目４０−３","ステータス":"APP_DISPLAY","region":"Arakawa","lat":35.731014,"lng":139.770737},{"店舗名":"Bliss Coffee","住所":"〒116-0013 東京都荒川区西日暮里２丁目５２−３ D5ビル","ステータス":"APP_DISPLAY","region":"Arakawa","lat":35.729832,"lng":139.770218},{"店舗名":"スナックイヴ","住所":"〒116-0013 東京都荒川区西日暮里２丁目５４−２ 弥栄ビル","ステータス":"APP_DISPLAY","region":"Arakawa","lat":35.73053,"lng":139.76944},{"店舗名":"レストラン ザクロ","住所":"〒116-0013 東京都荒川区西日暮里３丁目１３−２","ステータス":"APP_DISPLAY","region":"Arakawa","lat":35.727707,"lng":139.766861},{"店舗名":"GHOSTBURGER","住所":"〒116-0013 東京都荒川区西日暮里３丁目１５−２","ステータス":"APP_DISPLAY","region":"Arakawa","lat":35.727707,"lng":139.766418},{"店舗名":"カレー専門店 谷根千スパイス 谷中銀座本店 ","住所":"〒116-0013 東京都荒川区西日暮里３丁目１５−３ 近藤レジデンス","ステータス":"APP_DISPLAY","region":"Arakawa","lat":35.727715,"lng":139.766266},{"店舗名":"花家","住所":"〒116-0013 東京都荒川区西日暮里３丁目２−２","ステータス":"APP_DISPLAY","region":"Arakawa","lat":35.727871,"lng":139.769058},{"店舗名":"CAFE&BAR VOVO","住所":"〒116-0013 東京都荒川区西日暮里５丁目１１−２","ステータス":"APP_DISPLAY","region":"Arakawa","lat":35.732723,"lng":139.769302},{"店舗名":"カレーハウス CoCo壱番屋 東京メトロ西日暮里駅前店","住所":"〒116-0013 東京都荒川区西日暮里５丁目１１−７","ステータス":"APP_DISPLAY","region":"Arakawa","lat":35.732395,"lng":139.768799},{"店舗名":"黒毛和牛焼肉 然","住所":"〒116-0013 東京都荒川区西日暮里５丁目１２−１１","ステータス":"APP_DISPLAY","region":"Arakawa","lat":35.733166,"lng":139.768921},{"店舗名":"いし竹","住所":"〒116-0013 東京都荒川区西日暮里５丁目１２−１１","ステータス":"APP_DISPLAY","region":"Arakawa","lat":35.733166,"lng":139.768921},{"店舗名":"吉野家 西日暮里店","住所":"〒116-0013 東京都荒川区西日暮里５丁目１４−１１","ステータス":"APP_DISPLAY","region":"Arakawa","lat":35.732597,"lng":139.76767},{"店舗名":"伝説のすた丼屋 西日暮里店","住所":"〒116-0013 東京都荒川区西日暮里５丁目１４−１２","ステータス":"APP_DISPLAY","region":"Arakawa","lat":35.732666,"lng":139.767715},{"店舗名":"『油そば桐ちゃん』～食べログ百名店 桐麺監修～ 西日暮里駅前店","住所":"〒116-0013 東京都荒川区西日暮里５丁目１５−１３","ステータス":"APP_DISPLAY","region":"Arakawa","lat":35.73222,"lng":139.768356},{"店舗名":"ミルゼリッチ 西日暮里駅前店","住所":"〒116-0013 東京都荒川区西日暮里５丁目１５−１３","ステータス":"APP_DISPLAY","region":"Arakawa","lat":35.73222,"lng":139.768356},{"店舗名":"わらび餅茶屋 西日暮里駅前店","住所":"〒116-0013 東京都荒川区西日暮里５丁目１５−１３","ステータス":"APP_DISPLAY","region":"Arakawa","lat":35.73222,"lng":139.768356},{"店舗名":"果茶果茶 西日暮里店","住所":"〒116-0013 東京都荒川区西日暮里５丁目１５−１３ 三共サンプラザビル","ステータス":"APP_DISPLAY","region":"Arakawa","lat":35.73222,"lng":139.768356},{"店舗名":"ネパールミテリキッチンレストラン& バー","住所":"〒116-0013 東京都荒川区西日暮里５丁目１８−１１ 山田ビル","ステータス":"APP_DISPLAY","region":"Arakawa","lat":35.731564,"lng":139.768311},{"店舗名":"肉汁餃子のダンダダン 西日暮里店","住所":"〒116-0013 東京都荒川区西日暮里５丁目１８−１２","ステータス":"APP_DISPLAY","region":"Arakawa","lat":35.731674,"lng":139.76828},{"店舗名":"麻辣湯 美香","住所":"〒116-0013 東京都荒川区西日暮里５丁目２４−２","ステータス":"APP_DISPLAY","region":"Arakawa","lat":35.732426,"lng":139.767746},{"店舗名":"串カツ田中 西日暮里店","住所":"〒116-0013 東京都荒川区西日暮里５丁目２４−８","ステータス":"APP_DISPLAY","region":"Arakawa","lat":35.732574,"lng":139.767532},{"店舗名":"大盛スタミナ肉丼 ニンニク野郎 西日暮里店","住所":"〒116-0013 東京都荒川区西日暮里５丁目２４−８","ステータス":"APP_DISPLAY","region":"Arakawa","lat":35.732574,"lng":139.767532},{"店舗名":"えどもんど　西日暮里","住所":"〒116-0013 東京都荒川区西日暮里５丁目３１−９","ステータス":"APP_DISPLAY","region":"Arakawa","lat":35.733692,"lng":139.768234},{"店舗名":"アジアンキッチンアーリヤ ASIAN KITCHEN AARYA","住所":"〒116-0013 東京都荒川区西日暮里６丁目１３−１２","ステータス":"APP_DISPLAY","region":"Arakawa","lat":35.737808,"lng":139.771591},{"店舗名":"もんじゃ・お好み焼　絵夢","住所":"〒116-0013 東京都荒川区西日暮里６丁目１３−１２","ステータス":"APP_DISPLAY","region":"Arakawa","lat":35.737808,"lng":139.771591},{"店舗名":"焼きあご中華おおなみ","住所":"〒116-0013 東京都荒川区西日暮里６丁目１６－１１","ステータス":"APP_DISPLAY","region":"Arakawa","lat":35.736942,"lng":139.770859},{"店舗名":"手造りベーグルとデザートのカフェ ヒュッゲ","住所":"〒116-0013 東京都荒川区西日暮里６丁目４８−５ ドゥエル西日暮里","ステータス":"APP_DISPLAY","region":"Arakawa","lat":35.736256,"lng":139.768753},{"店舗名":"HICORIA-NA","住所":"〒116-0013 東京都荒川区西日暮里６丁目５７−４","ステータス":"APP_DISPLAY","region":"Arakawa","lat":35.735737,"lng":139.76741},{"店舗名":"MON (Asian Food)","住所":"〒116-0013 東京都荒川区西日暮里二丁目20番1号","ステータス":"APP_DISPLAY","region":"Arakawa","lat":35.729099,"lng":139.770569},{"店舗名":"韓国家庭料理 スラカン","住所":"〒116-0014 東京都荒川区東日幕里４丁目３３−１０","ステータス":"APP_DISPLAY","region":"Arakawa","lat":35.730019,"lng":139.788727},{"店舗名":"美人麻辣烫～日暮里店～","住所":"〒116-0014 東京都荒川区東日暮里","ステータス":"APP_DISPLAY","region":"Arakawa","lat":35.730019,"lng":139.788727},{"店舗名":"【出汁の親子丼】鶏ヶ屋(TORIGAYA)～日暮里店～","住所":"〒116-0014 東京都荒川区東日暮里","ステータス":"APP_DISPLAY","region":"Arakawa","lat":35.730019,"lng":139.788727},{"店舗名":"【高タンパク筋肉飯！】マッスルステーキハウス 日暮里店","住所":"〒116-0014 東京都荒川区東日暮里 ４丁目１２−１４","ステータス":"APP_DISPLAY","region":"Arakawa","lat":35.727997,"lng":139.782593},{"店舗名":"【本場沖縄のタコライス】 THE TACORICE HOUSE 東日暮里店","住所":"〒116-0014 東京都荒川区東日暮里１丁目１−３","ステータス":"APP_DISPLAY","region":"Arakawa","lat":35.731174,"lng":139.792053},{"店舗名":"ワッフルパラダイスMIYAKO 三ノ輪店","住所":"〒116-0014 東京都荒川区東日暮里１丁目１−３","ステータス":"APP_DISPLAY","region":"Arakawa","lat":35.731174,"lng":139.792053},{"店舗名":"ソルトウキョウ メキシコ料理","住所":"〒116-0014 東京都荒川区東日暮里１丁目１−３ まんてん","ステータス":"APP_DISPLAY","region":"Arakawa","lat":35.731174,"lng":139.792053},{"店舗名":"アジアンオーシャン Asian Ocean","住所":"〒116-0014 東京都荒川区東日暮里１丁目１９−４","ステータス":"APP_DISPLAY","region":"Arakawa","lat":35.728771,"lng":139.789642},{"店舗名":"中華居酒屋　圓満楼","住所":"〒116-0014 東京都荒川区東日暮里２丁目","ステータス":"APP_DISPLAY","region":"Arakawa","lat":35.729988,"lng":139.785187},{"店舗名":"華山台湾百貨","住所":"〒116-0014 東京都荒川区東日暮里２丁目４９−８","ステータス":"APP_DISPLAY","region":"Arakawa","lat":35.728039,"lng":139.78302},{"店舗名":"雅と光","住所":"〒116-0014 東京都荒川区東日暮里３丁目３１−１ 高橋店舗","ステータス":"APP_DISPLAY","region":"Arakawa","lat":35.730572,"lng":139.78009},{"店舗名":"ヒチャンの台所","住所":"〒116-0014 東京都荒川区東日暮里３丁目３３−７","ステータス":"APP_DISPLAY","region":"Arakawa","lat":35.730793,"lng":139.779251},{"店舗名":"大衆焼鳥とりぞう","住所":"〒116-0014 東京都荒川区東日暮里３丁目４１−７","ステータス":"RECEIPT","region":"Arakawa","lat":35.732292,"lng":139.778793},{"店舗名":"カフェナイスデイ","住所":"〒116-0014 東京都荒川区東日暮里３丁目４１番６号","ステータス":"APP_DISPLAY","region":"Arakawa","lat":35.732159,"lng":139.778793},{"店舗名":"焼豚の大井川","住所":"〒116-0014 東京都荒川区東日暮里３丁目６−４","ステータス":"APP_DISPLAY","region":"Arakawa","lat":35.730503,"lng":139.783279},{"店舗名":"居酒屋新いりこ屋","住所":"〒116-0014 東京都荒川区東日暮里４丁目","ステータス":"APP_DISPLAY","region":"Arakawa","lat":35.726601,"lng":139.780899},{"店舗名":"いいから黙って豚キ ムチ東日暮里店","住所":"〒116-0014 東京都荒川区東日暮里４丁目１２−１４","ステータス":"APP_DISPLAY","region":"Arakawa","lat":35.727997,"lng":139.782593},{"店舗名":"究極のソーセージエッグ丼 日暮里店","住所":"〒116-0014 東京都荒川区東日暮里４丁目１２−１４","ステータス":"APP_DISPLAY","region":"Arakawa","lat":35.727997,"lng":139.782593},{"店舗名":"陳麻家 日暮里店","住所":"〒116-0014 東京都荒川区東日暮里４丁目１２−１４","ステータス":"APP_DISPLAY","region":"Arakawa","lat":35.727997,"lng":139.782593},{"店舗名":"金メダルカレー","住所":"〒116-0014 東京都荒川区東日暮里４丁目１２−１４","ステータス":"APP_DISPLAY","region":"Arakawa","lat":35.727997,"lng":139.782593},{"店舗名":"好味苑 日暮里店","住所":"〒116-0014 東京都荒川区東日暮里４丁目１２−１４","ステータス":"APP_DISPLAY","region":"Arakawa","lat":35.727997,"lng":139.782593},{"店舗名":"ひとり鍋 韓国チゲ鍋MIYAKO 日暮里店","住所":"〒116-0014 東京都荒川区東日暮里４丁目１２−１４","ステータス":"APP_DISPLAY","region":"Arakawa","lat":35.727997,"lng":139.782593},{"店舗名":"【タレ香る十勝豚丼】豚龍BUTARYU～日暮里店～","住所":"〒116-0014 東京都荒川区東日暮里４丁目１２−１４ メゾン中山","ステータス":"APP_DISPLAY","region":"Arakawa","lat":35.727997,"lng":139.782593},{"店舗名":"【チキンステーキ弁当】Master Of Chicken～日暮里店～","住所":"〒116-0014 東京都荒川区東日暮里４丁目１２−１４ メゾン中山","ステータス":"APP_DISPLAY","region":"Arakawa","lat":35.727997,"lng":139.782593},{"店舗名":"【カラダが喜ぶオムライスCafe】Egg House～日暮里店～","住所":"〒116-0014 東京都荒川区東日暮里４丁目１２−１４ メゾン中山","ステータス":"APP_DISPLAY","region":"Arakawa","lat":35.727997,"lng":139.782593},{"店舗名":"ガッツリスタミナ弁当!!野郎の道!!～日暮里店～","住所":"〒116-0014 東京都荒川区東日暮里４丁目１２−１４ メゾン中山","ステータス":"APP_DISPLAY","region":"Arakawa","lat":35.727997,"lng":139.782593},{"店舗名":"デカ盛り豚丼パラダイス 日暮里店","住所":"〒116-0014 東京都荒川区東日暮里４丁目１２−１４ メゾン中山","ステータス":"APP_DISPLAY","region":"Arakawa","lat":35.727997,"lng":139.782593},{"店舗名":"金メダルチキン","住所":"〒116-0014 東京都荒川区東日暮里４丁目１２−１４ メゾン中山","ステータス":"APP_DISPLAY","region":"Arakawa","lat":35.727997,"lng":139.782593},{"店舗名":"小湘橱","住所":"〒116-0014 東京都荒川区東日暮里４丁目１２−１４ メゾン中山","ステータス":"APP_DISPLAY","region":"Arakawa","lat":35.727997,"lng":139.782593},{"店舗名":"柳州螺蛳粉 日暮里店","住所":"〒116-0014 東京都荒川区東日暮里４丁目１２−１４ メゾン中山","ステータス":"APP_DISPLAY","region":"Arakawa","lat":35.727997,"lng":139.782593},{"店舗名":"川天椒麻辣烫(マラータン)","住所":"〒116-0014 東京都荒川区東日暮里４丁目１２−１４ メゾン中山","ステータス":"APP_DISPLAY","region":"Arakawa","lat":35.727997,"lng":139.782593},{"店舗名":"皇上皇黄燜鶏米飯","住所":"〒116-0014 東京都荒川区東日暮里４丁目１２−１４ メゾン中山","ステータス":"APP_DISPLAY","region":"Arakawa","lat":35.727997,"lng":139.782593},{"店舗名":"油そば雷神 東日暮里店","住所":"〒116-0014 東京都荒川区東日暮里４丁目１２−１４ メゾン中山","ステータス":"APP_DISPLAY","region":"Arakawa","lat":35.727997,"lng":139.782593},{"店舗名":"【NEW OPEN】野菜食人ビビンバ専門店 東日暮里店","住所":"〒116-0014 東京都荒川区東日暮里４丁目１２−１４ メゾン中山","ステータス":"APP_DISPLAY","region":"Arakawa","lat":35.727997,"lng":139.782593},{"店舗名":"【マシマシ肉野菜炒め】ベジロリアン 日暮里店","住所":"〒116-0014 東京都荒川区東日暮里４丁目１２−１４ メゾン中山","ステータス":"APP_DISPLAY","region":"Arakawa","lat":35.727997,"lng":139.782593},{"店舗名":"【本格麻辣×自家製春雨】白虎麻辣湯 日暮里店","住所":"〒116-0014 東京都荒川区東日暮里４丁目１２−１４ メゾン中山","ステータス":"APP_DISPLAY","region":"Arakawa","lat":35.727997,"lng":139.782593},{"店舗名":"激盛り豚丼 メガトン 東日暮里店","住所":"〒116-0014 東京都荒川区東日暮里４丁目１２−１４ メゾン中山","ステータス":"APP_DISPLAY","region":"Arakawa","lat":35.727997,"lng":139.782593},{"店舗名":"台湾悪魔ジーパイ 東日暮里店","住所":"〒116-0014 東京都荒川区東日暮里４丁目１２−１４ メゾン中山","ステータス":"APP_DISPLAY","region":"Arakawa","lat":35.727997,"lng":139.782593},{"店舗名":"【野菜たっぷり贅沢とん汁】いち汁いち豚 日暮里店","住所":"〒116-0014 東京都荒川区東日暮里４丁目１２−１４ メゾン中山","ステータス":"APP_DISPLAY","region":"Arakawa","lat":35.727997,"lng":139.782593},{"店舗名":"王者 豚汁 東日暮里店","住所":"〒116-0014 東京都荒川区東日暮里４丁目１２−１４ メゾン中山","ステータス":"APP_DISPLAY","region":"Arakawa","lat":35.727997,"lng":139.782593},{"店舗名":"和丼～ごろごろ角煮と濃厚土手煮～ 東日暮里店","住所":"〒116-0014 東京都荒川区東日暮里４丁目１２−１４ メゾン中山","ステータス":"APP_DISPLAY","region":"Arakawa","lat":35.727997,"lng":139.782593},{"店舗名":"炎の大トロホルモン丼 日暮里店","住所":"〒116-0014 東京都荒川区東日暮里４丁目１２−１４ メゾン中山","ステータス":"APP_DISPLAY","region":"Arakawa","lat":35.727997,"lng":139.782593},{"店舗名":"熟成炙り牛タン ほのか 東日暮里店","住所":"〒116-0014 東京都荒川区東日暮里４丁目１２−１４ メゾン中山","ステータス":"APP_DISPLAY","region":"Arakawa","lat":35.727997,"lng":139.782593},{"店舗名":"バターステーキBOX 東日暮里店","住所":"〒116-0014 東京都荒川区東日暮里４丁目１２−１４ メゾン中山","ステータス":"APP_DISPLAY","region":"Arakawa","lat":35.727997,"lng":139.782593},{"店舗名":"【メガ盛り‼】1キロ弁当工房肉MAX!!大盛りからあげお弁当 日暮里店","住所":"〒116-0014 東京都荒川区東日暮里４丁目１２−１４ メゾン中山","ステータス":"APP_DISPLAY","region":"Arakawa","lat":35.727997,"lng":139.782593},{"店舗名":"【サクッと爆上げ!!爆盛鶏唐丼】唐揚げ商店鳥一ミート 日暮里店","住所":"〒116-0014 東京都荒川区東日暮里４丁目１２−１４ メゾン中山","ステータス":"APP_DISPLAY","region":"Arakawa","lat":35.727997,"lng":139.782593},{"店舗名":"熱盛りchicken bowl アツチキ 東日暮里店","住所":"〒116-0014 東京都荒川区東日暮里４丁目１２−１４ メゾン中山","ステータス":"APP_DISPLAY","region":"Arakawa","lat":35.727997,"lng":139.782593},{"店舗名":"肉匠おちあいの厳選赤身丼 東日暮里店","住所":"〒116-0014 東京都荒川区東日暮里４丁目１２−１４ メゾン中山","ステータス":"APP_DISPLAY","region":"Arakawa","lat":35.727997,"lng":139.782593},{"店舗名":"牛ハラミステーキと米と野菜MIYAKO 日暮里店","住所":"〒116-0014 東京都荒川区東日暮里４丁目１２−１４ メゾン中山","ステータス":"APP_DISPLAY","region":"Arakawa","lat":35.727997,"lng":139.782593},{"店舗名":"【もっちり玄米と低脂質チキン】とりげん食堂 日暮里店","住所":"〒116-0014 東京都荒川区東日暮里４丁目１２−１４ メゾン中山","ステータス":"APP_DISPLAY","region":"Arakawa","lat":35.727997,"lng":139.782593},{"店舗名":"【玄米×発酵×ねばとろ丼】ねばとろみのり 日暮里店","住所":"〒116-0014 東京都荒川区東日暮里４丁目１２−１４ メゾン中山","ステータス":"APP_DISPLAY","region":"Arakawa","lat":35.727997,"lng":139.782593},{"店舗名":"激旨 カルビ亭 もぉ～ちゃん 東日暮里店","住所":"〒116-0014 東京都荒川区東日暮里４丁目１２−１４ メゾン中山","ステータス":"APP_DISPLAY","region":"Arakawa","lat":35.727997,"lng":139.782593},{"店舗名":"１ポンド Steak House 肉を喰らえ‼! 東日暮里店","住所":"〒116-0014 東京都荒川区東日暮里４丁目１２−１４ メゾン中山","ステータス":"APP_DISPLAY","region":"Arakawa","lat":35.727997,"lng":139.782593},{"店舗名":"【3/4日分の野菜！ゴロゴロ野菜のごちそうスープ】ベジブロ 日暮里店","住所":"〒116-0014 東京都荒川区東日暮里４丁目１２−１４ メゾン中山","ステータス":"APP_DISPLAY","region":"Arakawa","lat":35.727997,"lng":139.782593},{"店舗名":"【出汁の旨みとたっぷり具材】雑炊の気分 日暮里店","住所":"〒116-0014 東京都荒川区東日暮里４丁目１２−１４ メゾン中山","ステータス":"APP_DISPLAY","region":"Arakawa","lat":35.727997,"lng":139.782593},{"店舗名":"【本格薬膳火鍋】朱雀火鍋 日暮里店","住所":"〒116-0014 東京都荒川区東日暮里４丁目１２−１４ メゾン中山","ステータス":"APP_DISPLAY","region":"Arakawa","lat":35.727997,"lng":139.782593},{"店舗名":"FreshPokeWorks東日暮里店","住所":"〒116-0014 東京都荒川区東日暮里４丁目１２−１４ メゾン中山","ステータス":"APP_DISPLAY","region":"Arakawa","lat":35.727997,"lng":139.782593},{"店舗名":"ねぎし丸昇","住所":"〒116-0014 東京都荒川区東日暮里４丁目２−１ 菅長コーポ","ステータス":"APP_DISPLAY","region":"Arakawa","lat":35.727375,"lng":139.783463},{"店舗名":"カンザイシャンズ(宽窄巷子)日暮里店","住所":"〒116-0014 東京都荒川区東日暮里４丁目３３−１１","ステータス":"APP_DISPLAY","region":"Arakawa","lat":35.728287,"lng":139.778931},{"店舗名":"ザ味元 The Ajimoto","住所":"〒116-0014 東京都荒川区東日暮里４丁目３３−１４ 豊田屋ビル 1F","ステータス":"APP_DISPLAY","region":"Arakawa","lat":35.728519,"lng":139.77919},{"店舗名":"アジアンエスニック サッツカール","住所":"〒116-0014 東京都荒川区東日暮里5丁目１－１","ステータス":"APP_DISPLAY","region":"Arakawa","lat":35.728428,"lng":139.778702},{"店舗名":"インドレストラン サッツカール","住所":"〒116-0014 東京都荒川区東日暮里５丁目１−１","ステータス":"APP_DISPLAY","region":"Arakawa","lat":35.728428,"lng":139.778702},{"店舗名":"SAIGON PAN","住所":"〒116-0014 東京都荒川区東日暮里５丁目２３−７ メゾンフェスタ星野","ステータス":"APP_DISPLAY","region":"Arakawa","lat":35.728615,"lng":139.776886},{"店舗名":"古町めんの坊","住所":"〒116-0014 東京都荒川区東日暮里５丁目４９−８","ステータス":"APP_DISPLAY","region":"Arakawa","lat":35.72739,"lng":139.77272},{"店舗名":"台湾手作工房","住所":"〒116-0014 東京都荒川区東日暮里５丁目４９−８","ステータス":"APP_DISPLAY","region":"Arakawa","lat":35.72739,"lng":139.77272},{"店舗名":"僕の、薬膳麺。　　日暮里店","住所":"〒116-0014 東京都荒川区東日暮里５丁目４９−８","ステータス":"APP_DISPLAY","region":"Arakawa","lat":35.72739,"lng":139.77272},{"店舗名":"VIET NAM SKY RESTAURANT","住所":"〒116-0014 東京都荒川区東日暮里５丁目５０−５","ステータス":"APP_DISPLAY","region":"Arakawa","lat":35.727901,"lng":139.773224},{"店舗名":"レストランセリオ","住所":"〒116-0014 東京都荒川区東日暮里５丁目５０−５","ステータス":"APP_DISPLAY","region":"Arakawa","lat":35.727901,"lng":139.773224},{"店舗名":"からあげの鉄人 日暮里東口駅前店","住所":"〒116-0014 東京都荒川区東日暮里５丁目５１−１２","ステータス":"APP_DISPLAY","region":"Arakawa","lat":35.728325,"lng":139.772293},{"店舗名":"大衆鰻 うな銀 日暮里東口駅前店","住所":"〒116-0014 東京都荒川区東日暮里５丁目５１−１２","ステータス":"APP_DISPLAY","region":"Arakawa","lat":35.728325,"lng":139.772293},{"店舗名":"魚民 日暮里東口駅前店","住所":"〒116-0014 東京都荒川区東日暮里５丁目５１−１２","ステータス":"APP_DISPLAY","region":"Arakawa","lat":35.728325,"lng":139.772293},{"店舗名":"韓国クリスピーチキン＆HOTドッグ　チキンモッコパ 日暮里東口駅前店","住所":"〒116-0014 東京都荒川区東日暮里５丁目５１−１２","ステータス":"APP_DISPLAY","region":"Arakawa","lat":35.728325,"lng":139.772293},{"店舗名":"名代 富士そば 日暮里店","住所":"〒116-0014 東京都荒川区東日暮里５丁目５２−２ 神谷ビル 1階","ステータス":"APP_DISPLAY","region":"Arakawa","lat":35.727737,"lng":139.772079},{"店舗名":"CatChaタピオカ・麻辣烫・芋園","住所":"〒116-0014 東京都荒川区東日暮里５丁目５２−６","ステータス":"APP_DISPLAY","region":"Arakawa","lat":35.727356,"lng":139.772552},{"店舗名":"孫二娘 跷脚牛肉・麻辣湯","住所":"〒116-0014 東京都荒川区東日暮里５丁目５４−５ 佐野ビル","ステータス":"APP_DISPLAY","region":"Arakawa","lat":35.726608,"lng":139.773987},{"店舗名":"二郎インスパイア丼ぶり「丼だけ〜！」","住所":"〒116-0014 東京都荒川区東日暮里６丁目１０−１","ステータス":"APP_DISPLAY","region":"Arakawa","lat":35.730408,"lng":139.778641},{"店舗名":"らーめん三極志","住所":"〒116-0014 東京都荒川区東日暮里６丁目１０−１ 東日暮里十番コープ","ステータス":"APP_DISPLAY","region":"Arakawa","lat":35.730408,"lng":139.778641},{"店舗名":"大阪王将 三河島店","住所":"〒116-0014 東京都荒川区東日暮里６丁目１−１","ステータス":"APP_DISPLAY","region":"Arakawa","lat":35.73288,"lng":139.778549},{"店舗名":"すき家 三河島駅前店","住所":"〒116-0014 東京都荒川区東日暮里６丁目１−１ アトラスブランズタワー三河島","ステータス":"PENDING","region":"Arakawa","lat":35.73288,"lng":139.778549},{"店舗名":"大衆居酒屋リリー","住所":"〒116-0014 東京都荒川区東日暮里６丁目１５−１","ステータス":"APP_DISPLAY","region":"Arakawa","lat":35.72884,"lng":139.778687},{"店舗名":"立ち飲み のんべぇ","住所":"〒116-0014 東京都荒川区東日暮里６丁目１５−９ 小磯ビル","ステータス":"APP_DISPLAY","region":"Arakawa","lat":35.728935,"lng":139.778641},{"店舗名":"BiTT2 日暮里","住所":"〒116-0014 東京都荒川区東日暮里６丁目１８番６号","ステータス":"APP_DISPLAY","region":"Arakawa","lat":35.728764,"lng":139.776978},{"店舗名":"真飯店","住所":"〒116-0014 東京都荒川区東日暮里６丁目２８−１８ エスペランサ２７","ステータス":"APP_DISPLAY","region":"Arakawa","lat":35.733116,"lng":139.776596},{"店舗名":"ジンバンジャン 荒川区荒川店","住所":"〒116-0014 東京都荒川区東日暮里６丁目２８−１８ エスペランサ２７","ステータス":"APP_DISPLAY","region":"Arakawa","lat":35.733116,"lng":139.776596},{"店舗名":"モモハウス＆バー","住所":"〒116-0014 東京都荒川区東日暮里６丁目３−１","ステータス":"APP_DISPLAY","region":"Arakawa","lat":35.732418,"lng":139.778564},{"店舗名":"GOODTHANG TOKYO","住所":"〒116-0014 東京都荒川区東日暮里６丁目３−１","ステータス":"APP_DISPLAY","region":"Arakawa","lat":35.732418,"lng":139.778564},{"店舗名":"手作りビャンビャン麺 水餃子","住所":"〒116-0014 東京都荒川区東日暮里６丁目３−２","ステータス":"APP_DISPLAY","region":"Arakawa","lat":35.732288,"lng":139.778564},{"店舗名":"吉时Kichiji","住所":"〒116-0014 東京都荒川区東日暮里６丁目５５−１","ステータス":"APP_DISPLAY","region":"Arakawa","lat":35.72995,"lng":139.773499},{"店舗名":"綿茶 Mian Tea 日暮里店","住所":"〒116-0014 東京都荒川区東日暮里６丁目５７−９","ステータス":"APP_DISPLAY","region":"Arakawa","lat":35.728683,"lng":139.773788},{"店舗名":"たらく日暮里店","住所":"〒116-0014 東京都荒川区東日暮里６丁目５９−１２","ステータス":"APP_DISPLAY","region":"Arakawa","lat":35.72921,"lng":139.77272},{"店舗名":"秦淮閣","住所":"〒116-0014 東京都荒川区東日暮里６丁目５９−８ 日暮里第２ダイヤモンドマンション","ステータス":"APP_DISPLAY","region":"Arakawa","lat":35.72892,"lng":139.77301},{"店舗名":"ソウル食品食堂","住所":"〒116-0014 東京都荒川区東日暮里６丁目６−１","ステータス":"APP_DISPLAY","region":"Arakawa","lat":35.731491,"lng":139.77861},{"店舗名":"漢江","住所":"〒116-0014 東京都荒川区東日暮里６丁目６−１","ステータス":"APP_DISPLAY","region":"Arakawa","lat":35.731491,"lng":139.77861},{"店舗名":"GURAS","住所":"〒116-0014 東京都荒川区東日暮里６丁目６−２","ステータス":"APP_DISPLAY","region":"Arakawa","lat":35.73135,"lng":139.77861},{"店舗名":"中華居酒屋　暉記","住所":"〒116-0014 東京都荒川区東日暮里６丁目６−７","ステータス":"APP_DISPLAY","region":"Arakawa","lat":35.730682,"lng":139.778625},{"店舗名":"【ヘルシー&高タンパク弁当】鶏あえずタンパク 日暮里店","住所":"116-0013 東京都荒川区西日暮里２丁目２０－１","ステータス":"APP_DISPLAY","region":"Arakawa","lat":35.729099,"lng":139.770569},{"店舗名":"玄米&腸活 健康ごはん お玄さんのねばとろ丼 日暮里店","住所":"116-0013 東京都荒川区西日暮里２丁目２０－１","ステータス":"APP_DISPLAY","region":"Arakawa","lat":35.729099,"lng":139.770569},{"店舗名":"【旨辛&濃厚チーズ&野菜たっぷり】天才のタコライス 日暮里店","住所":"116-0013 東京都荒川区西日暮里２丁目２０－１","ステータス":"APP_DISPLAY","region":"Arakawa","lat":35.729099,"lng":139.770569},{"店舗名":"肉テロ！肉たらしくてぎゅう 日暮里店","住所":"116-0013 東京都荒川区西日暮里２丁目２０－１","ステータス":"APP_DISPLAY","region":"Arakawa","lat":35.729099,"lng":139.770569},{"店舗名":"ワイルドステーキ&ジム飯 ブロビー 日暮里店","住所":"116-0013 東京都荒川区西日暮里２丁目２０－１","ステータス":"APP_DISPLAY","region":"Arakawa","lat":35.729099,"lng":139.770569},{"店舗名":"玄米ビビンバ 韓美菜（ハンヤチェ） 日暮里店","住所":"116-0013 東京都荒川区西日暮里２丁目２０－１","ステータス":"APP_DISPLAY","region":"Arakawa","lat":35.729099,"lng":139.770569},{"店舗名":"至福の贅沢「恋するクレープ」 日暮里店","住所":"116-0013 東京都荒川区西日暮里２丁目２０－１","ステータス":"APP_DISPLAY","region":"Arakawa","lat":35.729099,"lng":139.770569},{"店舗名":"ハラミステーキ丼&ビビンバ 「ハラミ市場」 日暮里店","住所":"116-0013 東京都荒川区西日暮里２丁目２０－１","ステータス":"APP_DISPLAY","region":"Arakawa","lat":35.729099,"lng":139.770569},{"店舗名":"アサイー&グリークヨーグルト GREEK DAYS 日暮里店","住所":"116-0013 東京都荒川区西日暮里２丁目２０－１","ステータス":"APP_DISPLAY","region":"Arakawa","lat":35.729099,"lng":139.770569},{"店舗名":"濃厚ローストビーフとハラミ丼「タルビー」 日暮里店","住所":"116-0013 東京都荒川区西日暮里２丁目２０－１","ステータス":"APP_DISPLAY","region":"Arakawa","lat":35.729099,"lng":139.770569},{"店舗名":"珈琲館 町屋店","住所":"東京都町屋2-4-15　メゾン中山1Ｆ","ステータス":"APP_DISPLAY","region":"Arakawa","lat":35.546604,"lng":139.438644},{"店舗名":"サクラ","住所":"東京都荒川区南千住東京都荒川区荒川５丁目２６－１３","ステータス":"APP_DISPLAY","region":"Arakawa","lat":35.733543,"lng":139.791092},{"店舗名":"チキン・ウイングストリート 町屋店","住所":"東京都荒川区東尾久３－３０－６ロイヤル東尾久","ステータス":"APP_DISPLAY","region":"Arakawa","lat":35.746784,"lng":139.76976},{"店舗名":"トスカーニパスタ 町屋店","住所":"東京都荒川区東尾久３－３０－６ロイヤル東尾久","ステータス":"APP_DISPLAY","region":"Arakawa","lat":35.746784,"lng":139.76976},{"店舗名":"リベル モンド","住所":"東京都荒川区東尾久二丁目42番17号","ステータス":"RECEIPT","region":"Arakawa","lat":35.74213,"lng":139.770248},{"店舗名":"勝楽","住所":"東京都荒川区東日暮里六丁目17番3号","ステータス":"APP_DISPLAY","region":"Arakawa","lat":35.72916,"lng":139.777466},{"店舗名":"cafe AMYU","住所":"東京都荒川区西尾久６丁目３２−９","ステータス":"APP_DISPLAY","region":"Arakawa","lat":35.752144,"lng":139.757736},{"店舗名":"中華家庭料理・珍","住所":"東京都荒川区西尾久三丁目25番15号","ステータス":"RECEIPT","region":"Arakawa","lat":35.753075,"lng":139.762192},{"店舗名":"常記","住所":"東京都荒川区西日暮里６丁目１３－１３","ステータス":"APP_DISPLAY","region":"Arakawa","lat":35.737774,"lng":139.77179},{"店舗名":"ラーメンNO.ONE 町屋店 ナンバーワン","住所":"東京都荒川区町屋２丁目２－３","ステータス":"APP_DISPLAY","region":"Arakawa","lat":35.743191,"lng":139.780289}]