[{"店舗名":"吉野家 外環和光北インター通り店","住所":"〒351-0003 埼玉県朝霞市台久田２５７−１","ステータス":"APP_DISPLAY","region":"Asaka","lat":35.808987,"lng":139.613434},{"店舗名":"Bull Puluくみまちモールあさか店","住所":"〒351-0005 埼玉県朝霞市根岸台３丁目２０−１","ステータス":"APP_DISPLAY","region":"Asaka","lat":35.808456,"lng":139.608795},{"店舗名":"ピザハット 朝霞店","住所":"〒351-0005 埼玉県朝霞市根岸台６丁目１０−３３","ステータス":"APP_DISPLAY","region":"Asaka","lat":35.794533,"lng":139.604889},{"店舗名":"朝霞エビス総本店","住所":"〒351-0006 埼玉県朝霞市仲町１丁目１１−４８","ステータス":"APP_DISPLAY","region":"Asaka","lat":35.798298,"lng":139.6017},{"店舗名":"風風ラーメン 朝霞東口店","住所":"〒351-0006 埼玉県朝霞市仲町１丁目１−３０","ステータス":"APP_DISPLAY","region":"Asaka","lat":35.797882,"lng":139.600708},{"店舗名":"【とろじゅわフレンチトースト】CafeBonheur 朝霞店","住所":"〒351-0006 埼玉県朝霞市仲町２丁目２－３８","ステータス":"APP_DISPLAY","region":"Asaka","lat":35.797256,"lng":139.601135},{"店舗名":"【もっちり玄米と低脂質チキン】とりげん食堂 朝霞店","住所":"〒351-0006 埼玉県朝霞市仲町２丁目２−３８ ２階","ステータス":"APP_DISPLAY","region":"Asaka","lat":35.797256,"lng":139.601135},{"店舗名":"インド料理 サイノ アジアンキッチン","住所":"〒351-0006 埼玉県朝霞市仲町２丁目３−３０ 伊東ビル","ステータス":"APP_DISPLAY","region":"Asaka","lat":35.797844,"lng":139.601593},{"店舗名":"チャンドニー","住所":"〒351-0007 埼玉県朝霞市岡３丁目１−５ グリーンパル","ステータス":"APP_DISPLAY","region":"Asaka","lat":35.807274,"lng":139.599823},{"店舗名":"バソキ屋 朝霞店","住所":"〒351-0011 埼玉県朝霞市本町１丁目７−８","ステータス":"APP_DISPLAY","region":"Asaka","lat":35.797871,"lng":139.592346},{"店舗名":"中華そばつけ麺 タナカ90 油そば専門店匠","住所":"〒351-0011 埼玉県朝霞市本町２丁目１１−２８","ステータス":"APP_DISPLAY","region":"Asaka","lat":35.797478,"lng":139.598877},{"店舗名":"THE BOUNTY","住所":"〒351-0011 埼玉県朝霞市本町２丁目１３","ステータス":"APP_DISPLAY","region":"Asaka","lat":35.797173,"lng":139.600021},{"店舗名":"バーガーキング 東武朝霞店","住所":"〒351-0011 埼玉県朝霞市本町２丁目１３−１","ステータス":"APP_DISPLAY","region":"Asaka","lat":35.796955,"lng":139.599686},{"店舗名":"美虎寿司","住所":"〒351-0011 埼玉県朝霞市本町２丁目１６−８","ステータス":"APP_DISPLAY","region":"Asaka","lat":35.799423,"lng":139.597824},{"店舗名":"韓の波","住所":"〒351-0011 埼玉県朝霞市本町２丁目４−１０ KMKビル","ステータス":"APP_DISPLAY","region":"Asaka","lat":35.796829,"lng":139.599045},{"店舗名":"デニーズ 朝霞駅前店","住所":"〒351-0011 埼玉県朝霞市本町２丁目４−１８","ステータス":"APP_DISPLAY","region":"Asaka","lat":35.796467,"lng":139.599396},{"店舗名":"日乃屋カレー朝霞 Hinoya Curry Asaka","住所":"〒351-0011 埼玉県朝霞市本町２丁目４−２０","ステータス":"APP_DISPLAY","region":"Asaka","lat":35.796303,"lng":139.599304},{"店舗名":"ケンタッキーフライドチキン 朝霞駅前店","住所":"〒351-0011 埼玉県朝霞市本町２丁目５−２４","ステータス":"APP_DISPLAY","region":"Asaka","lat":35.796963,"lng":139.599503},{"店舗名":"ナマステ朝霞アジアン ダイニング ＆ バー","住所":"〒351-0011 埼玉県朝霞市本町２丁目６−１１","ステータス":"APP_DISPLAY","region":"Asaka","lat":35.79763,"lng":139.596924},{"店舗名":"A-kitchen まちのごはんやさん","住所":"〒351-0011 埼玉県朝霞市本町２丁目６−１５ ラフィーネ","ステータス":"APP_DISPLAY","region":"Asaka","lat":35.797585,"lng":139.597397},{"店舗名":"中華蕎麦 瑞山","住所":"〒351-0011 埼玉県朝霞市本町２丁目８−１５","ステータス":"APP_DISPLAY","region":"Asaka","lat":35.799206,"lng":139.595947},{"店舗名":"アサカナキッチン ルーブルー","住所":"〒351-0011 埼玉県朝霞市本町２丁目８−１５","ステータス":"APP_DISPLAY","region":"Asaka","lat":35.799206,"lng":139.595947},{"店舗名":"チキラボ plus 朝霞店","住所":"〒351-0012 埼玉県朝霞市栄町４-７-３０","ステータス":"APP_DISPLAY","region":"Asaka","lat":35.785763,"lng":139.600784},{"店舗名":"インドネパールレストラン&バー ダルサン","住所":"〒351-0014 埼玉県朝霞市膝折町１丁目１０−８ ヴィラアメニティ 1f","ステータス":"APP_DISPLAY","region":"Asaka","lat":35.794724,"lng":139.58316},{"店舗名":"ドミノ・ピザ 朝霞膝折町店","住所":"〒351-0014 埼玉県朝霞市膝折町１丁目１−１８","ステータス":"APP_DISPLAY","region":"Asaka","lat":35.795998,"lng":139.586258},{"店舗名":"情熱食堂 朝霞膝折町店","住所":"〒351-0014 埼玉県朝霞市膝折町４丁目１３−３３","ステータス":"APP_DISPLAY","region":"Asaka","lat":35.800285,"lng":139.579254},{"店舗名":"101's  十勝豚丼と北海道ザンキ　埼玉1号店","住所":"〒351-0014 埼玉県朝霞市膝折町４丁目１３−３３","ステータス":"APP_DISPLAY","region":"Asaka","lat":35.800285,"lng":139.579254},{"店舗名":"七左食堂","住所":"〒351-0014 埼玉県朝霞市膝折町４丁目２１−２４","ステータス":"APP_DISPLAY","region":"Asaka","lat":35.79945,"lng":139.577026},{"店舗名":"つきじ海賓 朝霞幸町店","住所":"〒351-0015 埼玉県朝霞市幸町２丁目１４−１８","ステータス":"APP_DISPLAY","region":"Asaka","lat":35.792973,"lng":139.58667},{"店舗名":"丼ぶり 天晴 朝霞幸町店","住所":"〒351-0015 埼玉県朝霞市幸町２丁目１４−１８","ステータス":"APP_DISPLAY","region":"Asaka","lat":35.792973,"lng":139.58667},{"店舗名":"おすし日和 朝霞幸町","住所":"〒351-0015 埼玉県朝霞市幸町２丁目１４−１８","ステータス":"APP_DISPLAY","region":"Asaka","lat":35.792973,"lng":139.58667},{"店舗名":"ななつぼし朝霞幸町店","住所":"〒351-0015 埼玉県朝霞市幸町２丁目１４−１８","ステータス":"APP_DISPLAY","region":"Asaka","lat":35.792973,"lng":139.58667},{"店舗名":"YUMEN朝霞幸町店","住所":"〒351-0015 埼玉県朝霞市幸町２丁目１４−１８","ステータス":"APP_DISPLAY","region":"Asaka","lat":35.792973,"lng":139.58667},{"店舗名":"まつ乃朝霞幸町店","住所":"〒351-0015 埼玉県朝霞市幸町２丁目１４−１８","ステータス":"APP_DISPLAY","region":"Asaka","lat":35.792973,"lng":139.58667},{"店舗名":"海のみち朝霞幸町店","住所":"〒351-0015 埼玉県朝霞市幸町２丁目１４−１８","ステータス":"APP_DISPLAY","region":"Asaka","lat":35.792973,"lng":139.58667},{"店舗名":"【本格麻辣×自家製春雨】白虎麻辣湯 朝霞台店","住所":"〒351-0021 埼玉県朝霞市西弁財１丁目１０−２５","ステータス":"RECEIPT","region":"Asaka","lat":35.814465,"lng":139.585464},{"店舗名":"デニーズ 朝霞台店","住所":"〒351-0021 埼玉県朝霞市西弁財１丁目４−７","ステータス":"APP_DISPLAY","region":"Asaka","lat":35.814106,"lng":139.582214},{"店舗名":"蔵出し味噌 門左衛門 朝霞台店","住所":"〒351-0022 埼玉県朝霞市東弁財１丁目４−１１","ステータス":"APP_DISPLAY","region":"Asaka","lat":35.814297,"lng":139.586777},{"店舗名":"隠れ菴　忍家朝霞台南口店","住所":"〒351-0022 埼玉県朝霞市東弁財１丁目４−１２","ステータス":"APP_DISPLAY","region":"Asaka","lat":35.814331,"lng":139.586838},{"店舗名":"吉野家 朝霞台駅南口店","住所":"〒351-0022 埼玉県朝霞市東弁財１丁目４−１７","ステータス":"APP_DISPLAY","region":"Asaka","lat":35.81459,"lng":139.586456},{"店舗名":"バーガーキング朝霞台駅前店","住所":"〒351-0022 埼玉県朝霞市東弁財１丁目４−２２","ステータス":"APP_DISPLAY","region":"Asaka","lat":35.814556,"lng":139.58609},{"店舗名":"お肉屋さんが「君に、焼いて揚げる」","住所":"〒351-0023 埼玉県朝霞市溝沼２丁目１−４５","ステータス":"APP_DISPLAY","region":"Asaka","lat":35.801449,"lng":139.591919},{"店舗名":"こみゅにてぃめしや","住所":"〒351-0023 埼玉県朝霞市溝沼５丁目１８−２","ステータス":"APP_DISPLAY","region":"Asaka","lat":35.805901,"lng":139.58873},{"店舗名":"背徳ご褒美クレープ！CREPE FACTORY 溝沼5丁目店","住所":"〒351-0023 埼玉県朝霞市溝沼５丁目１８−２","ステータス":"RECEIPT","region":"Asaka","lat":35.805901,"lng":139.58873},{"店舗名":"自然派ネバとろばくだん食堂 溝沼5丁目店","住所":"〒351-0023 埼玉県朝霞市溝沼５丁目１８−２","ステータス":"RECEIPT","region":"Asaka","lat":35.805901,"lng":139.58873},{"店舗名":"香麗麻辣湯（シャンリーマーラータン） 溝沼5丁目店","住所":"〒351-0023 埼玉県朝霞市溝沼５丁目１８−２","ステータス":"RECEIPT","region":"Asaka","lat":35.805901,"lng":139.58873},{"店舗名":"Italian Kitchen VANSAN 朝霞点","住所":"〒351-0024","ステータス":"RECEIPT","region":"Asaka","lat":35.802353,"lng":139.57576},{"店舗名":"ヒマラヤン食堂 朝霞台店","住所":"〒351-0025 埼玉県朝霞市三原１丁目１８−２５","ステータス":"APP_DISPLAY","region":"Asaka","lat":35.811466,"lng":139.580704},{"店舗名":"インドネパール料理ハヴェリ","住所":"〒351-0025 埼玉県朝霞市三原５丁目１３−２","ステータス":"APP_DISPLAY","region":"Asaka","lat":35.813976,"lng":139.576523},{"店舗名":"焼き鳥　ヤキノミ","住所":"〒351-0025 埼玉県朝霞市三原５丁目１３−２","ステータス":"APP_DISPLAY","region":"Asaka","lat":35.813976,"lng":139.576523},{"店舗名":"菜食健美","住所":"〒351-0025埼玉県朝霞市三原５－１３－１","ステータス":"APP_DISPLAY","region":"Asaka","lat":35.814087,"lng":139.576508},{"店舗名":"カレーハウス CoCo壱番屋 朝霞田島店","住所":"〒351-0032 埼玉県朝霞市田島２丁目４−１","ステータス":"APP_DISPLAY","region":"Asaka","lat":35.814327,"lng":139.606232},{"店舗名":"五穀みそらーめん 味噌屋蔵之介 朝霞田島店","住所":"〒351-0032 埼玉県朝霞市田島２丁目４−５","ステータス":"APP_DISPLAY","region":"Asaka","lat":35.814613,"lng":139.605988},{"店舗名":"らあめん花月嵐　朝霞田島店","住所":"〒351-0032 埼玉県朝霞市田島２丁目５−３","ステータス":"APP_DISPLAY","region":"Asaka","lat":35.815041,"lng":139.605804},{"店舗名":"大衆鰻 うな銀 北朝霞東口駅前店","住所":"〒351-0033 埼玉県朝霞市浜崎１丁目２−１０","ステータス":"APP_DISPLAY","region":"Asaka","lat":35.815079,"lng":139.587692},{"店舗名":"目利きの銀次 北朝霞東口駅前店","住所":"〒351-0033 埼玉県朝霞市浜崎１丁目２−１０","ステータス":"APP_DISPLAY","region":"Asaka","lat":35.815079,"lng":139.587692},{"店舗名":"とんかつの和吉 北朝霞東口駅前店","住所":"〒351-0033 埼玉県朝霞市浜崎１丁目２−１０ アゴラ21ビル 2階","ステータス":"APP_DISPLAY","region":"Asaka","lat":35.815079,"lng":139.587692},{"店舗名":"濃厚鶏白湯つけ麺 どっかん 北朝霞東口駅前店","住所":"〒351-0033 埼玉県朝霞市浜崎１丁目２−１０ アゴラ21ビル 2階","ステータス":"APP_DISPLAY","region":"Asaka","lat":35.815079,"lng":139.587692},{"店舗名":"果茶果茶 朝霞台店","住所":"〒351-0033 埼玉県朝霞市浜崎１丁目３－１０","ステータス":"APP_DISPLAY","region":"Asaka","lat":35.815441,"lng":139.58783},{"店舗名":"ごはんがすすむ！油淋鶏飯店 朝霞台店","住所":"〒351-0033 埼玉県朝霞市浜崎１丁目３−１０","ステータス":"APP_DISPLAY","region":"Asaka","lat":35.815441,"lng":139.58783},{"店舗名":"ごはんが進む！『チキン南蛮本舗』 朝霞台店","住所":"〒351-0033 埼玉県朝霞市浜崎１丁目３−１０","ステータス":"APP_DISPLAY","region":"Asaka","lat":35.815441,"lng":139.58783},{"店舗名":"『油そば桐ちゃん』～食べログ百名店 桐麺監修～ 朝霞台駅前店","住所":"〒351-0033 埼玉県朝霞市浜崎１丁目３−１０","ステータス":"APP_DISPLAY","region":"Asaka","lat":35.815441,"lng":139.58783},{"店舗名":"二段仕込み唐揚げ『鶏の福』 朝霞台駅前店","住所":"〒351-0033 埼玉県朝霞市浜崎１丁目３−１０","ステータス":"APP_DISPLAY","region":"Asaka","lat":35.815441,"lng":139.58783},{"店舗名":"わらび餅茶屋 朝霞台駅前店","住所":"〒351-0033 埼玉県朝霞市浜崎１丁目３−１０","ステータス":"APP_DISPLAY","region":"Asaka","lat":35.815441,"lng":139.58783},{"店舗名":"ミルゼリッチ 朝霞台駅前店","住所":"〒351-0033 埼玉県朝霞市浜崎１丁目３−１０ ＡＸ－１","ステータス":"APP_DISPLAY","region":"Asaka","lat":35.815441,"lng":139.58783},{"店舗名":"ナポリデイズ 朝霞台駅前店","住所":"〒351-0033 埼玉県朝霞市浜崎１丁目３−１０ ＡＸ－１ ３Ｆ ビル","ステータス":"APP_DISPLAY","region":"Asaka","lat":35.815441,"lng":139.58783},{"店舗名":"ビックエコーデリバリー朝霞台駅前店","住所":"〒351-0033 埼玉県朝霞市浜崎１丁目３−１０ ＡＸ－１ ３Ｆ ビル","ステータス":"APP_DISPLAY","region":"Asaka","lat":35.815441,"lng":139.58783},{"店舗名":"SHIROKI BURGER 北朝霞駅前店","住所":"〒351-0033 埼玉県朝霞市浜崎１丁目３−６","ステータス":"APP_DISPLAY","region":"Asaka","lat":35.815174,"lng":139.588135},{"店舗名":"笑笑 北朝霞駅前店","住所":"〒351-0033 埼玉県朝霞市浜崎１丁目３−６","ステータス":"APP_DISPLAY","region":"Asaka","lat":35.815174,"lng":139.588135},{"店舗名":"ハンバーグ TERU 北朝霞駅前店","住所":"〒351-0033 埼玉県朝霞市浜崎１丁目３−６","ステータス":"APP_DISPLAY","region":"Asaka","lat":35.815174,"lng":139.588135},{"店舗名":"串カツ田中　朝霞台店","住所":"〒351-0033 埼玉県朝霞市浜崎１丁目３−６","ステータス":"APP_DISPLAY","region":"Asaka","lat":35.815174,"lng":139.588135},{"店舗名":"野郎ラーメン 朝霞台店","住所":"〒351-0033 埼玉県朝霞市浜崎１丁目３−６","ステータス":"PENDING","region":"Asaka","lat":35.815174,"lng":139.588135},{"店舗名":"からあげの鉄人 北朝霞駅前店","住所":"〒351-0033 埼玉県朝霞市浜崎１丁目３−６ ルフレ","ステータス":"APP_DISPLAY","region":"Asaka","lat":35.815174,"lng":139.588135},{"店舗名":"大盛スタミナ肉丼 ニンニク野郎 朝霞台店","住所":"〒351-0033 埼玉県朝霞市浜崎１丁目３−６ ルフレ","ステータス":"APP_DISPLAY","region":"Asaka","lat":35.815174,"lng":139.588135},{"店舗名":"Tasty Garden 北朝霞店","住所":"〒351-0033 埼玉県朝霞市浜崎１丁目８−３８","ステータス":"APP_DISPLAY","region":"Asaka","lat":35.816311,"lng":139.588608},{"店舗名":"はなまるうどん 北朝霞駅前店","住所":"〒351-0034 埼玉県朝霞市西原１丁目１−２８","ステータス":"APP_DISPLAY","region":"Asaka","lat":35.815845,"lng":139.586441},{"店舗名":"Segafredo Zanetti Espreso kitaasaka","住所":"〒351-0034 埼玉県朝霞市西原１丁目２−２","ステータス":"APP_DISPLAY","region":"Asaka","lat":35.815548,"lng":139.586685},{"店舗名":"舎鈴 北朝霞駅前店","住所":"〒351-0034 埼玉県朝霞市西原１丁目２−４７ アルテ・モカビル １階","ステータス":"APP_DISPLAY","region":"Asaka","lat":35.815502,"lng":139.586899},{"店舗名":"ドミノ・ピザ 朝志ケ丘店","住所":"〒351-0035 埼玉県朝霞市朝志ケ丘１丁目５−２０","ステータス":"APP_DISPLAY","region":"Asaka","lat":35.82037,"lng":139.582016},{"店舗名":"【本格麻辣×自家製春雨】白虎麻辣湯 朝霞駅前店","住所":"Daikan 15, 101 ２丁目-６-１１ 本町 朝霞市 埼玉県 351-0011","ステータス":"RECEIPT","region":"Asaka","lat":35.801872,"lng":139.595139},{"店舗名":"チキン・ウイングストリート 朝霞店","住所":"埼玉県朝霞市根岸台６－１０－３３","ステータス":"APP_DISPLAY","region":"Asaka","lat":35.794533,"lng":139.604889},{"店舗名":"トスカーニパスタ 朝霞店","住所":"埼玉県朝霞市根岸台６－１０－３３","ステータス":"APP_DISPLAY","region":"Asaka","lat":35.794533,"lng":139.604889},{"店舗名":"COFFEE MOAT","住所":"埼玉県朝霞市仲町1-11-37","ステータス":"APP_DISPLAY","region":"Asaka","lat":35.79924,"lng":139.601807}]