[{"店舗名":"麻辣湯専門店TEQUINA","住所":"〒243-0001 神奈川県厚木市東町７−３−１０１","ステータス":"APP_DISPLAY","region":"Atsugi","lat":35.445465,"lng":139.369156},{"店舗名":"和食居酒屋　ごりら","住所":"〒243-0002 神奈川県厚木市元町７−１３","ステータス":"APP_DISPLAY","region":"Atsugi","lat":35.446369,"lng":139.36882},{"店舗名":"ホルモン 蓮","住所":"〒243-0003 神奈川県厚木市寿町１丁目１−９","ステータス":"APP_DISPLAY","region":"Atsugi","lat":35.444229,"lng":139.366913},{"店舗名":"量り売りカフェ ほっこりや","住所":"〒243-0003 神奈川県厚木市寿町１丁目３−１３","ステータス":"APP_DISPLAY","region":"Atsugi","lat":35.443676,"lng":139.368423},{"店舗名":"INSIDE","住所":"〒243-0003 神奈川県厚木市寿町２丁目１−５","ステータス":"APP_DISPLAY","region":"Atsugi","lat":35.443527,"lng":139.365448},{"店舗名":"YumiYuri （ユミユリ）","住所":"〒243-0003 神奈川県厚木市寿町２丁目４−１","ステータス":"APP_DISPLAY","region":"Atsugi","lat":35.444309,"lng":139.366196},{"店舗名":"焼肉 阿吽 本厚木店　yakiniku aun honatsugi","住所":"〒243-0003 神奈川県厚木市寿町３丁目１−１","ステータス":"RECEIPT","region":"Atsugi","lat":35.443935,"lng":139.36319},{"店舗名":"インド・ネパール料理 カナパニ","住所":"〒243-0003 神奈川県厚木市寿町３丁目７−１５","ステータス":"APP_DISPLAY","region":"Atsugi","lat":35.445389,"lng":139.363617},{"店舗名":"ピザハット 厚木店","住所":"〒243-0004 神奈川県厚木市水引１丁目１","ステータス":"APP_DISPLAY","region":"Atsugi","lat":35.444691,"lng":139.360153},{"店舗名":"トスカーニパスタ 厚木店","住所":"〒243-0004 神奈川県厚木市水引１丁目１","ステータス":"APP_DISPLAY","region":"Atsugi","lat":35.444691,"lng":139.360153},{"店舗名":"チキン・ウイングストリート 厚木店","住所":"〒243-0004 神奈川県厚木市水引１丁目１","ステータス":"APP_DISPLAY","region":"Atsugi","lat":35.444691,"lng":139.360153},{"店舗名":"フォーレー","住所":"〒243-0004 神奈川県厚木市水引１丁目１５−１５","ステータス":"APP_DISPLAY","region":"Atsugi","lat":35.448658,"lng":139.360825},{"店舗名":"ボンベイ 厚木水引店","住所":"〒243-0004 神奈川県厚木市水引１丁目１７−１７","ステータス":"APP_DISPLAY","region":"Atsugi","lat":35.449577,"lng":139.35907},{"店舗名":"ストウブビストロ はるひごはん","住所":"〒243-0012 神奈川県厚木市幸町１−１４","ステータス":"APP_DISPLAY","region":"Atsugi","lat":35.438873,"lng":139.369522},{"店舗名":"gram 本厚木店","住所":"〒243-0012 神奈川県厚木市幸町６−４","ステータス":"APP_DISPLAY","region":"Atsugi","lat":35.440426,"lng":139.368744},{"店舗名":"KARAKARA厚木店","住所":"〒243-0012 神奈川県厚木市幸町６−４","ステータス":"APP_DISPLAY","region":"Atsugi","lat":35.440426,"lng":139.368744},{"店舗名":"麺堂　油印","住所":"〒243-0013 神奈川県厚木市泉町","ステータス":"RECEIPT","region":"Atsugi","lat":35.439922,"lng":139.36647},{"店舗名":"築地銀だこ 本厚木ミロード店","住所":"〒243-0013 神奈川県厚木市泉町１","ステータス":"APP_DISPLAY","region":"Atsugi","lat":35.439743,"lng":139.364975},{"店舗名":"100日だけのチョコクロワッサン Tony Bake in 神奈川本厚木店","住所":"〒243-0013 神奈川県厚木市泉町１−１","ステータス":"APP_DISPLAY","region":"Atsugi","lat":35.439743,"lng":139.364975},{"店舗名":"麺堂油印","住所":"〒243-0013 神奈川県厚木市泉町１−１","ステータス":"APP_DISPLAY","region":"Atsugi","lat":35.439743,"lng":139.364975},{"店舗名":"ケンタッキーフライドチキン 本厚木ミロードイースト店","住所":"〒243-0013 神奈川県厚木市泉町１−１","ステータス":"APP_DISPLAY","region":"Atsugi","lat":35.439743,"lng":139.364975},{"店舗名":"マッカーサーギャレッジ","住所":"〒243-0013 神奈川県厚木市泉町１４−１１","ステータス":"APP_DISPLAY","region":"Atsugi","lat":35.440041,"lng":139.367371},{"店舗名":"クイーンズクレープ","住所":"〒243-0013 神奈川県厚木市泉町２−１","ステータス":"APP_DISPLAY","region":"Atsugi","lat":35.440159,"lng":139.365906},{"店舗名":"豚骨らーめん　ぶたきち","住所":"〒243-0013 神奈川県厚木市泉町２−１","ステータス":"APP_DISPLAY","region":"Atsugi","lat":35.440159,"lng":139.365906},{"店舗名":"なまらうまいっしょ! 本厚木店","住所":"〒243-0013 神奈川県厚木市泉町４−１","ステータス":"APP_DISPLAY","region":"Atsugi","lat":35.439552,"lng":139.366074},{"店舗名":"和牛焼肉KINGYU","住所":"〒243-0013 神奈川県厚木市泉町４−６ メープルビル","ステータス":"APP_DISPLAY","region":"Atsugi","lat":35.439396,"lng":139.36647},{"店舗名":"炎の鉄板料理✕本厚木リゾートEnfin【アンファン】","住所":"〒243-0014","ステータス":"APP_DISPLAY","region":"Atsugi","lat":35.437214,"lng":139.363922},{"店舗名":"Petit Plaisir","住所":"〒243-0014","ステータス":"APP_DISPLAY","region":"Atsugi","lat":35.437214,"lng":139.363922},{"店舗名":"中華居酒屋369之家","住所":"〒243-0014","ステータス":"APP_DISPLAY","region":"Atsugi","lat":35.437214,"lng":139.363922},{"店舗名":"蔵味噌ラーメン晴っぴ　厚木店","住所":"〒243-0014 神奈川県厚木市旭町","ステータス":"RECEIPT","region":"Atsugi","lat":35.437214,"lng":139.363922},{"店舗名":"餃子とサーカス　厚木店","住所":"〒243-0014 神奈川県厚木市旭町１丁目１−５","ステータス":"APP_DISPLAY","region":"Atsugi","lat":35.438564,"lng":139.363922},{"店舗名":"パリワール インディアンレストラン","住所":"〒243-0014 神奈川県厚木市旭町１丁目２３−３ 第一厚英ビル","ステータス":"APP_DISPLAY","region":"Atsugi","lat":35.43718,"lng":139.364319},{"店舗名":"【カフェ&ダイニング】オカユスタンドサラダ厚木","住所":"〒243-0014 神奈川県厚木市旭町１丁目２４−１５","ステータス":"APP_DISPLAY","region":"Atsugi","lat":35.437881,"lng":139.364014},{"店舗名":"蔵味噌ラーメン 晴っぴ 厚木店","住所":"〒243-0014 神奈川県厚木市旭町１丁目２４−１５","ステータス":"APP_DISPLAY","region":"Atsugi","lat":35.437881,"lng":139.364014},{"店舗名":"しあわせのお菓子ツリーオーブン","住所":"〒243-0014 神奈川県厚木市旭町１丁目２４−１７ 浅岡ビル","ステータス":"APP_DISPLAY","region":"Atsugi","lat":35.438122,"lng":139.364182},{"店舗名":"韓国クリスピーチキン＆HOTドッグ　チキンモッコパ 本厚木南口駅前店","住所":"〒243-0014 神奈川県厚木市旭町１丁目２５−１","ステータス":"APP_DISPLAY","region":"Atsugi","lat":35.438488,"lng":139.364578},{"店舗名":"山内農場 本厚木南口駅前店","住所":"〒243-0014 神奈川県厚木市旭町１丁目２５−１","ステータス":"APP_DISPLAY","region":"Atsugi","lat":35.438488,"lng":139.364578},{"店舗名":"カルビ丼・赤チゲ グンチャン 本厚木南口駅前店","住所":"〒243-0014 神奈川県厚木市旭町１丁目２５−１","ステータス":"APP_DISPLAY","region":"Atsugi","lat":35.438488,"lng":139.364578},{"店舗名":"スイス菓子 ポニイ","住所":"〒243-0014 神奈川県厚木市旭町１丁目２８−１","ステータス":"APP_DISPLAY","region":"Atsugi","lat":35.438034,"lng":139.365005},{"店舗名":"丼と刺身 みよし","住所":"〒243-0014 神奈川県厚木市旭町１丁目２８−１","ステータス":"APP_DISPLAY","region":"Atsugi","lat":35.438034,"lng":139.365005},{"店舗名":"film","住所":"〒243-0014 神奈川県厚木市旭町１丁目２９−１３","ステータス":"APP_DISPLAY","region":"Atsugi","lat":35.43787,"lng":139.364517},{"店舗名":"お芋や メリッサ","住所":"〒243-0014 神奈川県厚木市旭町１丁目３３−７","ステータス":"APP_DISPLAY","region":"Atsugi","lat":35.436344,"lng":139.36554},{"店舗名":"【自家焙煎珈琲　喫茶】いる１ばん　いるいちばん","住所":"〒243-0014 神奈川県厚木市旭町１丁目３８−４","ステータス":"RECEIPT","region":"Atsugi","lat":35.435852,"lng":139.365494},{"店舗名":"2343 FOOD LABO","住所":"〒243-0014 神奈川県厚木市旭町１丁目７−３ HAYASHIビル ３F","ステータス":"APP_DISPLAY","region":"Atsugi","lat":35.43774,"lng":139.36322},{"店舗名":"食彩和牛しげ吉本厚木店","住所":"〒243-0014 神奈川県厚木市旭町１丁目９−１８","ステータス":"APP_DISPLAY","region":"Atsugi","lat":35.436939,"lng":139.362625},{"店舗名":"韓国料理 吾照里 本厚木店","住所":"〒243-0014 神奈川県厚木市旭町１丁目ー２３ー１","ステータス":"APP_DISPLAY","region":"Atsugi","lat":35.437382,"lng":139.364243},{"店舗名":"ドミノ・ピザ 本厚木南口店","住所":"〒243-0014 神奈川県厚木市旭町２丁目１−１","ステータス":"APP_DISPLAY","region":"Atsugi","lat":35.43898,"lng":139.366043},{"店舗名":"かつ丼屋 のぶお 厚木・海老名店","住所":"〒243-0014 神奈川県厚木市旭町３丁目１５−１４","ステータス":"APP_DISPLAY","region":"Atsugi","lat":35.43578,"lng":139.368454},{"店舗名":"台湾カフェ 時香茶 厚木・海老名店","住所":"〒243-0014 神奈川県厚木市旭町３丁目１５−１４","ステータス":"APP_DISPLAY","region":"Atsugi","lat":35.43578,"lng":139.368454},{"店舗名":"焼きかつ丼 勝吉 厚木・海老名店","住所":"〒243-0014 神奈川県厚木市旭町３丁目１５−１４","ステータス":"APP_DISPLAY","region":"Atsugi","lat":35.43578,"lng":139.368454},{"店舗名":"かつ丼 とん吉 厚木・海老名店","住所":"〒243-0014 神奈川県厚木市旭町３丁目１５−１４","ステータス":"APP_DISPLAY","region":"Atsugi","lat":35.43578,"lng":139.368454},{"店舗名":"どんぶり 神宮軒 厚木・海老名店","住所":"〒243-0014 神奈川県厚木市旭町３丁目１５−１４","ステータス":"APP_DISPLAY","region":"Atsugi","lat":35.43578,"lng":139.368454},{"店舗名":"お粥 煮え花 厚木・海老名店","住所":"〒243-0014 神奈川県厚木市旭町３丁目１５−１４","ステータス":"APP_DISPLAY","region":"Atsugi","lat":35.43578,"lng":139.368454},{"店舗名":"うどんと肉 角立 厚木・海老名店","住所":"〒243-0014 神奈川県厚木市旭町３丁目１５−１４","ステータス":"APP_DISPLAY","region":"Atsugi","lat":35.43578,"lng":139.368454},{"店舗名":"背徳めし食堂 厚木・海老名店","住所":"〒243-0014 神奈川県厚木市旭町３丁目１５−１４","ステータス":"APP_DISPLAY","region":"Atsugi","lat":35.43578,"lng":139.368454},{"店舗名":"元祖金沢チャンピオンカレーデリバリー 厚木・海老名店","住所":"〒243-0014 神奈川県厚木市旭町３丁目１５−１４","ステータス":"APP_DISPLAY","region":"Atsugi","lat":35.43578,"lng":139.368454},{"店舗名":"さぬきうどん・どんぶり 博好 厚木・海老名店","住所":"〒243-0014 神奈川県厚木市旭町３丁目１５−１４","ステータス":"APP_DISPLAY","region":"Atsugi","lat":35.43578,"lng":139.368454},{"店舗名":"出前家系ラーメン 吉祥寺 武蔵家 厚木・海老名店","住所":"〒243-0014 神奈川県厚木市旭町３丁目１５−１４","ステータス":"APP_DISPLAY","region":"Atsugi","lat":35.43578,"lng":139.368454},{"店舗名":"十勝帯広豚丼 三代目ぶた広 厚木・海老名店","住所":"〒243-0014 神奈川県厚木市旭町３丁目１５−１４","ステータス":"APP_DISPLAY","region":"Atsugi","lat":35.43578,"lng":139.368454},{"店舗名":"韓国カルビ丼とスンドゥブ 洞山 厚木・海老名店","住所":"〒243-0014 神奈川県厚木市旭町３丁目１５−１４ 栄興厚木ヴィラ","ステータス":"APP_DISPLAY","region":"Atsugi","lat":35.43578,"lng":139.368454},{"店舗名":"出前つけ麺専門店 三田製麺所 厚木・海老名店","住所":"〒243-0014 神奈川県厚木市旭町３丁目１５−１４ 栄興厚木ヴィラ","ステータス":"APP_DISPLAY","region":"Atsugi","lat":35.43578,"lng":139.368454},{"店舗名":"旨辛スタミナ鉄板焼き 天神軒 厚木・海老名店","住所":"〒243-0014 神奈川県厚木市旭町３丁目１５−１４ 栄興厚木ヴィラ","ステータス":"APP_DISPLAY","region":"Atsugi","lat":35.43578,"lng":139.368454},{"店舗名":"韓国クッパとビビンバ 全州 厚木・海老名店","住所":"〒243-0014 神奈川県厚木市旭町３丁目１５−１４ 栄興厚木ヴィラ","ステータス":"APP_DISPLAY","region":"Atsugi","lat":35.43578,"lng":139.368454},{"店舗名":"ぶた玉丼とうどん ぶた玉家 厚木・海老名店","住所":"〒243-0014 神奈川県厚木市旭町３丁目１５−１４ 栄興厚木ヴィラ","ステータス":"APP_DISPLAY","region":"Atsugi","lat":35.43578,"lng":139.368454},{"店舗名":"熟成厚切りとんてき 三元道 厚木・海老名店","住所":"〒243-0014 神奈川県厚木市旭町３丁目１５−１４ 栄興厚木ヴィラ","ステータス":"APP_DISPLAY","region":"Atsugi","lat":35.43578,"lng":139.368454},{"店舗名":"肉汁つけうどん 六三四 厚木・海老名店","住所":"〒243-0014 神奈川県厚木市旭町３丁目１５−１４ 栄興厚木ヴィラ","ステータス":"APP_DISPLAY","region":"Atsugi","lat":35.43578,"lng":139.368454},{"店舗名":"鶏天豚天 通天道 厚木・海老名店","住所":"〒243-0014 神奈川県厚木市旭町３丁目１５−１４ 栄興厚木ヴィラ","ステータス":"APP_DISPLAY","region":"Atsugi","lat":35.43578,"lng":139.368454},{"店舗名":"伝説のすた丼屋 厚木・海老名店","住所":"〒243-0014 神奈川県厚木市旭町３丁目１５−１４ 栄興厚木ヴィラ 1,3","ステータス":"APP_DISPLAY","region":"Atsugi","lat":35.43578,"lng":139.368454},{"店舗名":"鶏弁 とり日和 厚木・海老名店","住所":"〒243-0014 神奈川県厚木市旭町３丁目１５−１４ 栄興厚木ヴィラ 1,3","ステータス":"APP_DISPLAY","region":"Atsugi","lat":35.43578,"lng":139.368454},{"店舗名":"のり弁 浅草屋 厚木・海老名店","住所":"〒243-0014 神奈川県厚木市旭町３丁目１５−１４ 栄興厚木ヴィラ 1,3","ステータス":"APP_DISPLAY","region":"Atsugi","lat":35.43578,"lng":139.368454},{"店舗名":"宅配とんかつ かさねや 厚木・海老名店","住所":"〒243-0014 神奈川県厚木市旭町３丁目１５−１４ 栄興厚木ヴィラ 1階3号室","ステータス":"APP_DISPLAY","region":"Atsugi","lat":35.43578,"lng":139.368454},{"店舗名":"AMANAH MANDE PADANG RESTAURANT","住所":"〒243-0014 神奈川県厚木市旭町４丁目１１−２７","ステータス":"APP_DISPLAY","region":"Atsugi","lat":35.431698,"lng":139.36525},{"店舗名":"おはぎともなかと","住所":"〒243-0014 神奈川県厚木市旭町４丁目３−１３","ステータス":"APP_DISPLAY","region":"Atsugi","lat":35.433941,"lng":139.365433},{"店舗名":"極生プリン 華","住所":"〒243-0014 神奈川県厚木市旭町５丁目３５−８","ステータス":"APP_DISPLAY","region":"Atsugi","lat":35.431286,"lng":139.363693},{"店舗名":"デニーズ 厚木店","住所":"〒243-0016 神奈川県厚木市田村町３−２２","ステータス":"APP_DISPLAY","region":"Atsugi","lat":35.438221,"lng":139.35759},{"店舗名":"博多天ぷらなぐや 厚木店","住所":"〒243-0017 神奈川県厚木市栄町１丁目６−１１","ステータス":"APP_DISPLAY","region":"Atsugi","lat":35.440956,"lng":139.357834},{"店舗名":"ニューアン＆蜜男","住所":"〒243-0018","ステータス":"APP_DISPLAY","region":"Atsugi","lat":35.441982,"lng":139.367416},{"店舗名":"地鶏食堂　本厚木店","住所":"〒243-0018 神奈川県厚木市中町","ステータス":"APP_DISPLAY","region":"Atsugi","lat":35.441982,"lng":139.367416},{"店舗名":"【からあげグランプリ金賞受賞】 とりいちず 本厚木店","住所":"〒243-0018 神奈川県厚木市中町2-1-18","ステータス":"APP_DISPLAY","region":"Atsugi","lat":35.440052,"lng":139.364731},{"店舗名":"自家製出汁 焼きそば・お好み焼き だしや 本厚木店","住所":"〒243-0018 神奈川県厚木市中町２－１－１８","ステータス":"APP_DISPLAY","region":"Atsugi","lat":35.440052,"lng":139.364731},{"店舗名":"麺屋　藤ろう","住所":"〒243-0018 神奈川県厚木市中町２－１－８","ステータス":"APP_DISPLAY","region":"Atsugi","lat":35.439518,"lng":139.363556},{"店舗名":"ダブッチャーズ本店 DA★Butchers","住所":"〒243-0018 神奈川県厚木市中町2-9-17","ステータス":"APP_DISPLAY","region":"Atsugi","lat":35.441738,"lng":139.365463},{"店舗名":"GRILL HOUSE Asian andTandoor Bar","住所":"〒243-0018 神奈川県厚木市中町２丁目１０−１４ 102","ステータス":"APP_DISPLAY","region":"Atsugi","lat":35.442295,"lng":139.363892},{"店舗名":"ひとくち餃子あべちゃん","住所":"〒243-0018 神奈川県厚木市中町２丁目１０−１４ AMDビル","ステータス":"APP_DISPLAY","region":"Atsugi","lat":35.442295,"lng":139.363892},{"店舗名":"大盛スタミナ肉丼 ニンニク野郎 本厚木店","住所":"〒243-0018 神奈川県厚木市中町２丁目１−１","ステータス":"APP_DISPLAY","region":"Atsugi","lat":35.438862,"lng":139.363388},{"店舗名":"串カツ田中 本厚木店","住所":"〒243-0018 神奈川県厚木市中町２丁目１−１","ステータス":"APP_DISPLAY","region":"Atsugi","lat":35.438862,"lng":139.363388},{"店舗名":"ごちそうさん　淡路島へ渡れ","住所":"〒243-0018 神奈川県厚木市中町２丁目１−１７","ステータス":"APP_DISPLAY","region":"Atsugi","lat":35.439987,"lng":139.364624},{"店舗名":"名代 富士そば 本厚木店","住所":"〒243-0018 神奈川県厚木市中町２丁目１−１７","ステータス":"RECEIPT","region":"Atsugi","lat":35.439987,"lng":139.364624},{"店舗名":"ホンデポチャ 本厚木店","住所":"〒243-0018 神奈川県厚木市中町２丁目１−１８ Trunk本厚木","ステータス":"APP_DISPLAY","region":"Atsugi","lat":35.440052,"lng":139.364731},{"店舗名":"鰻の成瀬 本厚木駅前店","住所":"〒243-0018 神奈川県厚木市中町２丁目１２−１","ステータス":"APP_DISPLAY","region":"Atsugi","lat":35.442371,"lng":139.364914},{"店舗名":"吉野家 本厚木店","住所":"〒243-0018 神奈川県厚木市中町２丁目１−２２","ステータス":"APP_DISPLAY","region":"Atsugi","lat":35.440254,"lng":139.36528},{"店舗名":"チャーハンしか勝たん！","住所":"〒243-0018 神奈川県厚木市中町２丁目１２−２１","ステータス":"APP_DISPLAY","region":"Atsugi","lat":35.442272,"lng":139.365158},{"店舗名":"丼・丼・丼","住所":"〒243-0018 神奈川県厚木市中町２丁目１２−２１","ステータス":"APP_DISPLAY","region":"Atsugi","lat":35.442272,"lng":139.365158},{"店舗名":"青山餃子房","住所":"〒243-0018 神奈川県厚木市中町２丁目１２−２１ 厚木サンロード","ステータス":"APP_DISPLAY","region":"Atsugi","lat":35.442272,"lng":139.365158},{"店舗名":"刀削麺 酒楼","住所":"〒243-0018 神奈川県厚木市中町２丁目１−２３","ステータス":"APP_DISPLAY","region":"Atsugi","lat":35.440315,"lng":139.365433},{"店舗名":"ESKY COFFEE By Izzy's Cafe","住所":"〒243-0018 神奈川県厚木市中町２丁目１３−１０","ステータス":"RECEIPT","region":"Atsugi","lat":35.443394,"lng":139.365921},{"店舗名":"向陽飯店 本厚木店","住所":"〒243-0018 神奈川県厚木市中町２丁目１３−１３","ステータス":"APP_DISPLAY","region":"Atsugi","lat":35.443203,"lng":139.36615},{"店舗名":"ラーメン五勝亭　本厚木店","住所":"〒243-0018 神奈川県厚木市中町２丁目１３−１３","ステータス":"APP_DISPLAY","region":"Atsugi","lat":35.443203,"lng":139.36615},{"店舗名":"カジュアルレストラン　KOUYOU 本厚木店","住所":"〒243-0018 神奈川県厚木市中町２丁目１３−１３","ステータス":"APP_DISPLAY","region":"Atsugi","lat":35.443203,"lng":139.36615},{"店舗名":"マーラータンしか勝たん","住所":"〒243-0018 神奈川県厚木市中町２丁目１３−１３ グランデ本厚木","ステータス":"APP_DISPLAY","region":"Atsugi","lat":35.443203,"lng":139.36615},{"店舗名":"ペルー料理 アモーレ厚木","住所":"〒243-0018 神奈川県厚木市中町２丁目１３−１３ グランデ本厚木","ステータス":"APP_DISPLAY","region":"Atsugi","lat":35.443203,"lng":139.36615},{"店舗名":"バーガーキング本厚木駅前店","住所":"〒243-0018 神奈川県厚木市中町２丁目３−１","ステータス":"APP_DISPLAY","region":"Atsugi","lat":35.440331,"lng":139.364532},{"店舗名":"よりみち居酒屋","住所":"〒243-0018 神奈川県厚木市中町２丁目４−１１","ステータス":"APP_DISPLAY","region":"Atsugi","lat":35.440544,"lng":139.36554},{"店舗名":"炭と香りと飯 本厚木駅前店","住所":"〒243-0018 神奈川県厚木市中町２丁目４−１６","ステータス":"APP_DISPLAY","region":"Atsugi","lat":35.440338,"lng":139.364792},{"店舗名":"たこやき道場 本厚木駅前店","住所":"〒243-0018 神奈川県厚木市中町２丁目４−１６","ステータス":"APP_DISPLAY","region":"Atsugi","lat":35.440338,"lng":139.364792},{"店舗名":"チキンとタルタル本厚木駅前店","住所":"〒243-0018 神奈川県厚木市中町２丁目４−１６","ステータス":"APP_DISPLAY","region":"Atsugi","lat":35.440338,"lng":139.364792},{"店舗名":"バニラ&チェリー 本厚木駅前店","住所":"〒243-0018 神奈川県厚木市中町２丁目４−１６","ステータス":"APP_DISPLAY","region":"Atsugi","lat":35.440338,"lng":139.364792},{"店舗名":"もつ焼き道場 本厚木駅前店","住所":"〒243-0018 神奈川県厚木市中町２丁目４−１６","ステータス":"APP_DISPLAY","region":"Atsugi","lat":35.440338,"lng":139.364792},{"店舗名":"カレーの横綱 本厚木駅前店","住所":"〒243-0018 神奈川県厚木市中町２丁目４−１６ トキワヤビル ３Ｆ","ステータス":"APP_DISPLAY","region":"Atsugi","lat":35.440338,"lng":139.364792},{"店舗名":"【大盛りお肉のお弁当】肉が一番 本厚木駅前店","住所":"〒243-0018 神奈川県厚木市中町２丁目４−１６ トキワヤビル ３Ｆ","ステータス":"APP_DISPLAY","region":"Atsugi","lat":35.440338,"lng":139.364792},{"店舗名":"【台湾フルーツティーとフライドポテト】果茶ポテ 本厚木駅前店","住所":"〒243-0018 神奈川県厚木市中町２丁目４−１６ トキワヤビル ３Ｆ","ステータス":"APP_DISPLAY","region":"Atsugi","lat":35.440338,"lng":139.364792},{"店舗名":"丼ぶり一丁 本厚木駅前店","住所":"〒243-0018 神奈川県厚木市中町２丁目４−１６ トキワヤビル ３Ｆ","ステータス":"APP_DISPLAY","region":"Atsugi","lat":35.440338,"lng":139.364792},{"店舗名":"ヤムヤムポテト 本厚木駅前店","住所":"〒243-0018 神奈川県厚木市中町２丁目４−１６ トキワヤビル ３Ｆ","ステータス":"APP_DISPLAY","region":"Atsugi","lat":35.440338,"lng":139.364792},{"店舗名":"Arugamama","住所":"〒243-0018 神奈川県厚木市中町２丁目５−４","ステータス":"APP_DISPLAY","region":"Atsugi","lat":35.441185,"lng":139.364883},{"店舗名":"ニールガガン 一番街店","住所":"〒243-0018 神奈川県厚木市中町２丁目７−２２","ステータス":"APP_DISPLAY","region":"Atsugi","lat":35.441536,"lng":139.364746},{"店舗名":"Dining Bar SOLEIL","住所":"〒243-0018 神奈川県厚木市中町２丁目７−２２","ステータス":"APP_DISPLAY","region":"Atsugi","lat":35.441536,"lng":139.364746},{"店舗名":"晴れ屋","住所":"〒243-0018 神奈川県厚木市中町２丁目８−６ 中町ビル","ステータス":"APP_DISPLAY","region":"Atsugi","lat":35.441708,"lng":139.365112},{"店舗名":"タンドール インド料理店","住所":"〒243-0018 神奈川県厚木市中町２丁目９−１１","ステータス":"APP_DISPLAY","region":"Atsugi","lat":35.442062,"lng":139.366074},{"店舗名":"大戸屋ごはん処 本厚木店","住所":"〒243-0018 神奈川県厚木市中町２丁目９−１３","ステータス":"APP_DISPLAY","region":"Atsugi","lat":35.441776,"lng":139.366058},{"店舗名":"真牛網焼工房","住所":"〒243-0018 神奈川県厚木市中町3-1-15","ステータス":"APP_DISPLAY","region":"Atsugi","lat":35.439785,"lng":139.362259},{"店舗名":"らぁ麺 まる鈴 本厚木店","住所":"〒243-0018 神奈川県厚木市中町３－１－２２","ステータス":"APP_DISPLAY","region":"Atsugi","lat":35.439537,"lng":139.363068},{"店舗名":"beachtree","住所":"〒243-0018 神奈川県厚木市中町3-5-3","ステータス":"APP_DISPLAY","region":"Atsugi","lat":35.440334,"lng":139.362717},{"店舗名":"くしさんぼん","住所":"〒243-0018 神奈川県厚木市中町３丁目１１−３","ステータス":"APP_DISPLAY","region":"Atsugi","lat":35.441387,"lng":139.361969},{"店舗名":"目利きの銀次 本厚木北口駅前店","住所":"〒243-0018 神奈川県厚木市中町３丁目１−２４","ステータス":"APP_DISPLAY","region":"Atsugi","lat":35.439323,"lng":139.363052},{"店舗名":"カミナリステーキ 本厚木北口駅前店","住所":"〒243-0018 神奈川県厚木市中町３丁目１−２４","ステータス":"APP_DISPLAY","region":"Atsugi","lat":35.439323,"lng":139.363052},{"店舗名":"大衆鰻 うな銀 本厚木北口駅前店","住所":"〒243-0018 神奈川県厚木市中町３丁目１−２４ 吉村ビル","ステータス":"APP_DISPLAY","region":"Atsugi","lat":35.439323,"lng":139.363052},{"店舗名":"とんかつの和吉 本厚木北口駅前店","住所":"〒243-0018 神奈川県厚木市中町３丁目１−２４ 吉村ビル 2階 第一","ステータス":"APP_DISPLAY","region":"Atsugi","lat":35.439323,"lng":139.363052},{"店舗名":"GRILLBAR AND TANDOOR BISTRO","住所":"〒243-0018 神奈川県厚木市中町３丁目１２−６","ステータス":"APP_DISPLAY","region":"Atsugi","lat":35.441547,"lng":139.36261},{"店舗名":"diningbar selfish","住所":"〒243-0018 神奈川県厚木市中町３丁目１２−６ 2fa","ステータス":"APP_DISPLAY","region":"Atsugi","lat":35.441547,"lng":139.36261},{"店舗名":"横浜家系ラーメン鈴木家","住所":"〒243-0018 神奈川県厚木市中町３丁目１３−１","ステータス":"APP_DISPLAY","region":"Atsugi","lat":35.441776,"lng":139.362305},{"店舗名":"カレーハウス CoCo壱番屋 本厚木駅前通店","住所":"〒243-0018 神奈川県厚木市中町３丁目１３−２","ステータス":"APP_DISPLAY","region":"Atsugi","lat":35.441868,"lng":139.362198},{"店舗名":"ジョジョズ ボンベイ","住所":"〒243-0018 神奈川県厚木市中町３丁目１８−１４－６","ステータス":"APP_DISPLAY","region":"Atsugi","lat":35.4426,"lng":139.363358},{"店舗名":"スイーツマニア湘南","住所":"〒243-0018 神奈川県厚木市中町３丁目５−３","ステータス":"APP_DISPLAY","region":"Atsugi","lat":35.440334,"lng":139.362717},{"店舗名":"yummeal 本店","住所":"〒243-0018 神奈川県厚木市中町３丁目５−３","ステータス":"APP_DISPLAY","region":"Atsugi","lat":35.440334,"lng":139.362717},{"店舗名":"イルキャンティ・メッツォ 本厚木","住所":"〒243-0018 神奈川県厚木市中町４丁目１６−６","ステータス":"APP_DISPLAY","region":"Atsugi","lat":35.438808,"lng":139.36145},{"店舗名":"DAMPA sa COGEO JAPAN","住所":"〒243-0018 神奈川県厚木市中町４丁目２−３","ステータス":"APP_DISPLAY","region":"Atsugi","lat":35.438305,"lng":139.362686},{"店舗名":"DAMPA sa COGEO JAPAN","住所":"〒243-0018 神奈川県厚木市中町４丁目２−３","ステータス":"RECEIPT","region":"Atsugi","lat":35.438305,"lng":139.362686},{"店舗名":"本場タイ料理　プアン","住所":"〒243-0018 神奈川県厚木市中町４丁目5-15","ステータス":"APP_DISPLAY","region":"Atsugi","lat":35.437763,"lng":139.361465},{"店舗名":"Boss Diner","住所":"〒243-0018 神奈川県厚木市中町４丁目５−１５","ステータス":"APP_DISPLAY","region":"Atsugi","lat":35.437763,"lng":139.361465},{"店舗名":"Alma de México","住所":"〒243-0018神奈川県厚木市中町１丁目６−１","ステータス":"APP_DISPLAY","region":"Atsugi","lat":35.442783,"lng":139.366318},{"店舗名":"DAWAAT （ダワート）","住所":"〒243-0021 神奈川県厚木市岡田１丁目１０−１８","ステータス":"APP_DISPLAY","region":"Atsugi","lat":35.428932,"lng":139.361649},{"店舗名":"INDIAN KEBAB HOUSE","住所":"〒243-0021 神奈川県厚木市岡田１丁目１０−１８","ステータス":"APP_DISPLAY","region":"Atsugi","lat":35.428932,"lng":139.361649},{"店舗名":"丸源ラーメン 厚木インター店","住所":"〒243-0021 神奈川県厚木市岡田３０１２","ステータス":"APP_DISPLAY","region":"Atsugi","lat":35.421368,"lng":139.362564},{"店舗名":"地獄の担担麺 天竜 厚木インター店","住所":"〒243-0021 神奈川県厚木市岡田３丁目１６−２６","ステータス":"APP_DISPLAY","region":"Atsugi","lat":35.426258,"lng":139.357895},{"店舗名":"ロケットチキン 厚木インター店","住所":"〒243-0021 神奈川県厚木市岡田３丁目１６−２６","ステータス":"APP_DISPLAY","region":"Atsugi","lat":35.426258,"lng":139.357895},{"店舗名":"らーめんぎょうてん屋GOLD東名厚木店","住所":"〒243-0021 神奈川県厚木市岡田３丁目１７−６","ステータス":"APP_DISPLAY","region":"Atsugi","lat":35.425667,"lng":139.35788},{"店舗名":"リンガーハット ビバモール厚木南インター店","住所":"〒243-0022 神奈川県厚木市酒井１６０１−４","ステータス":"APP_DISPLAY","region":"Atsugi","lat":35.409931,"lng":139.360779},{"店舗名":"ジェラフル ビバモール厚木南インター店","住所":"〒243-0022 神奈川県厚木市酒井１６０１−４","ステータス":"APP_DISPLAY","region":"Atsugi","lat":35.409931,"lng":139.360779},{"店舗名":"築地銀だこ ビバモール厚木南インター店","住所":"〒243-0022 神奈川県厚木市酒井１６０１−４","ステータス":"APP_DISPLAY","region":"Atsugi","lat":35.409931,"lng":139.360779},{"店舗名":"博多 幸竜 厚木店","住所":"〒243-0031","ステータス":"APP_DISPLAY","region":"Atsugi","lat":35.448963,"lng":139.353928},{"店舗名":"Go-2kebab","住所":"〒243-0031 神奈川県厚木市戸室１丁目３１−２４","ステータス":"APP_DISPLAY","region":"Atsugi","lat":35.450825,"lng":139.355347},{"店舗名":"唐揚げ専門　はっぴ商店厚木店","住所":"〒243-0031 神奈川県厚木市戸室１丁目３４−１１","ステータス":"APP_DISPLAY","region":"Atsugi","lat":35.452274,"lng":139.353088},{"店舗名":"つきじ海賓 厚木","住所":"〒243-0031 神奈川県厚木市戸室１丁目７−２１","ステータス":"APP_DISPLAY","region":"Atsugi","lat":35.447399,"lng":139.353333},{"店舗名":"おすし日和 厚木","住所":"〒243-0031 神奈川県厚木市戸室１丁目７−２１","ステータス":"APP_DISPLAY","region":"Atsugi","lat":35.447399,"lng":139.353333},{"店舗名":"丼ぶり 天晴 厚木店","住所":"〒243-0031 神奈川県厚木市戸室１丁目７−２１","ステータス":"APP_DISPLAY","region":"Atsugi","lat":35.447399,"lng":139.353333},{"店舗名":"ななつぼし厚木店","住所":"〒243-0031 神奈川県厚木市戸室１丁目７−２１","ステータス":"APP_DISPLAY","region":"Atsugi","lat":35.447399,"lng":139.353333},{"店舗名":"YUMEN厚木店","住所":"〒243-0031 神奈川県厚木市戸室１丁目７−２１","ステータス":"APP_DISPLAY","region":"Atsugi","lat":35.447399,"lng":139.353333},{"店舗名":"まつ乃厚木店","住所":"〒243-0031 神奈川県厚木市戸室１丁目７−２１","ステータス":"APP_DISPLAY","region":"Atsugi","lat":35.447399,"lng":139.353333},{"店舗名":"海のみち厚木店","住所":"〒243-0031 神奈川県厚木市戸室１丁目７−２１","ステータス":"APP_DISPLAY","region":"Atsugi","lat":35.447399,"lng":139.353333},{"店舗名":"ジェラフル厚木店","住所":"〒243-0031 神奈川県厚木市戸室５丁目３１−１","ステータス":"APP_DISPLAY","region":"Atsugi","lat":35.448647,"lng":139.343338},{"店舗名":"ジェラフル 厚木店　GelaFru","住所":"〒243-0031 神奈川県厚木市戸室５丁目３１−１","ステータス":"APP_DISPLAY","region":"Atsugi","lat":35.448647,"lng":139.343338},{"店舗名":"ポプラ館珈琲","住所":"〒243-0032 神奈川県厚木市恩名３丁目２４−１４","ステータス":"APP_DISPLAY","region":"Atsugi","lat":35.439278,"lng":139.34996},{"店舗名":"半解凍純生クリームケーキ専門HBD 厚木本店","住所":"〒243-0032 神奈川県厚木市恩名４丁目３−８ 手作り菓子の店バースデーケーキ","ステータス":"APP_DISPLAY","region":"Atsugi","lat":35.44384,"lng":139.349167},{"店舗名":"黒墨商店 厚木店","住所":"〒243-0033","ステータス":"APP_DISPLAY","region":"Atsugi","lat":35.44091,"lng":139.338943},{"店舗名":"TAJ","住所":"〒243-0035 神奈川県厚木市愛甲３丁目７−１","ステータス":"APP_DISPLAY","region":"Atsugi","lat":35.424282,"lng":139.34935},{"店舗名":"錦龍莊","住所":"〒243-0036 神奈川県厚木市長谷","ステータス":"APP_DISPLAY","region":"Atsugi","lat":35.432117,"lng":139.336487},{"店舗名":"台湾料理 金龍閣","住所":"〒243-0036 神奈川県厚木市長谷１１６５−１","ステータス":"APP_DISPLAY","region":"Atsugi","lat":35.434258,"lng":139.338501},{"店舗名":"ケーキハウス 幸せの丘","住所":"〒243-0036 神奈川県厚木市長谷１１６８−８","ステータス":"APP_DISPLAY","region":"Atsugi","lat":35.434258,"lng":139.338501},{"店舗名":"夢造りパン工房 愛名店","住所":"〒243-0038 神奈川県厚木市愛名１４１４","ステータス":"APP_DISPLAY","region":"Atsugi","lat":35.439762,"lng":139.325745},{"店舗名":"Food Truck Tsukumi 神奈川","住所":"〒243-0122 神奈川県厚木市森の里３丁目１－１","ステータス":"APP_DISPLAY","region":"Atsugi","lat":35.446404,"lng":139.310547},{"店舗名":"SAN'S RESTAURANT (サンズレストラン)","住所":"〒243-0125 神奈川県厚木市小野２１８０－１","ステータス":"APP_DISPLAY","region":"Atsugi","lat":35.43465,"lng":139.318542},{"店舗名":"鰻の成瀬 厚木店","住所":"〒243-0125 神奈川県厚木市小野２１８０−３","ステータス":"APP_DISPLAY","region":"Atsugi","lat":35.43465,"lng":139.318542},{"店舗名":"ＣＥＹＬＯＮ　ＢＡＫＥＲＳ　＆　ＲＥＳＴＡＵＲＡＮＴ","住所":"〒243-0201 神奈川県厚木市上荻野","ステータス":"APP_DISPLAY","region":"Atsugi","lat":35.503555,"lng":139.304321},{"店舗名":"ドミノ・ピザ 中荻野店","住所":"〒243-0202 神奈川県厚木市中荻野３２８−３","ステータス":"APP_DISPLAY","region":"Atsugi","lat":35.488277,"lng":139.324722},{"店舗名":"インドカレー ターリー屋 厚木荻野店 Indian Curry Thali-ya Atsugi Ogino-ten","住所":"〒243-0202 神奈川県厚木市中荻野３４８−１","ステータス":"APP_DISPLAY","region":"Atsugi","lat":35.488842,"lng":139.325714},{"店舗名":"HATTI KEBAB（ハッティケバブ） 厚木荻野店  HATTI KEBAB Atsugi Ogino-ten","住所":"〒243-0202 神奈川県厚木市中荻野３４８−１","ステータス":"APP_DISPLAY","region":"Atsugi","lat":35.488842,"lng":139.325714},{"店舗名":"インドカレー ターリー屋 厚木荻野店 Indian Curry Thali-ya Atsugi Ogino-ten","住所":"〒243-0202 神奈川県厚木市中荻野３４８−１","ステータス":"PENDING","region":"Atsugi","lat":35.488842,"lng":139.325714},{"店舗名":"PILINA ～絆～","住所":"〒243-0203 神奈川県厚木市下荻野１０９２－５","ステータス":"APP_DISPLAY","region":"Atsugi","lat":35.481323,"lng":139.342407},{"店舗名":"焼肉居酒屋ひろちゃん","住所":"〒243-0203 神奈川県厚木市下荻野１１９８−２１","ステータス":"APP_DISPLAY","region":"Atsugi","lat":35.473907,"lng":139.34613},{"店舗名":"台湾料理 麗ちゃん","住所":"〒243-0203 神奈川県厚木市下荻野４３８ 毛利オリオンビル 2F","ステータス":"APP_DISPLAY","region":"Atsugi","lat":35.480225,"lng":139.338821},{"店舗名":"クーシ KHUSHI","住所":"〒243-0203 神奈川県厚木市下荻野４７４−３","ステータス":"APP_DISPLAY","region":"Atsugi","lat":35.480152,"lng":139.340668},{"店舗名":"台湾料理興福順","住所":"〒243-0203 神奈川県厚木市下荻野８２４−５","ステータス":"APP_DISPLAY","region":"Atsugi","lat":35.484989,"lng":139.340454},{"店舗名":"キッチンカー チワワ号","住所":"〒243-0206 神奈川県厚木市下川入３７８−１","ステータス":"APP_DISPLAY","region":"Atsugi","lat":35.500153,"lng":139.356415},{"店舗名":"Maryam's Dine & Halal Spice","住所":"〒243-0206 神奈川県厚木市下川入７−１０","ステータス":"APP_DISPLAY","region":"Atsugi","lat":35.504395,"lng":139.351608},{"店舗名":"焼肉屋とくじゅう厚木本店","住所":"〒243-0212","ステータス":"APP_DISPLAY","region":"Atsugi","lat":35.46764,"lng":139.34259},{"店舗名":"台湾料理 聚福源","住所":"〒243-0801 神奈川県厚木市上依知１２９６−１","ステータス":"APP_DISPLAY","region":"Atsugi","lat":35.507538,"lng":139.357941},{"店舗名":"台湾料理 興福順上依知2店","住所":"〒243-0801 神奈川県厚木市上依知１２９６−１","ステータス":"APP_DISPLAY","region":"Atsugi","lat":35.507538,"lng":139.357941},{"店舗名":"鉄板あかねちゃん食堂","住所":"〒243-0801 神奈川県厚木市上依知６０−２","ステータス":"APP_DISPLAY","region":"Atsugi","lat":35.515854,"lng":139.364685},{"店舗名":"ラーメンまこと屋厚木山際店","住所":"〒243-0803 神奈川県厚木市山際２５６","ステータス":"APP_DISPLAY","region":"Atsugi","lat":35.494537,"lng":139.36377},{"店舗名":"玄米&腸活 健康ごはん お玄さんのねばとろ丼 厚木店","住所":"〒243-0804 神奈川県厚木市関口","ステータス":"APP_DISPLAY","region":"Atsugi","lat":35.486614,"lng":139.364807},{"店舗名":"スタミナ&ガッツリ男飯！肉大学 厚木店","住所":"〒243-0804 神奈川県厚木市関口","ステータス":"APP_DISPLAY","region":"Atsugi","lat":35.486614,"lng":139.364807},{"店舗名":"【胃腸回復&健康】お粥定食 いこい亭 厚木店","住所":"〒243-0804 神奈川県厚木市関口１８２","ステータス":"APP_DISPLAY","region":"Atsugi","lat":35.483986,"lng":139.363785},{"店舗名":"【低糖質・低脂質・低カロリー】ダイエットカレーLAB. 厚木店","住所":"〒243-0804 神奈川県厚木市関口１８２","ステータス":"APP_DISPLAY","region":"Atsugi","lat":35.483986,"lng":139.363785},{"店舗名":"【ニンニク&絶品パスタ】漢のペペロンチーノ 厚木店","住所":"〒243-0804 神奈川県厚木市関口１８２－２５","ステータス":"APP_DISPLAY","region":"Atsugi","lat":35.483986,"lng":139.363785},{"店舗名":"【旨辛&濃厚チーズ&野菜たっぷり】天才のタコライス 厚木店","住所":"〒243-0804 神奈川県厚木市関口１８２－２５","ステータス":"APP_DISPLAY","region":"Atsugi","lat":35.483986,"lng":139.363785},{"店舗名":"【理想の自分へ】まめたまのアサイーボウル 厚木店","住所":"〒243-0804 神奈川県厚木市関口１８２－２５","ステータス":"APP_DISPLAY","region":"Atsugi","lat":35.483986,"lng":139.363785},{"店舗名":"アサイー&グリークヨーグルト GREEK DAYS 厚木店","住所":"〒243-0804 神奈川県厚木市関口１８２－２５","ステータス":"APP_DISPLAY","region":"Atsugi","lat":35.483986,"lng":139.363785},{"店舗名":"ワイルドステーキ&ジム飯 ブロビー 厚木店","住所":"〒243-0804 神奈川県厚木市関口１８２－２５","ステータス":"APP_DISPLAY","region":"Atsugi","lat":35.483986,"lng":139.363785},{"店舗名":"【ヘルシー&高タンパク弁当】鶏あえずタンパク 厚木店","住所":"〒243-0804 神奈川県厚木市関口１８２－２５","ステータス":"APP_DISPLAY","region":"Atsugi","lat":35.483986,"lng":139.363785},{"店舗名":"肉テロ！肉たらしくてぎゅう 厚木店","住所":"〒243-0804 神奈川県厚木市関口１８２－２５","ステータス":"APP_DISPLAY","region":"Atsugi","lat":35.483986,"lng":139.363785},{"店舗名":"肉屋のハンバーグとガーリックライス 厚木店","住所":"〒243-0804 神奈川県厚木市関口１８２－２５","ステータス":"APP_DISPLAY","region":"Atsugi","lat":35.483986,"lng":139.363785},{"店舗名":"濃厚ローストビーフとハラミ丼「タルビー」 厚木店","住所":"〒243-0804 神奈川県厚木市関口１８２－２５","ステータス":"APP_DISPLAY","region":"Atsugi","lat":35.483986,"lng":139.363785},{"店舗名":"吉野家 厚木関口店","住所":"〒243-0804 神奈川県厚木市関口２３６−５","ステータス":"APP_DISPLAY","region":"Atsugi","lat":35.486156,"lng":139.363724},{"店舗名":"インド食堂マハトマ 国道129号店 Indian Restaurant MAHATMA Route 129","住所":"〒243-0804 神奈川県厚木市関口２４０−１","ステータス":"APP_DISPLAY","region":"Atsugi","lat":35.486263,"lng":139.36554},{"店舗名":"ピッコラナポリ　ピザレストラン（ハラール）","住所":"〒243-0812 神奈川県厚木市妻田北","ステータス":"APP_DISPLAY","region":"Atsugi","lat":35.462395,"lng":139.358719},{"店舗名":"ODISHA","住所":"〒243-0812 神奈川県厚木市妻田北１-５-１２","ステータス":"APP_DISPLAY","region":"Atsugi","lat":35.460594,"lng":139.358978},{"店舗名":"タナブクレープ","住所":"〒243-0812 神奈川県厚木市妻田北１丁目１３−１４","ステータス":"APP_DISPLAY","region":"Atsugi","lat":35.463905,"lng":139.356659},{"店舗名":"インドカレー ザムザム","住所":"〒243-0812 神奈川県厚木市妻田北１丁目１５−１４","ステータス":"APP_DISPLAY","region":"Atsugi","lat":35.465549,"lng":139.359634},{"店舗名":"リンガーハット 厚木妻田店","住所":"〒243-0812 神奈川県厚木市妻田北１丁目８−２９","ステータス":"APP_DISPLAY","region":"Atsugi","lat":35.46249,"lng":139.357224},{"店舗名":"ふわふわワッフル工房","住所":"〒243-0815 神奈川県厚木市妻田西","ステータス":"APP_DISPLAY","region":"Atsugi","lat":35.457199,"lng":139.356827},{"店舗名":"かつや 厚木妻田店","住所":"〒243-0815 神奈川県厚木市妻田西２丁目１５−２４","ステータス":"APP_DISPLAY","region":"Atsugi","lat":35.461155,"lng":139.35759},{"店舗名":"やみつき油そば　壱屋","住所":"〒243-0815 神奈川県厚木市妻田西２丁目１５−３０","ステータス":"APP_DISPLAY","region":"Atsugi","lat":35.460621,"lng":139.357788},{"店舗名":"チョアチキン本厚木店","住所":"〒243-0815 神奈川県厚木市妻田西２丁目１５−３０ 徳増ビル","ステータス":"APP_DISPLAY","region":"Atsugi","lat":35.460621,"lng":139.357788},{"店舗名":"油そば専門店 noodle SPUNKY","住所":"〒243-0815 神奈川県厚木市妻田西３丁目１−２５","ステータス":"APP_DISPLAY","region":"Atsugi","lat":35.463108,"lng":139.356857},{"店舗名":"地場産みそしる　わんだほ","住所":"〒243-0816 神奈川県厚木市林１丁目２６−１","ステータス":"APP_DISPLAY","region":"Atsugi","lat":35.454346,"lng":139.35022},{"店舗名":"吉野家 412号線厚木林店","住所":"〒243-0816 神奈川県厚木市林４丁目２０−３０","ステータス":"APP_DISPLAY","region":"Atsugi","lat":35.459553,"lng":139.349854},{"店舗名":"チョアチキン","住所":"神奈川県厚木市","ステータス":"APP_DISPLAY","region":"Atsugi","lat":35.443054,"lng":139.362503},{"店舗名":"カフェ・ベローチェ 本厚木駅南口店","住所":"神奈川県厚木市","ステータス":"APP_DISPLAY","region":"Atsugi","lat":35.443054,"lng":139.362503},{"店舗名":"カフェ・ベローチェ 厚木中町店","住所":"神奈川県厚木市","ステータス":"APP_DISPLAY","region":"Atsugi","lat":35.443054,"lng":139.362503},{"店舗名":"カレーハウス CoCo壱番屋 厚木関口店","住所":"神奈川県厚木市関口232-5","ステータス":"APP_DISPLAY","region":"Atsugi","lat":35.485432,"lng":139.365662},{"店舗名":"DINING BAR & CAFE LiL","住所":"神奈川県厚木市上依知641","ステータス":"APP_DISPLAY","region":"Atsugi","lat":35.516674,"lng":139.361496},{"店舗名":"かつや 神奈川厚木船子店","住所":"神奈川県厚木市船子字ﾉ根1237-1","ステータス":"RECEIPT","region":"Atsugi","lat":35.427177,"lng":139.351608}]