[{"店舗名":"アサイー工房 別府店","住所":"〒874-0000","ステータス":"RECEIPT","region":"Beppu","lat":33.284721,"lng":131.491104},{"店舗名":"あいあい亭別大店","住所":"〒874-0000 大分県別府市上人西３−１","ステータス":"RECEIPT","region":"Beppu","lat":33.314098,"lng":131.49231},{"店舗名":"米粉専門店　sankitei","住所":"〒874-0033 大分県別府市南上人2組 1中","ステータス":"RECEIPT","region":"Beppu","lat":33.302036,"lng":131.49028},{"店舗名":"海鮮玉手箱 丼丸 大分別府店","住所":"〒874-0034 大分県別府市上人仲町５","ステータス":"RECEIPT","region":"Beppu","lat":33.313885,"lng":131.49649},{"店舗名":"五条","住所":"〒874-0823","ステータス":"RECEIPT","region":"Beppu","lat":33.287148,"lng":131.467667},{"店舗名":"京珈琲","住所":"〒874-0823 大分県別府市南立石本町4組","ステータス":"RECEIPT","region":"Beppu","lat":33.287148,"lng":131.467667},{"店舗名":"ニュードラゴン","住所":"〒874-0836","ステータス":"RECEIPT","region":"Beppu","lat":33.294762,"lng":131.48616},{"店舗名":"CIRCLE","住所":"〒874-0840","ステータス":"RECEIPT","region":"Beppu","lat":33.30183,"lng":131.485153},{"店舗名":"【本場沖縄のタコライス】THE TACORICE HOUSE 大畑店","住所":"〒874-0840 大分県別府市大畑","ステータス":"RECEIPT","region":"Beppu","lat":33.303005,"lng":131.473846},{"店舗名":"スリランカ料理カムカム別府。","住所":"〒874-0840 大分県別府市鶴見９組","ステータス":"RECEIPT","region":"Beppu","lat":33.30183,"lng":131.485153},{"店舗名":"丞氣屋","住所":"〒874-0845","ステータス":"RECEIPT","region":"Beppu","lat":33.312057,"lng":131.479675},{"店舗名":"台湾料理 鑫成","住所":"〒874-0902 大分県別府市青山町１２−２１","ステータス":"RECEIPT","region":"Beppu","lat":33.279892,"lng":131.489563},{"店舗名":"はかた屋大吉　石垣店","住所":"〒874-0910 大分県別府市石垣西１０丁目５−２","ステータス":"RECEIPT","region":"Beppu","lat":33.305523,"lng":131.491409},{"店舗名":"焼肉と地獄辛揚げKaraXKara","住所":"〒874-0913","ステータス":"RECEIPT","region":"Beppu","lat":33.306583,"lng":131.489166},{"店舗名":"秘伝の焼肉と地獄辛揚げKaraXKara","住所":"〒874-0913 大分県別府市春木町","ステータス":"RECEIPT","region":"Beppu","lat":33.306583,"lng":131.489166},{"店舗名":"ダイニングキッチン Puerta del Sol","住所":"〒874-0919 大分県別府市石垣東１０丁目８−１８","ステータス":"RECEIPT","region":"Beppu","lat":33.306396,"lng":131.4991},{"店舗名":"宮崎郷土料理 菊ノ屋","住所":"〒874-0920","ステータス":"RECEIPT","region":"Beppu","lat":33.278667,"lng":131.504868},{"店舗名":"起徳","住所":"〒874-0920","ステータス":"RECEIPT","region":"Beppu","lat":33.278667,"lng":131.504868},{"店舗名":"居酒屋GENKI","住所":"〒874-0920 大分県別府市北浜１丁目１−１８","ステータス":"RECEIPT","region":"Beppu","lat":33.278301,"lng":131.503387},{"店舗名":"TACO NARGO","住所":"〒874-0920 大分県別府市北浜2丁目4-3","ステータス":"RECEIPT","region":"Beppu","lat":33.280796,"lng":131.503098},{"店舗名":"パキスタンカレー","住所":"〒874-0922 大分県別府市船小路町３−２２","ステータス":"RECEIPT","region":"Beppu","lat":33.30254,"lng":131.501846},{"店舗名":"パキスタンカレー","住所":"〒874-0922 大分県別府市船小路町３−２２","ステータス":"RECEIPT","region":"Beppu","lat":33.30254,"lng":131.501846},{"店舗名":"MR.GRILL","住所":"〒874-0924 大分県別府市餅ケ浜町１０−２","ステータス":"RECEIPT","region":"Beppu","lat":33.294559,"lng":131.502548},{"店舗名":"韓国ダイニングそぷん153 sopung153","住所":"〒874-0924 大分県別府市餅ケ浜町１０−５","ステータス":"RECEIPT","region":"Beppu","lat":33.294827,"lng":131.502518},{"店舗名":"Galle Taste","住所":"〒874-0924 大分県別府市餅ケ浜町５","ステータス":"RECEIPT","region":"Beppu","lat":33.293613,"lng":131.501953},{"店舗名":"KHAN'S ADDA","住所":"〒874-0924 大分県別府市餅ケ浜町５−２５","ステータス":"RECEIPT","region":"Beppu","lat":33.294338,"lng":131.502213},{"店舗名":"カレーの王国ユーシャ","住所":"〒874-0925 大分県別府市若草町９−２６","ステータス":"RECEIPT","region":"Beppu","lat":33.290127,"lng":131.50351},{"店舗名":"大韓民食ボッコチュクチェ","住所":"〒874-0928 大分県別府市北的ケ浜町","ステータス":"RECEIPT","region":"Beppu","lat":33.284492,"lng":131.503815},{"店舗名":"玉川ちゃんぽん","住所":"〒874-0928 大分県別府市北的ケ浜町２−１８","ステータス":"RECEIPT","region":"Beppu","lat":33.284874,"lng":131.502548},{"店舗名":"プルニマ別府店","住所":"〒874-0931 大分県別府市西野口町１３−２０","ステータス":"RECEIPT","region":"Beppu","lat":33.284382,"lng":131.495972},{"店舗名":"お惣菜　お弁当味菜","住所":"〒874-0934 大分県別府市駅前本町5番25号","ステータス":"RECEIPT","region":"Beppu","lat":33.280819,"lng":131.501953},{"店舗名":"お茶の館 茶華本（オチャノヤカタ チャカポン）","住所":"〒874-0935 大分県別府市駅前町","ステータス":"RECEIPT","region":"Beppu","lat":33.279537,"lng":131.500458},{"店舗名":"10 COFFEE BREWERS 別府駅高架下店","住所":"〒874-0936 大分県別府市中央町６−３９","ステータス":"RECEIPT","region":"Beppu","lat":33.277168,"lng":131.499695},{"店舗名":"Bon's Crepe ゆめタウン別府店","住所":"〒874-0943 大分県別府市楠町382-7","ステータス":"RECEIPT","region":"Beppu","lat":33.276291,"lng":131.507645},{"店舗名":"99FACTORY","住所":"〒874-0944","ステータス":"RECEIPT","region":"Beppu","lat":33.277317,"lng":131.505539},{"店舗名":"SICILIA1983","住所":"〒874-0944 大分県別府市元町５−２６","ステータス":"RECEIPT","region":"Beppu","lat":33.277225,"lng":131.504044},{"店舗名":"NOODLE FACTORY LIFE","住所":"〒874-0944 大分県別府市元町５−８","ステータス":"RECEIPT","region":"Beppu","lat":33.277615,"lng":131.503922}]