[{"店舗名":"味亭花の家","住所":"〒066-0015 北海道千歳市青葉５丁目１４−１０","ステータス":"RECEIPT","region":"Chitose","lat":42.827915,"lng":141.66626},{"店舗名":"クレープチョッパー","住所":"〒066-0021 北海道千歳市東郊２丁目１４−１９ ヒカリ ハイツ I","ステータス":"RECEIPT","region":"Chitose","lat":42.833691,"lng":141.666595},{"店舗名":"パスタランテ","住所":"〒066-0021 北海道千歳市東郊２丁目１５−１４","ステータス":"RECEIPT","region":"Chitose","lat":42.832882,"lng":141.668396},{"店舗名":"名代赤兵衛","住所":"〒066-0027","ステータス":"RECEIPT","region":"Chitose","lat":42.827003,"lng":141.655533},{"店舗名":"ダイニングバー グップス","住所":"〒066-0027 北海道千歳市末広","ステータス":"RECEIPT","region":"Chitose","lat":42.827003,"lng":141.655533},{"店舗名":"金剛園末広亭","住所":"〒066-0027 北海道千歳市末広３丁目１−２","ステータス":"RECEIPT","region":"Chitose","lat":42.829952,"lng":141.655334},{"店舗名":"とんかつ檍 千歳店","住所":"〒066-0036","ステータス":"RECEIPT","region":"Chitose","lat":42.828308,"lng":141.642029},{"店舗名":"遊鶴　千歳北栄店","住所":"〒066-0036","ステータス":"RECEIPT","region":"Chitose","lat":42.828308,"lng":141.642029},{"店舗名":"山の猿 千歳店","住所":"〒066-0036 北海道千歳市北栄２丁目３−１１","ステータス":"RECEIPT","region":"Chitose","lat":42.831676,"lng":141.646545},{"店舗名":"帯広豚丼十勝晴れ 千歳店","住所":"〒066-0036 北海道千歳市北栄２丁目３−１１","ステータス":"RECEIPT","region":"Chitose","lat":42.831676,"lng":141.646545},{"店舗名":"つぼ八 千歳中央大通店","住所":"〒066-0037","ステータス":"RECEIPT","region":"Chitose","lat":42.830421,"lng":141.637054},{"店舗名":"キッチンおもてなし","住所":"〒066-0041","ステータス":"RECEIPT","region":"Chitose","lat":42.82156,"lng":141.647095},{"店舗名":"でか盛り焼肉丼屋千歳店","住所":"〒066-0041 北海道 千歳市 清水町２丁目１－３","ステータス":"RECEIPT","region":"Chitose","lat":42.821453,"lng":141.648834},{"店舗名":"元祖デカ盛り海鮮問屋千歳店","住所":"〒066-0041 北海道千歳市清水町２丁目１－３","ステータス":"RECEIPT","region":"Chitose","lat":42.821453,"lng":141.648834},{"店舗名":"丼と恋 Dontokoi","住所":"〒066-0041 北海道千歳市清水町２丁目１−３","ステータス":"RECEIPT","region":"Chitose","lat":42.821453,"lng":141.648834},{"店舗名":"【本格麻辣×自家製春雨】白虎麻辣湯 千歳店","住所":"〒066-0041 北海道千歳市清水町２丁目１−３","ステータス":"RECEIPT","region":"Chitose","lat":42.821453,"lng":141.648834},{"店舗名":"横濱家系ラーメン 柴田家 千歳店","住所":"〒066-0043 北海道千歳市朝日町８丁目１２０６","ステータス":"RECEIPT","region":"Chitose","lat":42.819332,"lng":141.660202},{"店舗名":"北海道らーめん奥原流 久楽 千歳店","住所":"〒066-0047 北海道千歳市本町５丁目２−９","ステータス":"RECEIPT","region":"Chitose","lat":42.817318,"lng":141.654877},{"店舗名":"【道産蟹が絶品！】日本のてっぺん　カニ俱楽部","住所":"〒066-0063 北海道千歳市幸町","ステータス":"RECEIPT","region":"Chitose","lat":42.822636,"lng":141.645676},{"店舗名":"昇風庵","住所":"〒066-0064 北海道千歳市錦町４丁目１８３８−１５","ステータス":"RECEIPT","region":"Chitose","lat":42.825405,"lng":141.64061},{"店舗名":"麺’s キッチン 天下無双","住所":"〒066-0072 北海道千歳市自由ヶ丘３丁目３−７","ステータス":"RECEIPT","region":"Chitose","lat":42.833794,"lng":141.619385},{"店舗名":"市場食堂 ちとせ","住所":"〒066-0077","ステータス":"RECEIPT","region":"Chitose","lat":42.840023,"lng":141.593262},{"店舗名":"ダンデライオン","住所":"〒066-0078 北海道千歳市勇舞６丁目７−２","ステータス":"RECEIPT","region":"Chitose","lat":42.856697,"lng":141.632736},{"店舗名":"フードコート 味のまんぷく","住所":"〒066-0078 北海道千歳市勇舞８丁目１−１ ちとせモール 1F","ステータス":"RECEIPT","region":"Chitose","lat":42.853889,"lng":141.627457}]