[{"店舗名":"焼肉とらちゃん","住所":"〒501-6001 岐阜県羽島郡岐南町上印食８丁目５５−１","ステータス":"RECEIPT","region":"county","lat":35.388779,"lng":136.788635},{"店舗名":"Indian Nepali Restaurant Manushi","住所":"〒963-0101 福島県郡山市安積町日出山２丁目８０","ステータス":"RECEIPT","region":"county","lat":37.374405,"lng":140.383774},{"店舗名":"THE GOD BURGER","住所":"〒963-0105 福島県郡山市安積町長久保３丁目１８−７ 陸ビル","ステータス":"RECEIPT","region":"county","lat":37.358322,"lng":140.359207},{"店舗名":"インド・ネパール料理 マヤデビ","住所":"〒963-0107 福島県郡山市安積３丁目３０１ やまさビル","ステータス":"RECEIPT","region":"county","lat":37.355831,"lng":140.362885},{"店舗名":"四川名菜天心","住所":"〒963-0111 福島県郡山市安積町荒井字大池３","ステータス":"RECEIPT","region":"county","lat":37.37167,"lng":140.348923},{"店舗名":"アジアンダイニング サウラハ ビュー","住所":"〒963-0201 福島県郡山市大槻町西ノ宮西","ステータス":"RECEIPT","region":"county","lat":37.399731,"lng":140.317307},{"店舗名":"とんかつ　いちえ","住所":"〒963-0534 福島県郡山市日和田町植初１０−１","ステータス":"RECEIPT","region":"county","lat":37.448402,"lng":140.383667},{"店舗名":"サイルン Sairun","住所":"〒963-0534 福島県郡山市日和田町字朝日坦３３−４","ステータス":"RECEIPT","region":"county","lat":37.449615,"lng":140.380844},{"店舗名":"ダイニング レストラン エテ","住所":"〒963-8001","ステータス":"RECEIPT","region":"county","lat":37.400208,"lng":140.385254},{"店舗名":"麺家くさび　郡山本店","住所":"〒963-8002 福島県郡山市駅前２丁目１−１２","ステータス":"RECEIPT","region":"county","lat":37.398262,"lng":140.386246},{"店舗名":"一心亭郡山分店","住所":"〒963-8002 福島県郡山市駅前２丁目１−５","ステータス":"RECEIPT","region":"county","lat":37.398743,"lng":140.385834},{"店舗名":"インドネパール料理マヌシ　駅前店","住所":"〒963-8005 福島県郡山市清水台２丁目１３−２９","ステータス":"RECEIPT","region":"county","lat":37.399185,"lng":140.382553},{"店舗名":"Bull Pulu","住所":"〒963-8017","ステータス":"RECEIPT","region":"county","lat":37.398159,"lng":140.36824},{"店舗名":"ラァメン オカムラ ザ・モール郡山店","住所":"〒963-8017 福島県郡山市長者","ステータス":"RECEIPT","region":"county","lat":37.398159,"lng":140.36824},{"店舗名":"ベーカーズ コージー","住所":"〒963-8021","ステータス":"RECEIPT","region":"county","lat":37.40871,"lng":140.373932},{"店舗名":"ベルボーイ","住所":"〒963-8022 福島県郡山市西ノ内１丁目１９−１７ ベル・ボーイ","ステータス":"RECEIPT","region":"county","lat":37.40675,"lng":140.369553},{"店舗名":"千年カフェ","住所":"〒963-8025 福島県郡山市桑野２丁目１７−１２","ステータス":"RECEIPT","region":"county","lat":37.405197,"lng":140.354431},{"店舗名":"油そばどんちゃん 桑野店","住所":"〒963-8025 福島県郡山市桑野２丁目１７−１２","ステータス":"RECEIPT","region":"county","lat":37.405197,"lng":140.354431},{"店舗名":"近江牛の丼ぶり屋 桑野店","住所":"〒963-8025 福島県郡山市桑野２丁目１７−１２","ステータス":"RECEIPT","region":"county","lat":37.405197,"lng":140.354431},{"店舗名":"KRISPAマハル 郡山店","住所":"〒963-8025 福島県郡山市桑野３丁目１４−４","ステータス":"RECEIPT","region":"county","lat":37.405418,"lng":140.355927},{"店舗名":"口料理さんぺい","住所":"〒963-8041 福島県郡山市富田町向山７ 宍戸アパート 102","ステータス":"RECEIPT","region":"county","lat":37.417084,"lng":140.350632},{"店舗名":"麺家くさび　郡山富田店","住所":"〒963-8045 福島県郡山市新屋敷２丁目１２９","ステータス":"RECEIPT","region":"county","lat":37.419807,"lng":140.355576},{"店舗名":"IL SUONO SCORRE","住所":"〒963-8047 福島県郡山市富田東１丁目１９","ステータス":"RECEIPT","region":"county","lat":37.420704,"lng":140.367401},{"店舗名":"愛と情熱のらーめん屋 皐月亭","住所":"〒963-8053 福島県郡山市八山田西１丁目２５１","ステータス":"RECEIPT","region":"county","lat":37.428429,"lng":140.357864},{"店舗名":"KRISPAマハル 郡山八山田店","住所":"〒963-8053 福島県郡山市八山田西４丁目１３","ステータス":"RECEIPT","region":"county","lat":37.429298,"lng":140.370239},{"店舗名":"情熱食堂　富久山久保田店","住所":"〒963-8071 福島県郡山市富久山町久保田字太郎殿前２−２０","ステータス":"RECEIPT","region":"county","lat":37.40744,"lng":140.397125},{"店舗名":"麺家くさび イオンタウン郡山店","住所":"〒963-8812 福島県郡山市松木町２−８８","ステータス":"RECEIPT","region":"county","lat":37.388954,"lng":140.387589},{"店舗名":"ナマステ ロイヤル インド","住所":"〒963-8851 福島県郡山市開成２丁目３１−１４","ステータス":"RECEIPT","region":"county","lat":37.393253,"lng":140.355957},{"店舗名":"Ama nepali restaurant","住所":"〒963-8862","ステータス":"RECEIPT","region":"county","lat":37.388779,"lng":140.364471},{"店舗名":"DINING BAR BARRY","住所":"〒963-8877 福島県郡山市堂前町28-15","ステータス":"RECEIPT","region":"county","lat":37.393944,"lng":140.380432}]