[{"店舗名":"江別ホルモン食堂","住所":"〒067-0000 北海道江別市大川通６","ステータス":"RECEIPT","region":"Ebetsu","lat":43.114601,"lng":141.562561},{"店舗名":"らーめん半畳","住所":"〒067-0012 北海道江別市２条５丁目９−２","ステータス":"RECEIPT","region":"Ebetsu","lat":43.111427,"lng":141.55838},{"店舗名":"JIJI Cafe&Community","住所":"〒067-0023 北海道江別市東光町115-5","ステータス":"RECEIPT","region":"Ebetsu","lat":43.112465,"lng":141.571487},{"店舗名":"クロワッサンファクトリーミル","住所":"〒067-0023 北海道江別市東光町３５−１０","ステータス":"RECEIPT","region":"Ebetsu","lat":43.111092,"lng":141.569031},{"店舗名":"キタイチゴ農園","住所":"〒067-0052","ステータス":"RECEIPT","region":"Ebetsu","lat":43.124405,"lng":141.479874},{"店舗名":"らーめんしょう","住所":"〒067-0066 北海道江別市ゆめみ野南町１３−１１","ステータス":"RECEIPT","region":"Ebetsu","lat":43.099518,"lng":141.557617},{"店舗名":"北海道らーめん奥原流久楽　江別店","住所":"〒067-0074","ステータス":"RECEIPT","region":"Ebetsu","lat":43.10252,"lng":141.539383},{"店舗名":"Boulangerie CoCotan","住所":"〒069-0801 北海道江別市中央町１２−２３","ステータス":"RECEIPT","region":"Ebetsu","lat":43.103523,"lng":141.524536},{"店舗名":"チャイニーズキッチン味彩","住所":"〒069-0804 北海道江別市野幌美幸町３２−６","ステータス":"RECEIPT","region":"Ebetsu","lat":43.091702,"lng":141.507736},{"店舗名":"どら焼き　あんざい","住所":"〒069-0811 北海道江別市錦町１５−１８","ステータス":"RECEIPT","region":"Ebetsu","lat":43.101105,"lng":141.529144},{"店舗名":"うたたねむ子のクレープ屋","住所":"〒069-0813 北海道江別市野幌町１０−１","ステータス":"RECEIPT","region":"Ebetsu","lat":43.095333,"lng":141.525146},{"店舗名":"山の猿 江別店","住所":"〒069-0813 北海道江別市野幌町2−３","ステータス":"APP_DISPLAY","region":"Ebetsu","lat":43.097641,"lng":141.529602},{"店舗名":"天ぷらめし天丼 三代目 真之 江別店","住所":"〒069-0813 北海道江別市野幌町2−３","ステータス":"RECEIPT","region":"Ebetsu","lat":43.097641,"lng":141.529602},{"店舗名":"帯広豚丼十勝晴れ 江別店","住所":"〒069-0813 北海道江別市野幌町2−３","ステータス":"APP_DISPLAY","region":"Ebetsu","lat":43.097641,"lng":141.529602},{"店舗名":"旬和創彩ちゃがちゃが","住所":"〒069-0813 北海道江別市野幌町５７−１５ 第6 第7高関ビル 1F","ステータス":"RECEIPT","region":"Ebetsu","lat":43.092632,"lng":141.52533},{"店舗名":"札幌ラーメン原﹅","住所":"〒069-0814 北海道江別市野幌松並町２６−６","ステータス":"RECEIPT","region":"Ebetsu","lat":43.087852,"lng":141.516937},{"店舗名":"アジアン食堂 スーリヤ","住所":"〒069-0814 北海道江別市野幌松並町２６−９","ステータス":"RECEIPT","region":"Ebetsu","lat":43.087852,"lng":141.516937},{"店舗名":"蒸しパンとドーナツのお店 ぱんぱかぱん","住所":"〒069-0824","ステータス":"RECEIPT","region":"Ebetsu","lat":43.08757,"lng":141.531586},{"店舗名":"ふくふく亭","住所":"〒069-0831 北海道江別市野幌若葉町","ステータス":"RECEIPT","region":"Ebetsu","lat":43.083458,"lng":141.525009},{"店舗名":"かざみ鳥のごはん屋さん","住所":"〒069-0831 北海道江別市野幌若葉町９３−４３","ステータス":"RECEIPT","region":"Ebetsu","lat":43.079319,"lng":141.521469},{"店舗名":"らぁめん 義ゆき家","住所":"〒069-0834 北海道江別市文京台東町１０−１３","ステータス":"RECEIPT","region":"Ebetsu","lat":43.069897,"lng":141.493912},{"店舗名":"ラーメンさんぱち 大麻駅前店","住所":"〒069-0834 北海道江別市文京台東町１１−３１","ステータス":"RECEIPT","region":"Ebetsu","lat":43.071175,"lng":141.496017},{"店舗名":"らーめん 海鳴","住所":"〒069-0846","ステータス":"RECEIPT","region":"Ebetsu","lat":43.074551,"lng":141.485321},{"店舗名":"mother crepe","住所":"〒069-0846 北海道江別市大麻桜木町３１−２７","ステータス":"RECEIPT","region":"Ebetsu","lat":43.072552,"lng":141.482773},{"店舗名":"ぱん屋ねこのさんぽ","住所":"〒069-0852 北海道江別市大麻東町１３−１６","ステータス":"RECEIPT","region":"Ebetsu","lat":43.079582,"lng":141.498337},{"店舗名":"カフェテラス四季","住所":"〒069-0854 北海道江別市大麻中町２−３４","ステータス":"RECEIPT","region":"Ebetsu","lat":43.074669,"lng":141.491653}]