[{"店舗名":"ベトナム料理 CO BAY","住所":"〒243-0401","ステータス":"APP_DISPLAY","region":"Ebina","lat":35.467449,"lng":139.425903},{"店舗名":"らーめんGOEN さがみ野店","住所":"〒243-0401","ステータス":"APP_DISPLAY","region":"Ebina","lat":35.467449,"lng":139.425903},{"店舗名":"中華そばみちや","住所":"〒243-0401","ステータス":"APP_DISPLAY","region":"Ebina","lat":35.467449,"lng":139.425903},{"店舗名":"KRUA KAN","住所":"〒243-0401 神奈川県海老名市東柏ケ谷","ステータス":"APP_DISPLAY","region":"Ebina","lat":35.467449,"lng":139.425903},{"店舗名":"焼肉ライク海老名さがみ野店","住所":"〒243-0401 神奈川県海老名市東柏ケ谷","ステータス":"APP_DISPLAY","region":"Ebina","lat":35.467449,"lng":139.425903},{"店舗名":"からあげの鉄人 さがみ野南口駅前店","住所":"〒243-0401 神奈川県海老名市東柏ヶ谷２丁目２４−１１","ステータス":"APP_DISPLAY","region":"Ebina","lat":35.471214,"lng":139.427063},{"店舗名":"大衆鰻 うな銀 さがみ野南口駅前店","住所":"〒243-0401 神奈川県海老名市東柏ヶ谷２丁目２４−１１","ステータス":"APP_DISPLAY","region":"Ebina","lat":35.471214,"lng":139.427063},{"店舗名":"魚民 さがみ野南口駅前店","住所":"〒243-0401 神奈川県海老名市東柏ヶ谷２丁目２４−１１","ステータス":"APP_DISPLAY","region":"Ebina","lat":35.471214,"lng":139.427063},{"店舗名":"カミナリステーキ さがみ野南口駅前店","住所":"〒243-0401 神奈川県海老名市東柏ヶ谷２丁目２４−１１","ステータス":"APP_DISPLAY","region":"Ebina","lat":35.471214,"lng":139.427063},{"店舗名":"Solana","住所":"〒243-0401 神奈川県海老名市東柏ケ谷２丁目２−９ クリオさがみ野壱番館","ステータス":"APP_DISPLAY","region":"Ebina","lat":35.468792,"lng":139.422302},{"店舗名":"ケバブカレーハブ","住所":"〒243-0401 神奈川県海老名市東柏ケ谷２丁目３０−１０","ステータス":"APP_DISPLAY","region":"Ebina","lat":35.471321,"lng":139.430481},{"店舗名":"【タコ&ガパオ】SPICE RUN さがみ野店","住所":"〒243-0401 神奈川県海老名市東柏ケ谷２丁目３０−１０","ステータス":"APP_DISPLAY","region":"Ebina","lat":35.471321,"lng":139.430481},{"店舗名":"【ケバブと炭焼き】GRILL BROS さがみ野","住所":"〒243-0401 神奈川県海老名市東柏ケ谷２丁目３０−１０","ステータス":"APP_DISPLAY","region":"Ebina","lat":35.471321,"lng":139.430481},{"店舗名":"究極のビリヤニ料理 さがみ野店","住所":"〒243-0401 神奈川県海老名市東柏ケ谷２丁目３０−１０","ステータス":"APP_DISPLAY","region":"Ebina","lat":35.471321,"lng":139.430481},{"店舗名":"本格インドカレーチャイ","住所":"〒243-0401 神奈川県海老名市東柏ヶ谷3丁目13−29 エスエスビル","ステータス":"APP_DISPLAY","region":"Ebina","lat":35.472374,"lng":139.428955},{"店舗名":"タンタンメン金家 さがみ野店","住所":"〒243-0401 神奈川県海老名市東柏ケ谷３丁目１−７","ステータス":"APP_DISPLAY","region":"Ebina","lat":35.472012,"lng":139.426682},{"店舗名":"宅食ライフ 海老名店","住所":"〒243-0401 神奈川県海老名市東柏ケ谷３丁目１９−５","ステータス":"APP_DISPLAY","region":"Ebina","lat":35.474236,"lng":139.430008},{"店舗名":"る・ぷらん","住所":"〒243-0401 神奈川県海老名市東柏ケ谷５丁目６−２８","ステータス":"APP_DISPLAY","region":"Ebina","lat":35.468666,"lng":139.431213},{"店舗名":"エベレストキッチンかしわ台","住所":"〒243-0402 神奈川県海老名市柏ケ谷１丁目２４−５","ステータス":"APP_DISPLAY","region":"Ebina","lat":35.46862,"lng":139.412323},{"店舗名":"香港酒楼","住所":"〒243-0417 神奈川県海老名市本郷２２９０−１","ステータス":"APP_DISPLAY","region":"Ebina","lat":35.409271,"lng":139.395966},{"店舗名":"Happy butter crape","住所":"〒243-0418 神奈川県海老名市大谷南５丁目２−１","ステータス":"APP_DISPLAY","region":"Ebina","lat":35.428978,"lng":139.397385},{"店舗名":"【フルーツたっぷりアサイーボウル】ワイキキ・ボウルズ 海老名店","住所":"〒243-0418 神奈川県海老名市大谷南５丁目２−１","ステータス":"APP_DISPLAY","region":"Ebina","lat":35.428978,"lng":139.397385},{"店舗名":"【もっちり玄米と低脂質チキン】とりげん食堂 海老名店","住所":"〒243-0418 神奈川県海老名市大谷南５丁目２−１","ステータス":"APP_DISPLAY","region":"Ebina","lat":35.428978,"lng":139.397385},{"店舗名":"【アサイー&グリークヨーグルト】GREEKSPOON 海老名店","住所":"〒243-0418 神奈川県海老名市大谷南５丁目２−１ 東名サービスエリア","ステータス":"APP_DISPLAY","region":"Ebina","lat":35.428978,"lng":139.397385},{"店舗名":"ドミノ・ピザ 海老名店","住所":"〒243-0419 神奈川県海老名市大谷北４丁目３−３２","ステータス":"APP_DISPLAY","region":"Ebina","lat":35.439373,"lng":139.402557},{"店舗名":"百円晩餐館","住所":"〒243-0422","ステータス":"APP_DISPLAY","region":"Ebina","lat":35.439892,"lng":139.386185},{"店舗名":"ナン ロティ中新田店","住所":"〒243-0422 神奈川県海老名市中新田３丁目１−９","ステータス":"APP_DISPLAY","region":"Ebina","lat":35.441685,"lng":139.377609},{"店舗名":"からやま 海老名店","住所":"〒243-0422 神奈川県海老名市中新田４丁目１−２４","ステータス":"APP_DISPLAY","region":"Ebina","lat":35.435661,"lng":139.383438},{"店舗名":"〈ごはん大盛まで無料〉ハンバーグ亭 沢村 中野2丁目店","住所":"〒243-0425 神奈川県海老名市中野２丁目３−２５","ステータス":"APP_DISPLAY","region":"Ebina","lat":35.415272,"lng":139.375229},{"店舗名":"かどちゃん","住所":"〒243-0426 神奈川県海老名市門沢橋２丁目６−１０","ステータス":"APP_DISPLAY","region":"Ebina","lat":35.406204,"lng":139.377686},{"店舗名":"BUTTER CHICKEN","住所":"〒243-0426 神奈川県海老名市門沢橋６丁目１７−３５","ステータス":"APP_DISPLAY","region":"Ebina","lat":35.406059,"lng":139.383347},{"店舗名":"キッチンワキュウ","住所":"〒243-0427 神奈川県海老名市杉久保南１丁目６－１６","ステータス":"APP_DISPLAY","region":"Ebina","lat":35.421722,"lng":139.395752},{"店舗名":"Kebab TORUKO Style","住所":"〒243-0427 神奈川県海老名市杉久保南１丁目９−１","ステータス":"APP_DISPLAY","region":"Ebina","lat":35.423313,"lng":139.394897},{"店舗名":"おいもカフェ みなと屋","住所":"〒243-0431","ステータス":"APP_DISPLAY","region":"Ebina","lat":35.46582,"lng":139.402344},{"店舗名":"宏源居","住所":"〒243-0431 神奈川県海老名市上今泉２丁目１０−４５−１","ステータス":"APP_DISPLAY","region":"Ebina","lat":35.466999,"lng":139.398071},{"店舗名":"１１４６Coffee","住所":"〒243-0431 神奈川県海老名市上今泉６丁目４−２","ステータス":"APP_DISPLAY","region":"Ebina","lat":35.468983,"lng":139.408966},{"店舗名":"東方一品","住所":"〒243-0432","ステータス":"APP_DISPLAY","region":"Ebina","lat":35.453636,"lng":139.394714},{"店舗名":"デニーズ 海老名店","住所":"〒243-0432 神奈川県海老名市中央１丁目１２−１５","ステータス":"APP_DISPLAY","region":"Ebina","lat":35.451492,"lng":139.39476},{"店舗名":"リンガーハット 海老名ビナウォーク店","住所":"〒243-0432 神奈川県海老名市中央１丁目１−４−１","ステータス":"APP_DISPLAY","region":"Ebina","lat":35.453056,"lng":139.392181},{"店舗名":"青唐辛子","住所":"〒243-0432 神奈川県海老名市中央１丁目１４−２１ サンポウビル","ステータス":"APP_DISPLAY","region":"Ebina","lat":35.455021,"lng":139.394394},{"店舗名":"居酒屋ダイニングバル パスポート 海老名店","住所":"〒243-0432 神奈川県海老名市中央１丁目１５−１０","ステータス":"APP_DISPLAY","region":"Ebina","lat":35.455196,"lng":139.394836},{"店舗名":"串揚ダイニング 電撃坊主","住所":"〒243-0432 神奈川県海老名市中央１丁目１５−７","ステータス":"APP_DISPLAY","region":"Ebina","lat":35.455395,"lng":139.39476},{"店舗名":"P2nd","住所":"〒243-0432 神奈川県海老名市中央１丁目１６−２８","ステータス":"APP_DISPLAY","region":"Ebina","lat":35.455193,"lng":139.395233},{"店舗名":"大衆うなぎ桑田","住所":"〒243-0432 神奈川県海老名市中央１丁目１６−４０ 2f","ステータス":"APP_DISPLAY","region":"Ebina","lat":35.455383,"lng":139.394852},{"店舗名":"上海雲吞麺","住所":"〒243-0432 神奈川県海老名市中央１丁目１８−１","ステータス":"APP_DISPLAY","region":"Ebina","lat":35.45311,"lng":139.395142},{"店舗名":"果茶果茶 海老名店","住所":"〒243-0432 神奈川県海老名市中央１丁目３−１４","ステータス":"APP_DISPLAY","region":"Ebina","lat":35.451794,"lng":139.392059},{"店舗名":"ごはんが進む！『チキン南蛮本舗』 海老名駅前店","住所":"〒243-0432 神奈川県海老名市中央１丁目３−１４","ステータス":"APP_DISPLAY","region":"Ebina","lat":35.451794,"lng":139.392059},{"店舗名":"バーガーキング海老名駅前店","住所":"〒243-0432 神奈川県海老名市中央１丁目３−７","ステータス":"APP_DISPLAY","region":"Ebina","lat":35.452106,"lng":139.391815},{"店舗名":"ラ・パン 海老名ビナウォーク店","住所":"〒243-0432 神奈川県海老名市中央１丁目４−１","ステータス":"APP_DISPLAY","region":"Ebina","lat":35.452129,"lng":139.392563},{"店舗名":"野郎ラーメン ビナウォーク海老名店","住所":"〒243-0432 神奈川県海老名市中央１丁目４−１","ステータス":"PENDING","region":"Ebina","lat":35.452129,"lng":139.392563},{"店舗名":"ラ・パウザ ビナウォーク海老名店","住所":"〒243-0432 神奈川県海老名市中央１丁目４−１ ５番館","ステータス":"APP_DISPLAY","region":"Ebina","lat":35.452129,"lng":139.392563},{"店舗名":"串カツ田中 海老名ビナウォーク店","住所":"〒243-0432 神奈川県海老名市中央１丁目４−１ ５番館 251","ステータス":"APP_DISPLAY","region":"Ebina","lat":35.452129,"lng":139.392563},{"店舗名":"ウェンディーズ・ファーストキッチン 海老名ビナウォーク店","住所":"〒243-0432 神奈川県海老名市中央１丁目６−１","ステータス":"APP_DISPLAY","region":"Ebina","lat":35.452747,"lng":139.393127},{"店舗名":"ダルバール海老名店","住所":"〒243-0432 神奈川県海老名市中央１丁目６−１","ステータス":"APP_DISPLAY","region":"Ebina","lat":35.452747,"lng":139.393127},{"店舗名":"ほほえみ","住所":"〒243-0432 神奈川県海老名市中央２丁目１０−２７","ステータス":"APP_DISPLAY","region":"Ebina","lat":35.449638,"lng":139.396057},{"店舗名":"らあめん花月嵐　海老名店","住所":"〒243-0432 神奈川県海老名市中央２丁目１−５","ステータス":"APP_DISPLAY","region":"Ebina","lat":35.45089,"lng":139.392258},{"店舗名":"かつや 海老名店","住所":"〒243-0432 神奈川県海老名市中央２丁目３−２","ステータス":"APP_DISPLAY","region":"Ebina","lat":35.449154,"lng":139.39267},{"店舗名":"カレーエクスプレス 海老名店","住所":"〒243-0432 神奈川県海老名市中央２丁目４−１","ステータス":"APP_DISPLAY","region":"Ebina","lat":35.45126,"lng":139.392548},{"店舗名":"ビビンバ・カルビ丼・スンドゥブ グンチャン 海老名東口駅前店","住所":"〒243-0432 神奈川県海老名市中央３丁目１−３","ステータス":"APP_DISPLAY","region":"Ebina","lat":35.450977,"lng":139.392014},{"店舗名":"カミナリステーキ 海老名東口駅前店","住所":"〒243-0432 神奈川県海老名市中央３丁目１−３","ステータス":"APP_DISPLAY","region":"Ebina","lat":35.450977,"lng":139.392014},{"店舗名":"千年の宴 海老名東口駅前店","住所":"〒243-0432 神奈川県海老名市中央３丁目１−３","ステータス":"APP_DISPLAY","region":"Ebina","lat":35.450977,"lng":139.392014},{"店舗名":"魚民 海老名東口駅前店","住所":"〒243-0432 神奈川県海老名市中央３丁目１−３２","ステータス":"APP_DISPLAY","region":"Ebina","lat":35.451126,"lng":139.391281},{"店舗名":"からあげの鉄人 海老名東口駅前店","住所":"〒243-0432 神奈川県海老名市中央３丁目１−３２ 倉橋第２ビル 2階","ステータス":"APP_DISPLAY","region":"Ebina","lat":35.451126,"lng":139.391281},{"店舗名":"大衆鰻 うな銀 海老名東口駅前店","住所":"〒243-0432 神奈川県海老名市中央３丁目１−３２ 倉橋第２ビル 2階","ステータス":"APP_DISPLAY","region":"Ebina","lat":35.451126,"lng":139.391281},{"店舗名":"インドカレー＆ナンプルニマ Indian Curry & Nan PURNIMA","住所":"〒243-0432 神奈川県海老名市中央３丁目２－５","ステータス":"APP_DISPLAY","region":"Ebina","lat":35.450539,"lng":139.391113},{"店舗名":"麺場 田所商店 海老名店","住所":"〒243-0433 神奈川県海老名市河原口３丁目３３−１０","ステータス":"APP_DISPLAY","region":"Ebina","lat":35.450974,"lng":139.379837},{"店舗名":"京都北白川 ラーメン魁力屋 海老名店","住所":"〒243-0433 神奈川県海老名市河原口８７２−１","ステータス":"APP_DISPLAY","region":"Ebina","lat":35.444267,"lng":139.377228},{"店舗名":"吉野家 海老名上郷店","住所":"〒243-0434 神奈川県海老名市上郷３８９−１","ステータス":"APP_DISPLAY","region":"Ebina","lat":35.454334,"lng":139.383118},{"店舗名":"丸源ラーメン 海老名上郷店","住所":"〒243-0434 神奈川県海老名市上郷３９０−１","ステータス":"APP_DISPLAY","region":"Ebina","lat":35.455582,"lng":139.38179},{"店舗名":"台湾料理 千福","住所":"〒243-0435 神奈川県海老名市下今泉３丁目１−３","ステータス":"APP_DISPLAY","region":"Ebina","lat":35.466721,"lng":139.388321},{"店舗名":"アジアン料理バターチキン","住所":"〒243-0435 神奈川県海老名市下今泉４丁目１−４","ステータス":"APP_DISPLAY","region":"Ebina","lat":35.466702,"lng":139.388687},{"店舗名":"マロリーポークステーキ海老名店 Mallory Pork Steak","住所":"〒243-0436 神奈川県海老名市扇町１２−２１","ステータス":"APP_DISPLAY","region":"Ebina","lat":35.457428,"lng":139.387619},{"店舗名":"UNI COFFEE ROASTERYららぽーと海老名","住所":"〒243-0436 神奈川県海老名市扇町１３−１","ステータス":"APP_DISPLAY","region":"Ebina","lat":35.45557,"lng":139.388977},{"店舗名":"築地銀だこ ららぽーと海老名店","住所":"〒243-0436 神奈川県海老名市扇町１３−１","ステータス":"APP_DISPLAY","region":"Ebina","lat":35.45557,"lng":139.388977},{"店舗名":"横浜家系ラーメン松壱家 海老名店","住所":"〒243-0436 神奈川県海老名市扇町５−８","ステータス":"RECEIPT","region":"Ebina","lat":35.455517,"lng":139.387726},{"店舗名":"東京極上白湯 海老名店","住所":"〒243-0436 神奈川県海老名市扇町５−８－１－D","ステータス":"APP_DISPLAY","region":"Ebina","lat":35.455517,"lng":139.387726},{"店舗名":"つけ麺大戦争 海老名店","住所":"〒243-0436 神奈川県海老名市扇町５−８－１－D","ステータス":"APP_DISPLAY","region":"Ebina","lat":35.455517,"lng":139.387726},{"店舗名":"中華そば 昭和軒 海老名店","住所":"〒243-0436 神奈川県海老名市扇町５−８－１－D","ステータス":"APP_DISPLAY","region":"Ebina","lat":35.455517,"lng":139.387726},{"店舗名":"ぶた家 海老名店","住所":"〒243-0436 神奈川県海老名市扇町５−８－１－D","ステータス":"APP_DISPLAY","region":"Ebina","lat":35.455517,"lng":139.387726},{"店舗名":"釜玉中華そば 世田谷製麺所 海老名店","住所":"〒243-0436 神奈川県海老名市扇町５−８－１－D","ステータス":"APP_DISPLAY","region":"Ebina","lat":35.455517,"lng":139.387726},{"店舗名":"背徳の節ラーうどん 至福の一杯。 海老名店","住所":"〒243-0436 神奈川県海老名市扇町５−８－１－D","ステータス":"APP_DISPLAY","region":"Ebina","lat":35.455517,"lng":139.387726},{"店舗名":"勝浦タンタンメン 赤鬼 海老名店","住所":"〒243-0436 神奈川県海老名市扇町５−８－１－D","ステータス":"APP_DISPLAY","region":"Ebina","lat":35.455517,"lng":139.387726},{"店舗名":"ゴル麺。 THE GOLDEN TSUKEMEN 海老名店","住所":"〒243-0436 神奈川県海老名市扇町５−８－１－D","ステータス":"APP_DISPLAY","region":"Ebina","lat":35.455517,"lng":139.387726},{"店舗名":"褒美チャーシュー丼 ぶた丸 海老名店","住所":"〒243-0436 神奈川県海老名市扇町５−８－１－D","ステータス":"APP_DISPLAY","region":"Ebina","lat":35.455517,"lng":139.387726},{"店舗名":"塩出汁おうどん 京の花 海老名店","住所":"〒243-0436 神奈川県海老名市扇町５−８－１－D","ステータス":"APP_DISPLAY","region":"Ebina","lat":35.455517,"lng":139.387726},{"店舗名":"竹岡式ラーメン 富津屋 海老名店","住所":"〒243-0436 神奈川県海老名市扇町５−８－１－D","ステータス":"APP_DISPLAY","region":"Ebina","lat":35.455517,"lng":139.387726},{"店舗名":"トクベツ。 海老名店","住所":"〒243-0436 神奈川県海老名市扇町５−８−１−D","ステータス":"APP_DISPLAY","region":"Ebina","lat":35.455517,"lng":139.387726},{"店舗名":"油そば研究所 海老名店","住所":"〒243-0436 神奈川県海老名市扇町５−８−１−D","ステータス":"APP_DISPLAY","region":"Ebina","lat":35.455517,"lng":139.387726},{"店舗名":"圧倒的背徳感!炙り豚RUSH! 海老名店","住所":"〒243-0436 神奈川県海老名市扇町５−８−１−D","ステータス":"APP_DISPLAY","region":"Ebina","lat":35.455517,"lng":139.387726},{"店舗名":"ニンニク入れますか？豚二郎 海老名店","住所":"〒243-0436 神奈川県海老名市扇町５−８−１−D","ステータス":"APP_DISPLAY","region":"Ebina","lat":35.455517,"lng":139.387726},{"店舗名":"ラーメン屋が本気でカレー作ってみた。 海老名店","住所":"〒243-0436 神奈川県海老名市扇町５−８−１−D","ステータス":"APP_DISPLAY","region":"Ebina","lat":35.455517,"lng":139.387726},{"店舗名":"東京極上坦坦 海老名店","住所":"〒243-0436 神奈川県海老名市扇町５−８−１−D","ステータス":"APP_DISPLAY","region":"Ebina","lat":35.455517,"lng":139.387726},{"店舗名":"横浜家系ラーメン 極上家 海老名店","住所":"〒243-0436 神奈川県海老名市扇町５−８−１−D","ステータス":"APP_DISPLAY","region":"Ebina","lat":35.455517,"lng":139.387726},{"店舗名":"熟成カレーうどん 咖哩庵 海老名店","住所":"〒243-0436 神奈川県海老名市扇町５−８−１−D","ステータス":"APP_DISPLAY","region":"Ebina","lat":35.455517,"lng":139.387726},{"店舗名":"究極の塩だしうどん 京都はんなり 海老名店","住所":"〒243-0436 神奈川県海老名市扇町５−８−１−D","ステータス":"APP_DISPLAY","region":"Ebina","lat":35.455517,"lng":139.387726},{"店舗名":"辛激の麺人 海老名店","住所":"〒243-0436 神奈川県海老名市扇町５−８−１−D","ステータス":"APP_DISPLAY","region":"Ebina","lat":35.455517,"lng":139.387726},{"店舗名":"【極上炒飯】チャーハンマニア 海老名店","住所":"〒243-0436 神奈川県海老名市扇町５−８−１−D","ステータス":"APP_DISPLAY","region":"Ebina","lat":35.455517,"lng":139.387726},{"店舗名":"究極の食べるスープ！極上汁と飯 海老名店","住所":"〒243-0436 神奈川県海老名市扇町５−８−１−D","ステータス":"APP_DISPLAY","region":"Ebina","lat":35.455517,"lng":139.387726},{"店舗名":"つけ麺 大かわ 海老名店","住所":"〒243-0436 神奈川県海老名市扇町５−８−１−D","ステータス":"APP_DISPLAY","region":"Ebina","lat":35.455517,"lng":139.387726},{"店舗名":"東京極上煮干 海老名店","住所":"〒243-0436 神奈川県海老名市扇町５−８−１−D","ステータス":"APP_DISPLAY","region":"Ebina","lat":35.455517,"lng":139.387726},{"店舗名":"TKM 卵かけ麺製造所 海老名店","住所":"〒243-0436 神奈川県海老名市扇町５−８−１−D","ステータス":"APP_DISPLAY","region":"Ebina","lat":35.455517,"lng":139.387726},{"店舗名":"竹岡式ラーメン 松乃家 海老名店","住所":"〒243-0436 神奈川県海老名市扇町５−８−１−D","ステータス":"APP_DISPLAY","region":"Ebina","lat":35.455517,"lng":139.387726},{"店舗名":"極上粥三昧 海老名店","住所":"〒243-0436 神奈川県海老名市扇町５−８−１−D","ステータス":"APP_DISPLAY","region":"Ebina","lat":35.455517,"lng":139.387726},{"店舗名":"勝浦タンタンメン 奥さわ 海老名店","住所":"〒243-0436 神奈川県海老名市扇町５−８−１−D","ステータス":"APP_DISPLAY","region":"Ebina","lat":35.455517,"lng":139.387726},{"店舗名":"横浜ラーメン 源泉 海老名店","住所":"〒243-0436 神奈川県海老名市扇町５−８−１−D","ステータス":"APP_DISPLAY","region":"Ebina","lat":35.455517,"lng":139.387726},{"店舗名":"横浜家系ラーメン松壱家 海老名店","住所":"〒243-0436 神奈川県海老名市扇町５丁目８－１－Ｄ","ステータス":"APP_DISPLAY","region":"Ebina","lat":35.455517,"lng":139.387726},{"店舗名":"しゃぶしゃぶ温野菜 海老名店","住所":"〒243-0436 神奈川県海老名市扇町６−７","ステータス":"APP_DISPLAY","region":"Ebina","lat":35.456196,"lng":139.386673},{"店舗名":"吉野家 小田急海老名駅店","住所":"〒243-0438 神奈川県海老名市めぐみ町１- １","ステータス":"APP_DISPLAY","region":"Ebina","lat":35.453735,"lng":139.391434},{"店舗名":"ナチュリー海老名店 Naturry Ebina","住所":"〒243-0438 神奈川県海老名市めぐみ町２−１","ステータス":"APP_DISPLAY","region":"Ebina","lat":35.454037,"lng":139.390366},{"店舗名":"ポチャ 海老名店","住所":"〒243-0438 神奈川県海老名市めぐみ町２−１","ステータス":"APP_DISPLAY","region":"Ebina","lat":35.454037,"lng":139.390366},{"店舗名":"肉汁餃子のダンダダン 海老名店","住所":"〒243-0438 神奈川県海老名市めぐみ町２−１","ステータス":"APP_DISPLAY","region":"Ebina","lat":35.454037,"lng":139.390366},{"店舗名":"串カツ田中 海老名店","住所":"〒243-0438 神奈川県海老名市めぐみ町２−１ ViNA GARDENS TERRACE","ステータス":"APP_DISPLAY","region":"Ebina","lat":35.454037,"lng":139.390366},{"店舗名":"大盛スタミナ肉丼 ニンニク野郎 海老名店","住所":"〒243-0438 神奈川県海老名市めぐみ町２−１ ビナガーデンテラス","ステータス":"APP_DISPLAY","region":"Ebina","lat":35.454037,"lng":139.390366}]