[{"店舗名":"レストラン CANTALLO（カンターロ）","住所":"〒183-0001 東京都府中市浅間町１丁目２","ステータス":"APP_DISPLAY","region":"Fuchu","lat":35.673431,"lng":139.492874},{"店舗名":"スタミナ丼 活家 国分寺店","住所":"〒183-0001 東京都府中市浅間町４丁目１３−２８","ステータス":"RECEIPT","region":"Fuchu","lat":35.681973,"lng":139.501984},{"店舗名":"宅配とんかつ かさねや 国分寺店","住所":"〒183-0001 東京都府中市浅間町４丁目１３−２８","ステータス":"APP_DISPLAY","region":"Fuchu","lat":35.681973,"lng":139.501984},{"店舗名":"とりめし かえで食堂 国分寺店","住所":"〒183-0001 東京都府中市浅間町４丁目１３−２８","ステータス":"APP_DISPLAY","region":"Fuchu","lat":35.681973,"lng":139.501984},{"店舗名":"焼きかつ丼 勝吉 国分寺店","住所":"〒183-0001 東京都府中市浅間町４丁目１３−２８","ステータス":"APP_DISPLAY","region":"Fuchu","lat":35.681973,"lng":139.501984},{"店舗名":"かつ丼屋 のぶお 国分寺店","住所":"〒183-0001 東京都府中市浅間町４丁目１３−２８","ステータス":"APP_DISPLAY","region":"Fuchu","lat":35.681973,"lng":139.501984},{"店舗名":"かつ丼 とん吉 国分寺店","住所":"〒183-0001 東京都府中市浅間町４丁目１３−２８","ステータス":"APP_DISPLAY","region":"Fuchu","lat":35.681973,"lng":139.501984},{"店舗名":"台湾カフェ 時香茶 国分寺店","住所":"〒183-0001 東京都府中市浅間町４丁目１３−２８","ステータス":"APP_DISPLAY","region":"Fuchu","lat":35.681973,"lng":139.501984},{"店舗名":"出前つけ麺専門店 三田製麺所 国分寺店","住所":"〒183-0001 東京都府中市浅間町４丁目１３−２８","ステータス":"APP_DISPLAY","region":"Fuchu","lat":35.681973,"lng":139.501984},{"店舗名":"韓国カルビ丼とスンドゥブ 洞山 国分寺店","住所":"〒183-0001 東京都府中市浅間町４丁目１３−２８","ステータス":"APP_DISPLAY","region":"Fuchu","lat":35.681973,"lng":139.501984},{"店舗名":"旨辛スタミナ鉄板焼き 天神軒 国分寺店","住所":"〒183-0001 東京都府中市浅間町４丁目１３−２８","ステータス":"APP_DISPLAY","region":"Fuchu","lat":35.681973,"lng":139.501984},{"店舗名":"韓国クッパとビビンバ 全州 国分寺店","住所":"〒183-0001 東京都府中市浅間町４丁目１３−２８","ステータス":"APP_DISPLAY","region":"Fuchu","lat":35.681973,"lng":139.501984},{"店舗名":"どんぶり 神宮軒 国分寺店","住所":"〒183-0001 東京都府中市浅間町４丁目１３−２８","ステータス":"APP_DISPLAY","region":"Fuchu","lat":35.681973,"lng":139.501984},{"店舗名":"うどんと肉 角立 国分寺店","住所":"〒183-0001 東京都府中市浅間町４丁目１３−２８","ステータス":"APP_DISPLAY","region":"Fuchu","lat":35.681973,"lng":139.501984},{"店舗名":"鶏弁 とり日和 国分寺店","住所":"〒183-0001 東京都府中市浅間町４丁目１３−２８","ステータス":"APP_DISPLAY","region":"Fuchu","lat":35.681973,"lng":139.501984},{"店舗名":"お粥 煮え花 国分寺店","住所":"〒183-0001 東京都府中市浅間町４丁目１３−２８","ステータス":"APP_DISPLAY","region":"Fuchu","lat":35.681973,"lng":139.501984},{"店舗名":"背徳めし食堂 国分寺店","住所":"〒183-0001 東京都府中市浅間町４丁目１３−２８","ステータス":"APP_DISPLAY","region":"Fuchu","lat":35.681973,"lng":139.501984},{"店舗名":"元祖金沢チャンピオンカレーデリバリー 国分寺店","住所":"〒183-0001 東京都府中市浅間町４丁目１３−２８","ステータス":"APP_DISPLAY","region":"Fuchu","lat":35.681973,"lng":139.501984},{"店舗名":"さぬきうどん・どんぶり 博好 国分寺店","住所":"〒183-0001 東京都府中市浅間町４丁目１３−２８","ステータス":"APP_DISPLAY","region":"Fuchu","lat":35.681973,"lng":139.501984},{"店舗名":"ぶた玉丼とうどん ぶた玉家 国分寺店","住所":"〒183-0001 東京都府中市浅間町４丁目１３−２８","ステータス":"APP_DISPLAY","region":"Fuchu","lat":35.681973,"lng":139.501984},{"店舗名":"肉汁つけうどん 六三四 国分寺店","住所":"〒183-0001 東京都府中市浅間町４丁目１３−２８","ステータス":"APP_DISPLAY","region":"Fuchu","lat":35.681973,"lng":139.501984},{"店舗名":"鶏天豚天 通天道 国分寺店","住所":"〒183-0001 東京都府中市浅間町４丁目１３−２８","ステータス":"APP_DISPLAY","region":"Fuchu","lat":35.681973,"lng":139.501984},{"店舗名":"出前家系ラーメン 吉祥寺 武蔵家 国分寺店","住所":"〒183-0001 東京都府中市浅間町４丁目１３−２８","ステータス":"APP_DISPLAY","region":"Fuchu","lat":35.681973,"lng":139.501984},{"店舗名":"お好み焼き おた福商店 国分寺店","住所":"〒183-0001 東京都府中市浅間町４丁目１３−２８","ステータス":"APP_DISPLAY","region":"Fuchu","lat":35.681973,"lng":139.501984},{"店舗名":"十勝帯広豚丼 三代目ぶた広 国分寺店","住所":"〒183-0001 東京都府中市浅間町４丁目１３−２８","ステータス":"APP_DISPLAY","region":"Fuchu","lat":35.681973,"lng":139.501984},{"店舗名":"のり弁 浅草屋 国分寺店","住所":"〒183-0001 東京都府中市浅間町４丁目１３−２８","ステータス":"APP_DISPLAY","region":"Fuchu","lat":35.681973,"lng":139.501984},{"店舗名":"うなぎの照本 国分寺店","住所":"〒183-0001 東京都府中市浅間町４丁目１３−２８","ステータス":"RECEIPT","region":"Fuchu","lat":35.681973,"lng":139.501984},{"店舗名":"ルハンキッチン","住所":"〒183-0002 東京都府中市多磨町１丁目２３−１","ステータス":"APP_DISPLAY","region":"Fuchu","lat":35.67804,"lng":139.518127},{"店舗名":"ル・ミロ","住所":"〒183-0003 東京都府中市朝日町２丁目２１−１０","ステータス":"APP_DISPLAY","region":"Fuchu","lat":35.675934,"lng":139.518417},{"店舗名":"京風たこ焼き紅葉","住所":"〒183-0003 東京都府中市朝日町２丁目２２−７","ステータス":"APP_DISPLAY","region":"Fuchu","lat":35.675816,"lng":139.518127},{"店舗名":"鰻の成瀬 多磨店","住所":"〒183-0003 東京都府中市朝日町２丁目２８－１１","ステータス":"APP_DISPLAY","region":"Fuchu","lat":35.677078,"lng":139.518372},{"店舗名":"インド料理バワルチ多摩店","住所":"〒183-0003 東京都府中市朝日町２丁目２９−８","ステータス":"APP_DISPLAY","region":"Fuchu","lat":35.677109,"lng":139.517639},{"店舗名":"パリバール 多摩店 PARIVAAR TAMA","住所":"〒183-0004 東京都府中市紅葉丘３丁目４１−５ ちば家ビル","ステータス":"APP_DISPLAY","region":"Fuchu","lat":35.67738,"lng":139.516815},{"店舗名":"たこ焼とほるもん酒場ゑえやん","住所":"〒183-0005 東京都府中市若松町１丁目","ステータス":"APP_DISPLAY","region":"Fuchu","lat":35.668804,"lng":139.50029},{"店舗名":"吉野家 甲州街道府中白糸台店","住所":"〒183-0005 東京都府中市若松町１丁目２５−６","ステータス":"APP_DISPLAY","region":"Fuchu","lat":35.669479,"lng":139.504562},{"店舗名":"郷香源","住所":"〒183-0005 東京都府中市若松町１丁目５−３４","ステータス":"APP_DISPLAY","region":"Fuchu","lat":35.6689,"lng":139.497589},{"店舗名":"FAMILY DINER shrimp house ダイニングバー レストラン 府中","住所":"〒183-0005 東京都府中市若松町２丁目７−１０","ステータス":"APP_DISPLAY","region":"Fuchu","lat":35.671829,"lng":139.494659},{"店舗名":"からあげ 元気亭 東府中店","住所":"〒183-0005 東京都府中市若松町２丁目７−４５","ステータス":"APP_DISPLAY","region":"Fuchu","lat":35.671829,"lng":139.494659},{"店舗名":"麺場 田所商店 府中若松町店","住所":"〒183-0005 東京都府中市若松町４丁目6−７","ステータス":"APP_DISPLAY","region":"Fuchu","lat":35.677509,"lng":139.497772},{"店舗名":"かつや 府中緑町店","住所":"〒183-0006 東京都府中市緑町１丁目１２−５","ステータス":"APP_DISPLAY","region":"Fuchu","lat":35.672012,"lng":139.485672},{"店舗名":"平次のおうどん","住所":"〒183-0006 東京都府中市緑町３丁目３−１ ヴェールメゾン府中","ステータス":"APP_DISPLAY","region":"Fuchu","lat":35.669979,"lng":139.49295},{"店舗名":"Pizza stand GABUz","住所":"〒183-0006 東京都府中市緑町３丁目３３−１８","ステータス":"APP_DISPLAY","region":"Fuchu","lat":35.672459,"lng":139.494003},{"店舗名":"韓国食堂AKICHI","住所":"〒183-0006 東京都府中市緑町３丁目８−１１","ステータス":"APP_DISPLAY","region":"Fuchu","lat":35.670673,"lng":139.494232},{"店舗名":"京都北白川 ラーメン魁力屋府中白糸台店","住所":"〒183-0011 東京都府中市白糸台１丁目３９−３","ステータス":"APP_DISPLAY","region":"Fuchu","lat":35.669941,"lng":139.505753},{"店舗名":"舞の樹","住所":"〒183-0011 東京都府中市白糸台３丁目２２−２","ステータス":"APP_DISPLAY","region":"Fuchu","lat":35.666542,"lng":139.517761},{"店舗名":"どん亭 府中店","住所":"〒183-0011 東京都府中市白糸台３丁目２３−１","ステータス":"APP_DISPLAY","region":"Fuchu","lat":35.66671,"lng":139.517136},{"店舗名":"ドミノ・ピザ 武蔵野台店","住所":"〒183-0011 東京都府中市白糸台５丁目２１−２","ステータス":"APP_DISPLAY","region":"Fuchu","lat":35.663448,"lng":139.512299},{"店舗名":"Ka-Ka","住所":"〒183-0013 東京都府中市小柳町４丁目９−３６","ステータス":"APP_DISPLAY","region":"Fuchu","lat":35.656841,"lng":139.500031},{"店舗名":"たま家食堂","住所":"〒183-0014 東京都府中市是政３丁目６−２９","ステータス":"APP_DISPLAY","region":"Fuchu","lat":35.659939,"lng":139.488495},{"店舗名":"サワディーナマステ　是政駅前店","住所":"〒183-0014 東京都府中市是政５丁目６−６","ステータス":"APP_DISPLAY","region":"Fuchu","lat":35.656616,"lng":139.489349},{"店舗名":"【タピオカ】OWL TEA 是政店","住所":"〒183-0014 東京都府中市是政５丁目７−２５","ステータス":"APP_DISPLAY","region":"Fuchu","lat":35.656647,"lng":139.488251},{"店舗名":"背徳ご褒美クレープ！CREPE FACTORY 是政店","住所":"〒183-0014 東京都府中市是政５丁目７−２５","ステータス":"APP_DISPLAY","region":"Fuchu","lat":35.656647,"lng":139.488251},{"店舗名":"【アサイーボウル】ALOHA SPOON ～Acai bowl cafe～ 是政店","住所":"〒183-0014 東京都府中市是政５丁目７−２５","ステータス":"APP_DISPLAY","region":"Fuchu","lat":35.656647,"lng":139.488251},{"店舗名":"好喝麻辣湯(ハオフーマーラータン) 是政店","住所":"〒183-0014 東京都府中市是政５丁目７−２５","ステータス":"APP_DISPLAY","region":"Fuchu","lat":35.656647,"lng":139.488251},{"店舗名":"香麗麻辣湯（シャンリーマーラータン） 是政店","住所":"〒183-0014 東京都府中市是政５丁目７−２５","ステータス":"APP_DISPLAY","region":"Fuchu","lat":35.656647,"lng":139.488251},{"店舗名":"帽子と少女","住所":"〒183-0015 東京都府中市清水が丘１丁目９−６５","ステータス":"RECEIPT","region":"Fuchu","lat":35.668419,"lng":139.495163},{"店舗名":"ドミノ・ピザ 東府中清水が丘店","住所":"〒183-0015 東京都府中市清水が丘２丁目1−５","ステータス":"APP_DISPLAY","region":"Fuchu","lat":35.667568,"lng":139.49498},{"店舗名":"アジアンダイニング トルシー","住所":"〒183-0015 東京都府中市清水が丘３丁目２３−３０","ステータス":"APP_DISPLAY","region":"Fuchu","lat":35.666531,"lng":139.503738},{"店舗名":"あじさい","住所":"〒183-0015東京都府中市清水が丘一丁目1番地の14","ステータス":"APP_DISPLAY","region":"Fuchu","lat":35.669334,"lng":139.494217},{"店舗名":"八幡食堂","住所":"〒183-0016 東京都府中市八幡町３丁目１９−２０","ステータス":"APP_DISPLAY","region":"Fuchu","lat":35.669147,"lng":139.492371},{"店舗名":"とっとーと！","住所":"〒183-0021","ステータス":"APP_DISPLAY","region":"Fuchu","lat":35.671425,"lng":139.471405},{"店舗名":"居酒屋風","住所":"〒183-0021","ステータス":"APP_DISPLAY","region":"Fuchu","lat":35.671425,"lng":139.471405},{"店舗名":"ハンバーグ風","住所":"〒183-0021 東京都府中市片町１丁目６-１","ステータス":"APP_DISPLAY","region":"Fuchu","lat":35.671543,"lng":139.470322},{"店舗名":"味の天徳 分倍河原店","住所":"〒183-0021 東京都府中市片町２丁目","ステータス":"APP_DISPLAY","region":"Fuchu","lat":35.66972,"lng":139.471237},{"店舗名":"アンジー・アベニュー","住所":"〒183-0021 東京都府中市片町２丁目１８−３","ステータス":"APP_DISPLAY","region":"Fuchu","lat":35.669651,"lng":139.469437},{"店舗名":"たこ焼きとほるもん酒場ゑえやん Takoyaki&Hormone Sakaba Eeyan","住所":"〒183-0021 東京都府中市片町２丁目１８−３","ステータス":"APP_DISPLAY","region":"Fuchu","lat":35.669651,"lng":139.469437},{"店舗名":"肉汁餃子のダンダダン 分倍河原店","住所":"〒183-0021 東京都府中市片町２丁目１８−７","ステータス":"APP_DISPLAY","region":"Fuchu","lat":35.669651,"lng":139.469437},{"店舗名":"TAGIRU BURGER～炭火屋の本気ハンバーガー～","住所":"〒183-0021 東京都府中市片町2丁目18番地の9","ステータス":"APP_DISPLAY","region":"Fuchu","lat":35.669651,"lng":139.469437},{"店舗名":"二段仕込み唐揚げ『鶏の福』 分倍河原駅前店","住所":"〒183-0021 東京都府中市片町２丁目２０","ステータス":"APP_DISPLAY","region":"Fuchu","lat":35.66964,"lng":139.468994},{"店舗名":"ナポリデイズ 分倍河原駅前店","住所":"〒183-0021 東京都府中市片町２丁目２０","ステータス":"APP_DISPLAY","region":"Fuchu","lat":35.66964,"lng":139.468994},{"店舗名":"【からあげグランプリ金賞受賞】 とりいちず 分倍河原店","住所":"〒183-0021 東京都府中市片町２丁目２０ー２８","ステータス":"APP_DISPLAY","region":"Fuchu","lat":35.66964,"lng":139.468994},{"店舗名":"ごはんがすすむ！油淋鶏飯店 分倍河原駅前店","住所":"〒183-0021 東京都府中市片町２丁目２０ー２８","ステータス":"APP_DISPLAY","region":"Fuchu","lat":35.66964,"lng":139.468994},{"店舗名":"ドネルケバブ&ナンハウス","住所":"〒183-0021 東京都府中市片町２丁目２０−１１","ステータス":"APP_DISPLAY","region":"Fuchu","lat":35.66964,"lng":139.468994},{"店舗名":"ミートロック","住所":"〒183-0021 東京都府中市片町２丁目２０−１４","ステータス":"APP_DISPLAY","region":"Fuchu","lat":35.66964,"lng":139.468994},{"店舗名":"【アサイー&グリークヨーグルト】GREEKSPOON 府中片町店","住所":"〒183-0021 東京都府中市片町２丁目２０−１４","ステータス":"RECEIPT","region":"Fuchu","lat":35.66964,"lng":139.468994},{"店舗名":"カリカリ唐揚げ専門店 カリチキ 分倍河原店","住所":"〒183-0021 東京都府中市片町２丁目２０-２８","ステータス":"APP_DISPLAY","region":"Fuchu","lat":35.66964,"lng":139.468994},{"店舗名":"ごはんが進む！『チキン南蛮本舗』 分倍河原店","住所":"〒183-0021 東京都府中市片町２丁目２０－２８","ステータス":"APP_DISPLAY","region":"Fuchu","lat":35.66964,"lng":139.468994},{"店舗名":"果茶果茶 分倍河原駅前店","住所":"〒183-0021 東京都府中市片町２丁目２０－２８","ステータス":"APP_DISPLAY","region":"Fuchu","lat":35.66964,"lng":139.468994},{"店舗名":"『油そば桐ちゃん』～食べログ百名店 桐麺監修～ 分倍河原駅前店","住所":"〒183-0021 東京都府中市片町２丁目２０−２８","ステータス":"APP_DISPLAY","region":"Fuchu","lat":35.66964,"lng":139.468994},{"店舗名":"わらび餅茶屋 分倍河原駅前店","住所":"〒183-0021 東京都府中市片町２丁目２０−２８","ステータス":"APP_DISPLAY","region":"Fuchu","lat":35.66964,"lng":139.468994},{"店舗名":"ビックエコーデリバリー 分倍河原駅前店","住所":"〒183-0021 東京都府中市片町２丁目20−２８ 三和ビル 1F","ステータス":"APP_DISPLAY","region":"Fuchu","lat":35.66964,"lng":139.468994},{"店舗名":"分倍河原肉流通センター","住所":"〒183-0021 東京都府中市片町２丁目２１−９ 2F","ステータス":"APP_DISPLAY","region":"Fuchu","lat":35.668827,"lng":139.468979},{"店舗名":"はなまるうどん MINANO分倍河原店","住所":"〒183-0021 東京都府中市片町３丁目２２−２６","ステータス":"APP_DISPLAY","region":"Fuchu","lat":35.667587,"lng":139.469437},{"店舗名":"ダイニング酒場うときて","住所":"〒183-0022 東京都府中市宮西町１丁目１７−３","ステータス":"APP_DISPLAY","region":"Fuchu","lat":35.672104,"lng":139.476608},{"店舗名":"果茶果茶 府中駅前店","住所":"〒183-0022 東京都府中市宮西町１丁目３−３","ステータス":"APP_DISPLAY","region":"Fuchu","lat":35.672028,"lng":139.478622},{"店舗名":"ミルゼリッチ 府中駅前店","住所":"〒183-0022 東京都府中市宮西町１丁目３−３","ステータス":"APP_DISPLAY","region":"Fuchu","lat":35.672028,"lng":139.478622},{"店舗名":"わらび餅茶屋 府中駅前店","住所":"〒183-0022 東京都府中市宮西町１丁目３−３","ステータス":"APP_DISPLAY","region":"Fuchu","lat":35.672028,"lng":139.478622},{"店舗名":"ビックエコーデリバリー 府中駅前店","住所":"〒183-0022 東京都府中市宮西町１丁目3−３ Bビル 5F","ステータス":"APP_DISPLAY","region":"Fuchu","lat":35.672028,"lng":139.478622},{"店舗名":"隠れ菴　忍家府中駅南口店","住所":"〒183-0022 東京都府中市宮西町１丁目５−１","ステータス":"APP_DISPLAY","region":"Fuchu","lat":35.671482,"lng":139.478882},{"店舗名":"府中けやきテラス","住所":"〒183-0022 東京都府中市宮西町２－２－１２","ステータス":"APP_DISPLAY","region":"Fuchu","lat":35.670345,"lng":139.478867},{"店舗名":"東京からあげ極鶏府中北店","住所":"〒183-0022 東京都府中市宮西町２－２－１２","ステータス":"APP_DISPLAY","region":"Fuchu","lat":35.670345,"lng":139.478867},{"店舗名":"横浜家系ラーメン 府中大和家","住所":"〒183-0022 東京都府中市宮西町２丁目","ステータス":"APP_DISPLAY","region":"Fuchu","lat":35.669765,"lng":139.477631},{"店舗名":"博多ラーメン長浜や 府中店","住所":"〒183-0022 東京都府中市宮西町２丁目１−１","ステータス":"APP_DISPLAY","region":"Fuchu","lat":35.670685,"lng":139.478851},{"店舗名":"カレーハウス CoCo壱番屋 府中宮西店","住所":"〒183-0022 東京都府中市宮西町２丁目１５−１","ステータス":"APP_DISPLAY","region":"Fuchu","lat":35.669796,"lng":139.477325},{"店舗名":"肉汁餃子のダンダダン 府中店","住所":"〒183-0022 東京都府中市宮西町２丁目３−１","ステータス":"APP_DISPLAY","region":"Fuchu","lat":35.670612,"lng":139.478409},{"店舗名":"カレー ダイニング Chai","住所":"〒183-0022 東京都府中市宮西町２丁目３−９","ステータス":"APP_DISPLAY","region":"Fuchu","lat":35.670612,"lng":139.478409},{"店舗名":"麺屋　富士","住所":"〒183-0022 東京都府中市宮西町２丁目９−１","ステータス":"APP_DISPLAY","region":"Fuchu","lat":35.670647,"lng":139.477234},{"店舗名":"伝説のすた丼屋 府中店","住所":"〒183-0022 東京都府中市宮西町３丁目２２−２","ステータス":"APP_DISPLAY","region":"Fuchu","lat":35.671055,"lng":139.47644},{"店舗名":"手打ちそば 吉見家","住所":"〒183-0022 東京都府中市宮西町４丁目１６−１","ステータス":"APP_DISPLAY","region":"Fuchu","lat":35.670124,"lng":139.47438},{"店舗名":"ピザハット 府中店","住所":"〒183-0022 東京都府中市宮西町５丁目６−５","ステータス":"APP_DISPLAY","region":"Fuchu","lat":35.669643,"lng":139.475403},{"店舗名":"牡蠣BASARA","住所":"〒183-0022 東京都府中市宮西町一丁目15番地の5","ステータス":"APP_DISPLAY","region":"Fuchu","lat":35.672115,"lng":139.477158},{"店舗名":"ココマンナ府中くるる店","住所":"〒183-0023 東京都府中市宮町１丁目","ステータス":"APP_DISPLAY","region":"Fuchu","lat":35.67123,"lng":139.481461},{"店舗名":"オリジーPHO","住所":"〒183-0023 東京都府中市宮町１丁目","ステータス":"APP_DISPLAY","region":"Fuchu","lat":35.67123,"lng":139.481461},{"店舗名":"カフェ オレンジブーツ","住所":"〒183-0023 東京都府中市宮町１丁目１００","ステータス":"APP_DISPLAY","region":"Fuchu","lat":35.67123,"lng":139.481461},{"店舗名":"海鮮丼の店 やまけい kaisendonnomise yamakei","住所":"〒183-0023 東京都府中市宮町１丁目１００","ステータス":"APP_DISPLAY","region":"Fuchu","lat":35.67123,"lng":139.481461},{"店舗名":"吉野家 ルシーニュ府中店","住所":"〒183-0023 東京都府中市宮町１丁目１００","ステータス":"APP_DISPLAY","region":"Fuchu","lat":35.67123,"lng":139.481461},{"店舗名":"大衆食堂 定食のまる大 府中店","住所":"〒183-0023 東京都府中市宮町１丁目１００","ステータス":"APP_DISPLAY","region":"Fuchu","lat":35.67123,"lng":139.481461},{"店舗名":"大衆鰻 うな銀 府中ル・シーニュ店","住所":"〒183-0023 東京都府中市宮町１丁目１００","ステータス":"APP_DISPLAY","region":"Fuchu","lat":35.67123,"lng":139.481461},{"店舗名":"リンガーハット 府中駅南口店","住所":"〒183-0023 東京都府中市宮町１丁目１００","ステータス":"APP_DISPLAY","region":"Fuchu","lat":35.67123,"lng":139.481461},{"店舗名":"とんかつの和吉 府中ル・シーニュ店","住所":"〒183-0023 東京都府中市宮町１丁目１００ ル・シーニュ 3F","ステータス":"APP_DISPLAY","region":"Fuchu","lat":35.67123,"lng":139.481461},{"店舗名":"築地銀だこ 府中ル・シーニュ店","住所":"〒183-0023 東京都府中市宮町１丁目１００−１","ステータス":"APP_DISPLAY","region":"Fuchu","lat":35.67123,"lng":139.481461},{"店舗名":"常勝JHO-SHO（ASIAN CURRY）","住所":"〒183-0023 東京都府中市宮町１丁目１１−８","ステータス":"APP_DISPLAY","region":"Fuchu","lat":35.670834,"lng":139.480881},{"店舗名":"ケンタッキーフライドチキン フォーリス府中店","住所":"〒183-0023 東京都府中市宮町１丁目４１−１","ステータス":"APP_DISPLAY","region":"Fuchu","lat":35.670776,"lng":139.479736},{"店舗名":"じげもんちゃんぽんミッテン府中店","住所":"〒183-0023 東京都府中市宮町１丁目４１−２","ステータス":"APP_DISPLAY","region":"Fuchu","lat":35.670776,"lng":139.479736},{"店舗名":"タイ料理 ダリマ 府中店","住所":"〒183-0023 東京都府中市宮町１丁目４１−２","ステータス":"APP_DISPLAY","region":"Fuchu","lat":35.670776,"lng":139.479736},{"店舗名":"台北茶房 taipeisabou","住所":"〒183-0023 東京都府中市宮町１丁目４１−２","ステータス":"APP_DISPLAY","region":"Fuchu","lat":35.670776,"lng":139.479736},{"店舗名":"インド料理 アジアンダイニングダリマ府中店","住所":"〒183-0023 東京都府中市宮町１丁目４１−２","ステータス":"APP_DISPLAY","region":"Fuchu","lat":35.670776,"lng":139.479736},{"店舗名":"タレカツ×タルタルソース　背徳のたれかつ亭　府中店","住所":"〒183-0023 東京都府中市宮町１丁目４１−２","ステータス":"APP_DISPLAY","region":"Fuchu","lat":35.670776,"lng":139.479736},{"店舗名":"あずまやミッテン府中店","住所":"〒183-0023 東京都府中市宮町１丁目４１−２ ミッテン府中","ステータス":"APP_DISPLAY","region":"Fuchu","lat":35.670776,"lng":139.479736},{"店舗名":"モンスターグリルミッテン府中店","住所":"〒183-0023 東京都府中市宮町１丁目４２−２","ステータス":"APP_DISPLAY","region":"Fuchu","lat":35.67123,"lng":139.481461},{"店舗名":"KIZUNADININGandWANTOKCAFE府中くるる店","住所":"〒183-0023 東京都府中市宮町１丁目５０","ステータス":"APP_DISPLAY","region":"Fuchu","lat":35.671555,"lng":139.480728},{"店舗名":"ケンタッキーフライドチキン くるる府中店","住所":"〒183-0023 東京都府中市宮町１丁目５０","ステータス":"APP_DISPLAY","region":"Fuchu","lat":35.671555,"lng":139.480728},{"店舗名":"出汁自慢　お好み焼き ぱすたかん 府中店","住所":"〒183-0023 東京都府中市宮町１丁目５０","ステータス":"APP_DISPLAY","region":"Fuchu","lat":35.671555,"lng":139.480728},{"店舗名":"目利きの銀次 府中ル・シーニュ店","住所":"〒183-0023東京都府中市宮町１丁目１００","ステータス":"APP_DISPLAY","region":"Fuchu","lat":35.67123,"lng":139.481461},{"店舗名":"千鳥","住所":"〒183-0025 東京都府中市矢崎町１丁目３−３","ステータス":"APP_DISPLAY","region":"Fuchu","lat":35.663963,"lng":139.479675},{"店舗名":"韓国料理チキンイムニダ","住所":"〒183-0025 東京都府中市矢崎町４丁目１","ステータス":"APP_DISPLAY","region":"Fuchu","lat":35.658772,"lng":139.478363},{"店舗名":"中国家庭料理 喜洋","住所":"〒183-0025 東京都府中市矢崎町４丁目１","ステータス":"APP_DISPLAY","region":"Fuchu","lat":35.658772,"lng":139.478363},{"店舗名":"新潟らーめんとタレカツ丼専門店 潟食","住所":"〒183-0025 東京都府中市矢崎町４丁目１","ステータス":"APP_DISPLAY","region":"Fuchu","lat":35.658772,"lng":139.478363},{"店舗名":"膳LABOひっせい ZENLABOHISSEI","住所":"〒183-0025 東京都府中市矢崎町４丁目１","ステータス":"APP_DISPLAY","region":"Fuchu","lat":35.658772,"lng":139.478363},{"店舗名":"LUCE","住所":"〒183-0025 東京都府中市矢崎町４丁目１番地","ステータス":"APP_DISPLAY","region":"Fuchu","lat":35.658772,"lng":139.478363},{"店舗名":"のんしゃらん食堂","住所":"〒183-0025 東京都府中市矢崎町四丁目１番地","ステータス":"APP_DISPLAY","region":"Fuchu","lat":35.658772,"lng":139.478363},{"店舗名":"フラミンゴ・リボーン","住所":"〒183-0026 東京都府中市南町２丁目２４−５","ステータス":"APP_DISPLAY","region":"Fuchu","lat":35.658436,"lng":139.465698},{"店舗名":"焼肉上田屋 府中本町店","住所":"〒183-0027 東京都府中市本町１－１３－３","ステータス":"APP_DISPLAY","region":"Fuchu","lat":35.667145,"lng":139.477386},{"店舗名":"【フルーツたっぷりアサイーボウル】ワイキキ・ボウルズ府中本町店","住所":"〒183-0027 東京都府中市本町１丁目１３−３","ステータス":"APP_DISPLAY","region":"Fuchu","lat":35.667145,"lng":139.477386},{"店舗名":"Fresh Poke Works府中本町店","住所":"〒183-0027 東京都府中市本町１丁目１３−３","ステータス":"APP_DISPLAY","region":"Fuchu","lat":35.667145,"lng":139.477386},{"店舗名":"【本格麻辣×自家製春雨】白虎麻辣湯 府中本町店","住所":"〒183-0027 東京都府中市本町１丁目１３−３","ステータス":"APP_DISPLAY","region":"Fuchu","lat":35.667145,"lng":139.477386},{"店舗名":"【クリームたっぷり生ドーナツ】FuWaDonuts 府中本町店","住所":"〒183-0027 東京都府中市本町１丁目１３−３","ステータス":"APP_DISPLAY","region":"Fuchu","lat":35.667145,"lng":139.477386},{"店舗名":"【雑穀×発酵×ねばとろ丼】ねばとろみのり 府中本町店","住所":"〒183-0027 東京都府中市本町１丁目１３−３","ステータス":"APP_DISPLAY","region":"Fuchu","lat":35.667145,"lng":139.477386},{"店舗名":"究極のソーセージエッグ丼 府中本町店","住所":"〒183-0027 東京都府中市本町１丁目１３−３","ステータス":"APP_DISPLAY","region":"Fuchu","lat":35.667145,"lng":139.477386},{"店舗名":"やきとり道場 府中本町店","住所":"〒183-0027 東京都府中市本町１丁目１３−３ カネタビル","ステータス":"APP_DISPLAY","region":"Fuchu","lat":35.667145,"lng":139.477386},{"店舗名":"脇町珈琲","住所":"〒183-0027 東京都府中市本町２丁目２０−４４","ステータス":"APP_DISPLAY","region":"Fuchu","lat":35.666134,"lng":139.475845},{"店舗名":"やきとり たぬき","住所":"〒183-0027 東京都府中市本町２丁目２０−７１","ステータス":"APP_DISPLAY","region":"Fuchu","lat":35.666134,"lng":139.475845},{"店舗名":"【背脂たっぷり】まぜそば超ごってり麺ごっつ本町2丁目店","住所":"〒183-0027 東京都府中市本町２丁目６−１４","ステータス":"APP_DISPLAY","region":"Fuchu","lat":35.667103,"lng":139.475159},{"店舗名":"街のおむらいす屋さんgood!本町2丁目店","住所":"〒183-0027 東京都府中市本町２丁目６−１４","ステータス":"APP_DISPLAY","region":"Fuchu","lat":35.667103,"lng":139.475159},{"店舗名":"台湾ジーパイ専門店CHICKEN NICE本町2丁目店","住所":"〒183-0027 東京都府中市本町２丁目６−１４","ステータス":"APP_DISPLAY","region":"Fuchu","lat":35.667103,"lng":139.475159},{"店舗名":"男めし！国産ホロモン焼きそば","住所":"〒183-0027 東京都府中市本町２丁目６−１４","ステータス":"APP_DISPLAY","region":"Fuchu","lat":35.667103,"lng":139.475159},{"店舗名":"豚でもない角煮丼 HUTTON","住所":"〒183-0027 東京都府中市本町２丁目６−１４","ステータス":"APP_DISPLAY","region":"Fuchu","lat":35.667103,"lng":139.475159},{"店舗名":"CHICKEN-NewYorkOverRice","住所":"〒183-0027 東京都府中市本町２丁目６−１４","ステータス":"APP_DISPLAY","region":"Fuchu","lat":35.667103,"lng":139.475159},{"店舗名":"Bhimeshwor Dining&Bar","住所":"〒183-0027 東京都府中市本町２丁目６−１４ MIビル","ステータス":"APP_DISPLAY","region":"Fuchu","lat":35.667103,"lng":139.475159},{"店舗名":"【フルーツたっぷりアサイーボウル】ワイキキ・ボウルズ","住所":"〒183-0031 東京都府中市西府町１丁目","ステータス":"RECEIPT","region":"Fuchu","lat":35.672493,"lng":139.454834},{"店舗名":"【アサイー&グリークヨーグルト】GREEKSPOON","住所":"〒183-0031 東京都府中市西府町１丁目","ステータス":"RECEIPT","region":"Fuchu","lat":35.672493,"lng":139.454834},{"店舗名":"【本格麻辣×自家製春雨】白虎麻辣湯","住所":"〒183-0031 東京都府中市西府町１丁目","ステータス":"RECEIPT","region":"Fuchu","lat":35.672493,"lng":139.454834},{"店舗名":"FreshPokeWorks","住所":"〒183-0031 東京都府中市西府町１丁目","ステータス":"RECEIPT","region":"Fuchu","lat":35.672493,"lng":139.454834},{"店舗名":"【メガ盛り:bangbang:】1キロ弁当工房肉MAX!!大盛りからあげお弁当","住所":"〒183-0031 東京都府中市西府町１丁目","ステータス":"RECEIPT","region":"Fuchu","lat":35.672493,"lng":139.454834},{"店舗名":"MR.coffeestand/hamburger","住所":"〒183-0031 東京都府中市西府町１丁目４６−５","ステータス":"APP_DISPLAY","region":"Fuchu","lat":35.672493,"lng":139.454834},{"店舗名":"リンガーハット 府中西府町店","住所":"〒183-0031 東京都府中市西府町３丁目２１−１","ステータス":"APP_DISPLAY","region":"Fuchu","lat":35.679874,"lng":139.458664},{"店舗名":"丸源ラーメン 西府中店","住所":"〒183-0031 東京都府中市西府町５丁目１２−５","ステータス":"APP_DISPLAY","region":"Fuchu","lat":35.676334,"lng":139.451996},{"店舗名":"魚民 西府北口駅前店","住所":"〒183-0032 東京都府中市本宿町１丁目4６－８","ステータス":"APP_DISPLAY","region":"Fuchu","lat":35.670486,"lng":139.459213},{"店舗名":"からあげの鉄人 西府北口駅前店","住所":"〒183-0032 東京都府中市本宿町１丁目46−８ 西府駅エクセルポートビル 2階","ステータス":"APP_DISPLAY","region":"Fuchu","lat":35.670486,"lng":139.459213},{"店舗名":"だし麺屋ナミノアヤ 府中店","住所":"〒183-0032 東京都府中市本宿町２丁目１９−８ SUERTE府中","ステータス":"APP_DISPLAY","region":"Fuchu","lat":35.673679,"lng":139.459427},{"店舗名":"ナンカレーハウス","住所":"〒183-0033 東京都府中市分梅町４丁目２−２２ 1階","ステータス":"APP_DISPLAY","region":"Fuchu","lat":35.664467,"lng":139.462997},{"店舗名":"唐揚げ専門店ポヨ","住所":"〒183-0034","ステータス":"APP_DISPLAY","region":"Fuchu","lat":35.660835,"lng":139.459717},{"店舗名":"吉野家 府中中河原店","住所":"〒183-0034 東京都府中市住吉町１丁目２０−１","ステータス":"APP_DISPLAY","region":"Fuchu","lat":35.662392,"lng":139.458038},{"店舗名":"Cafe &Sweets Patisserie柚子","住所":"〒183-0034 東京都府中市住吉町１丁目29−１８","ステータス":"APP_DISPLAY","region":"Fuchu","lat":35.661221,"lng":139.459732},{"店舗名":"串揚げ　志のむら","住所":"〒183-0034 東京都府中市住吉町１丁目３８−１","ステータス":"APP_DISPLAY","region":"Fuchu","lat":35.661015,"lng":139.458939},{"店舗名":"インドネパールキッチン","住所":"〒183-0034 東京都府中市住吉町１丁目４４−１０","ステータス":"APP_DISPLAY","region":"Fuchu","lat":35.66061,"lng":139.458618},{"店舗名":"ぼっけもん製麺 中河原店","住所":"〒183-0034 東京都府中市住吉町１丁目４７−４","ステータス":"APP_DISPLAY","region":"Fuchu","lat":35.660915,"lng":139.457993},{"店舗名":"アジア総合食品 タイストア","住所":"〒183-0034 東京都府中市住吉町２丁目 中河原ビル","ステータス":"RECEIPT","region":"Fuchu","lat":35.656212,"lng":139.458771},{"店舗名":"KIZUNADINING中河原店","住所":"〒183-0034 東京都府中市住吉町２丁目２−２０","ステータス":"APP_DISPLAY","region":"Fuchu","lat":35.659245,"lng":139.45784},{"店舗名":"魚民 中河原駅前店","住所":"〒183-0034 東京都府中市住吉町４丁目１１−１５","ステータス":"APP_DISPLAY","region":"Fuchu","lat":35.659908,"lng":139.456635},{"店舗名":"らー麺 ときん","住所":"〒183-0034 東京都府中市住吉町４丁目１１−１５","ステータス":"APP_DISPLAY","region":"Fuchu","lat":35.659908,"lng":139.456635},{"店舗名":"からあげの鉄人 中河原駅前店","住所":"〒183-0034 東京都府中市住吉町４丁目１１−１５ 相澤ビル","ステータス":"APP_DISPLAY","region":"Fuchu","lat":35.659908,"lng":139.456635},{"店舗名":"中華料理 劉記","住所":"〒183-0034 東京都府中市住吉町５丁目","ステータス":"APP_DISPLAY","region":"Fuchu","lat":35.656895,"lng":139.453812},{"店舗名":"居酒屋Dining Chi-‘m","住所":"〒183-0034 東京都府中市住吉町５丁目７−１２ 森田ビル","ステータス":"APP_DISPLAY","region":"Fuchu","lat":35.657974,"lng":139.456573},{"店舗名":"北京家庭菜 中河原店","住所":"〒183-0034 東京都府中市住吉町５丁目７−１３","ステータス":"APP_DISPLAY","region":"Fuchu","lat":35.657974,"lng":139.456573},{"店舗名":"フォーホア東京","住所":"〒183-0034 東京都府中市住吉町二丁目17番地の31","ステータス":"APP_DISPLAY","region":"Fuchu","lat":35.65863,"lng":139.457352},{"店舗名":"米乃家 府中四谷店","住所":"〒183-0035 東京都府中市四谷５丁目２３−１２","ステータス":"APP_DISPLAY","region":"Fuchu","lat":35.668419,"lng":139.438004},{"店舗名":"たま家食堂　美好町店","住所":"〒183-0045 東京都府中市美好町１丁目１８−３","ステータス":"APP_DISPLAY","region":"Fuchu","lat":35.673279,"lng":139.470093},{"店舗名":"手打ちそば ふるた","住所":"〒183-0045 東京都府中市美好町３丁目１−２５ 蕎麦屋ふるた","ステータス":"APP_DISPLAY","region":"Fuchu","lat":35.670872,"lng":139.469086},{"店舗名":"ケンタッキーフライドチキン サミット府中西原店","住所":"〒183-0046 東京都府中市西原町１丁目３−１","ステータス":"APP_DISPLAY","region":"Fuchu","lat":35.680897,"lng":139.459824},{"店舗名":"太陽のタコライス＆スムージー『ジン』栄町2丁目4号店","住所":"〒183-0051 東京都府中市栄町２丁目","ステータス":"APP_DISPLAY","region":"Fuchu","lat":35.688385,"lng":139.477631},{"店舗名":"カレーキング 栄町店","住所":"〒183-0051 東京都府中市栄町２丁目２７−２０","ステータス":"APP_DISPLAY","region":"Fuchu","lat":35.689861,"lng":139.479706},{"店舗名":"二郎系味噌まぜそばみそ無双栄 町2丁目4号店","住所":"〒183-0051 東京都府中市栄町２丁目２７−２０ 一三荘","ステータス":"APP_DISPLAY","region":"Fuchu","lat":35.689861,"lng":139.479706},{"店舗名":"焼きたてのはらみ 匠 栄町2丁目4号店","住所":"〒183-0051 東京都府中市栄町２丁目２７−２０ 一三荘","ステータス":"APP_DISPLAY","region":"Fuchu","lat":35.689861,"lng":139.479706},{"店舗名":"すたみなどんぶり がーりっ君 栄町2丁目4号店","住所":"〒183-0051 東京都府中市栄町２丁目２７−２０ 一三荘","ステータス":"APP_DISPLAY","region":"Fuchu","lat":35.689861,"lng":139.479706},{"店舗名":"あまみ寿司","住所":"〒183-0052","ステータス":"APP_DISPLAY","region":"Fuchu","lat":35.687828,"lng":139.487167},{"店舗名":"レストラン きんとき","住所":"〒183-0052 東京都府中市新町１丁目６７−２","ステータス":"APP_DISPLAY","region":"Fuchu","lat":35.687817,"lng":139.490509},{"店舗名":"恵家中華パン","住所":"〒183-0052 東京都府中市新町２丁目２−１","ステータス":"APP_DISPLAY","region":"Fuchu","lat":35.685081,"lng":139.489777},{"店舗名":"肉汁たっぷり餃子館　府中本店","住所":"〒183-0052 東京都府中市新町２丁目２−１","ステータス":"RECEIPT","region":"Fuchu","lat":35.685081,"lng":139.489777},{"店舗名":"ジェリーズポップコーンゆめ","住所":"〒183-0053 東京都府中市天神町３丁目１４−６ 第三堀江ビル","ステータス":"APP_DISPLAY","region":"Fuchu","lat":35.684647,"lng":139.488205},{"店舗名":"フレッシュネスバーガー 府中駅前店","住所":"〒183-0055 東京都府中市府中町１丁目１４−１","ステータス":"APP_DISPLAY","region":"Fuchu","lat":35.673698,"lng":139.479523},{"店舗名":"ウェンディーズ・ファーストキッチンぷらりと京王府中店","住所":"〒183-0055 東京都府中市府中町１丁目２−１","ステータス":"APP_DISPLAY","region":"Fuchu","lat":35.672462,"lng":139.479797},{"店舗名":"四季キッチン ぷらりと京王府中店","住所":"〒183-0055 東京都府中市府中町１丁目３−６","ステータス":"APP_DISPLAY","region":"Fuchu","lat":35.6721,"lng":139.480743},{"店舗名":"串カツ田中 ぷらりと京王府中店","住所":"〒183-0055 東京都府中市府中町１丁目３−６","ステータス":"APP_DISPLAY","region":"Fuchu","lat":35.6721,"lng":139.480743},{"店舗名":"カレーショップC&C ぷらりと京王府中店","住所":"〒183-0055 東京都府中市府中町１丁目３−６","ステータス":"APP_DISPLAY","region":"Fuchu","lat":35.6721,"lng":139.480743},{"店舗名":"大盛スタミナ肉丼 ニンニク野郎 ぷらりと京王府中店","住所":"〒183-0055 東京都府中市府中町１丁目３−６","ステータス":"APP_DISPLAY","region":"Fuchu","lat":35.6721,"lng":139.480743},{"店舗名":"京都らーめんよこ川","住所":"〒183-0055 東京都府中市府中町１丁目５−７","ステータス":"APP_DISPLAY","region":"Fuchu","lat":35.672295,"lng":139.481735},{"店舗名":"アカマル屋 府中店","住所":"〒183-0055 東京都府中市府中町１丁目６−１","ステータス":"APP_DISPLAY","region":"Fuchu","lat":35.672344,"lng":139.481323},{"店舗名":"海鮮巻きとおでん専門店 三幸 府中店","住所":"〒183-0055 東京都府中市府中町１丁目６−１","ステータス":"APP_DISPLAY","region":"Fuchu","lat":35.672344,"lng":139.481323},{"店舗名":"マグロ＊リスペクト 府中店","住所":"〒183-0055 東京都府中市府中町１丁目６−１","ステータス":"APP_DISPLAY","region":"Fuchu","lat":35.672344,"lng":139.481323},{"店舗名":"ゴールデンポテト 府中店","住所":"〒183-0055 東京都府中市府中町１丁目６−１","ステータス":"APP_DISPLAY","region":"Fuchu","lat":35.672344,"lng":139.481323},{"店舗名":"炭火焼鳥とりまる 府中店","住所":"〒183-0055 東京都府中市府中町１丁目６−１","ステータス":"APP_DISPLAY","region":"Fuchu","lat":35.672344,"lng":139.481323},{"店舗名":"海鮮丼屋 吉今 府中店","住所":"〒183-0055 東京都府中市府中町１丁目６−１","ステータス":"APP_DISPLAY","region":"Fuchu","lat":35.672344,"lng":139.481323},{"店舗名":"FUCHU SAKURA GARDEN (さくらガーデン)","住所":"〒183-0055 東京都府中市府中町２丁目２４","ステータス":"APP_DISPLAY","region":"Fuchu","lat":35.675941,"lng":139.483887},{"店舗名":"東京からあげ極鶏 府中北店 Tokyo Fried Chiken Gokuchie","住所":"〒183-0055 東京都府中市府中町２丁目２４","ステータス":"APP_DISPLAY","region":"Fuchu","lat":35.675941,"lng":139.483887},{"店舗名":"Meat & Bar ISSEI","住所":"〒183-0055 東京都府中市府中町２丁目６−１","ステータス":"APP_DISPLAY","region":"Fuchu","lat":35.672283,"lng":139.483124},{"店舗名":"CONABACCA  府中","住所":"〒183-0055 東京都府中市府中町２丁目６−１","ステータス":"APP_DISPLAY","region":"Fuchu","lat":35.672283,"lng":139.483124},{"店舗名":"新特一番","住所":"〒183-0055 東京都府中市府中町３丁目１３−９","ステータス":"APP_DISPLAY","region":"Fuchu","lat":35.676525,"lng":139.48764},{"店舗名":"インドアジアンレストラン＆バー サハラ 府中店 INDO-ASIAN RESTAURANT & BAR SAHARA","住所":"〒183-0056 東京都府中市寿町１丁目３−１０","ステータス":"APP_DISPLAY","region":"Fuchu","lat":35.673115,"lng":139.478226},{"店舗名":"ナマステ","住所":"〒183-0056 東京都府中市寿町２丁目２７−１０","ステータス":"APP_DISPLAY","region":"Fuchu","lat":35.67783,"lng":139.473587},{"店舗名":"Dining Cafe SHURIO","住所":"〒183-0056 東京都府中市寿町３丁目４−１４","ステータス":"APP_DISPLAY","region":"Fuchu","lat":35.673553,"lng":139.474701},{"店舗名":"パスタと定食のキッチンマサ","住所":"〒183-0057 東京都府中市晴見町１丁目１２−１１","ステータス":"APP_DISPLAY","region":"Fuchu","lat":35.679756,"lng":139.479065},{"店舗名":"cafebrico","住所":"〒183-0057 東京都府中市晴見町１丁目２７−１ 常松ビル","ステータス":"APP_DISPLAY","region":"Fuchu","lat":35.680477,"lng":139.477798},{"店舗名":"HIMAL CURRY HOUSE","住所":"〒183-0057 東京都府中市晴見町２丁目３１−１１ ３１−１１","ステータス":"APP_DISPLAY","region":"Fuchu","lat":35.683582,"lng":139.470459},{"店舗名":"大楽フーチン","住所":"〒183-0057 東京都府中市晴見町３丁目１７−３","ステータス":"APP_DISPLAY","region":"Fuchu","lat":35.685863,"lng":139.478653},{"店舗名":"タージマハル アジアン ダイニングアンドバー","住所":"〒183-0057 東京都府中市晴見町３丁目３−１８","ステータス":"APP_DISPLAY","region":"Fuchu","lat":35.682632,"lng":139.479126},{"店舗名":"やすのたまぞう","住所":"〒183-0057 東京都府中市晴見町３丁目７−２","ステータス":"APP_DISPLAY","region":"Fuchu","lat":35.683407,"lng":139.479034},{"店舗名":"コジバル","住所":"〒735-0006 広島県安芸郡府中町本町１丁目１ー６","ステータス":"APP_DISPLAY","region":"Fuchu","lat":34.396389,"lng":132.505188},{"店舗名":"ミツボシカラアゲ　府中店","住所":"〒735-0006 広島県安芸郡府中町本町４丁目１２−１９","ステータス":"APP_DISPLAY","region":"Fuchu","lat":34.397068,"lng":132.505142},{"店舗名":"汁なし担担麺専門 キング軒 イオンモール広島府中店","住所":"〒735-0021 広島県安芸郡府中町大須２丁目","ステータス":"RECEIPT","region":"Fuchu","lat":34.39447,"lng":132.499222},{"店舗名":"リンガーハット イオンモール広島府中店","住所":"〒735-0021 広島県安芸郡府中町大須２丁目１−１","ステータス":"APP_DISPLAY","region":"Fuchu","lat":34.394566,"lng":132.499527},{"店舗名":"Satyam Vidhi Indian Dining","住所":"〒735-0021 広島県安芸郡府中町大須４丁目２−１０ サンリブ府中 2F","ステータス":"RECEIPT","region":"Fuchu","lat":34.397732,"lng":132.501251},{"店舗名":"お好み焼き とんとん","住所":"〒735-0022 広島県安芸郡府中町大通１丁目１−２７","ステータス":"APP_DISPLAY","region":"Fuchu","lat":34.389088,"lng":132.50705},{"店舗名":"ほっかほっか亭 府中浜田店","住所":"〒735-0023 広島県安芸郡府中町浜田本町３−３０ 岡村ビル","ステータス":"APP_DISPLAY","region":"Fuchu","lat":34.390453,"lng":132.507309},{"店舗名":"お好焼 サンキュウ","住所":"〒735-0026 広島県安芸郡府中町桃山","ステータス":"APP_DISPLAY","region":"Fuchu","lat":34.37933,"lng":132.506195},{"店舗名":"チキン・ウイングストリート 府中店","住所":"東京都府中市宮西町５－６－５パークハウス宮西１Ｆ","ステータス":"APP_DISPLAY","region":"Fuchu","lat":35.669643,"lng":139.475403},{"店舗名":"トスカーニパスタ 府中店","住所":"東京都府中市宮西町５－６－５パークハウス宮西１Ｆ","ステータス":"APP_DISPLAY","region":"Fuchu","lat":35.669643,"lng":139.475403},{"店舗名":"大戸屋ごはん処 府中北口店","住所":"東京都府中市府中町1-1-5府中高木ビルB1F","ステータス":"APP_DISPLAY","region":"Fuchu","lat":35.672947,"lng":139.479797},{"店舗名":"府中麻辣湯","住所":"東京都府中市寿町一丁目3番地の10","ステータス":"APP_DISPLAY","region":"Fuchu","lat":35.673115,"lng":139.478226},{"店舗名":"\"フライドポテト Shakaポテ！！ Journey 栄町2丁目4号店\"","住所":"東京都府中市栄町２丁目２７−２０ 一三荘","ステータス":"APP_DISPLAY","region":"Fuchu","lat":35.689861,"lng":139.479706}]