[{"店舗名":"ナンハウス カレー&ケバブ","住所":"〒356-0002 埼玉県ふじみ野市清見１丁目１−１","ステータス":"APP_DISPLAY","region":"Fujimino","lat":35.880878,"lng":139.519806},{"店舗名":"デニーズ 上福岡店","住所":"〒356-0002 埼玉県ふじみ野市清見１丁目１−７","ステータス":"APP_DISPLAY","region":"Fujimino","lat":35.880878,"lng":139.519806},{"店舗名":"ピザハット 上福岡店","住所":"〒356-0002 埼玉県ふじみ野市清見２丁目１−２３","ステータス":"APP_DISPLAY","region":"Fujimino","lat":35.881912,"lng":139.520523},{"店舗名":"TORANOKO","住所":"〒356-0003","ステータス":"RECEIPT","region":"Fujimino","lat":35.877705,"lng":139.515182},{"店舗名":"【本格麻辣×自家製春雨】白虎麻辣湯 大原1丁目店","住所":"〒356-0003 埼玉県ふじみ野市大原1-2-15","ステータス":"APP_DISPLAY","region":"Fujimino","lat":35.877495,"lng":139.517426},{"店舗名":"ネオ・アマーレ","住所":"〒356-0003 埼玉県ふじみ野市大原１丁目２−１５","ステータス":"APP_DISPLAY","region":"Fujimino","lat":35.877495,"lng":139.517426},{"店舗名":"BAMBICAFE-韓国発クロッフルサンド 大原1丁目店","住所":"〒356-0003 埼玉県ふじみ野市大原１丁目２−１５","ステータス":"APP_DISPLAY","region":"Fujimino","lat":35.877495,"lng":139.517426},{"店舗名":"海粋丼丸岡村屋ふじみ野店","住所":"〒356-0003 埼玉県ふじみ野市大原２丁目１−２４","ステータス":"APP_DISPLAY","region":"Fujimino","lat":35.879772,"lng":139.519348},{"店舗名":"創作割烹 旬菜","住所":"〒356-0004","ステータス":"APP_DISPLAY","region":"Fujimino","lat":35.874775,"lng":139.513168},{"店舗名":"K Laboカフェ","住所":"〒356-0004 埼玉県ふじみ野市上福岡","ステータス":"APP_DISPLAY","region":"Fujimino","lat":35.874775,"lng":139.513168},{"店舗名":"ZEN Asian Dining","住所":"〒356-0004 埼玉県ふじみ野市上福岡","ステータス":"APP_DISPLAY","region":"Fujimino","lat":35.874775,"lng":139.513168},{"店舗名":"【フルーツたっぷりアサイーボウル】ワイキキ・ボウルズ 上福岡1丁目店","住所":"〒356-0004 埼玉県ふじみ野市上福岡１－１２－９","ステータス":"APP_DISPLAY","region":"Fujimino","lat":35.87553,"lng":139.514221},{"店舗名":"【もっちり玄米と低脂質チキン】とりげん食堂 上福岡1丁目店","住所":"〒356-0004 埼玉県ふじみ野市上福岡１－１２－９","ステータス":"APP_DISPLAY","region":"Fujimino","lat":35.87553,"lng":139.514221},{"店舗名":"【メガ盛り‼】1キロ弁当工房肉MAX!!大盛りからあげお弁当 上福岡1丁目店","住所":"〒356-0004 埼玉県ふじみ野市上福岡１－１２－９","ステータス":"APP_DISPLAY","region":"Fujimino","lat":35.87553,"lng":139.514221},{"店舗名":"【出汁の旨みとたっぷり具材】雑炊の気分 上福岡1丁目店","住所":"〒356-0004 埼玉県ふじみ野市上福岡１－１２－９","ステータス":"APP_DISPLAY","region":"Fujimino","lat":35.87553,"lng":139.514221},{"店舗名":"ジジの、村","住所":"〒356-0004 埼玉県ふじみ野市上福岡１丁目","ステータス":"APP_DISPLAY","region":"Fujimino","lat":35.874775,"lng":139.513168},{"店舗名":"麺処いのさい inosai","住所":"〒356-0004 埼玉県ふじみ野市上福岡１丁目１１−１９","ステータス":"APP_DISPLAY","region":"Fujimino","lat":35.876854,"lng":139.51384},{"店舗名":"ディヘンスリランカレストラン","住所":"〒356-0004 埼玉県ふじみ野市上福岡１丁目１２−１７","ステータス":"APP_DISPLAY","region":"Fujimino","lat":35.876411,"lng":139.514771},{"店舗名":"濃厚ローストビーフとハラミ丼「タルビー」 東坂戸店","住所":"〒356-0004 埼玉県ふじみ野市上福岡１丁目１２−9-1F 1,102","ステータス":"APP_DISPLAY","region":"Fujimino","lat":35.87553,"lng":139.514221},{"店舗名":"群馬豚骨らーめん だるま大使-無限- 上福岡駅前店","住所":"〒356-0004 埼玉県ふじみ野市上福岡１丁目１−３５","ステータス":"APP_DISPLAY","region":"Fujimino","lat":35.873451,"lng":139.511978},{"店舗名":"ASIAN DINING BAR AND GRILL","住所":"〒356-0004 埼玉県ふじみ野市上福岡３丁目６−７ マンション秀王","ステータス":"APP_DISPLAY","region":"Fujimino","lat":35.872883,"lng":139.515244},{"店舗名":"熟成炙り牛タン ほのか 上福岡店","住所":"〒356-0004 埼玉県ふじみ野市上福岡３丁目６−７ マンション秀王","ステータス":"APP_DISPLAY","region":"Fujimino","lat":35.872883,"lng":139.515244},{"店舗名":"激盛り豚丼メガトン上福岡店","住所":"〒356-0004 埼玉県ふじみ野市上福岡３丁目６−７ マンション秀王","ステータス":"APP_DISPLAY","region":"Fujimino","lat":35.872883,"lng":139.515244},{"店舗名":"【アサイー＆グリーク】i'm bowls！ 上福岡店","住所":"〒356-0004 埼玉県ふじみ野市上福岡３丁目６−７ マンション秀王","ステータス":"APP_DISPLAY","region":"Fujimino","lat":35.872883,"lng":139.515244},{"店舗名":"NEPALI KITCHEN","住所":"〒356-0004 埼玉県ふじみ野市上福岡５丁目３−２２ 福の屋ビル","ステータス":"APP_DISPLAY","region":"Fujimino","lat":35.87183,"lng":139.512833},{"店舗名":"アジアンダイニングウタマ","住所":"〒356-0004 埼玉県ふじみ野市上福岡６-１-２０","ステータス":"APP_DISPLAY","region":"Fujimino","lat":35.871777,"lng":139.511368},{"店舗名":"喜界島","住所":"〒356-0004 埼玉県ふじみ野市上福岡６丁目１０−９","ステータス":"APP_DISPLAY","region":"Fujimino","lat":35.871414,"lng":139.511307},{"店舗名":"定食トンキーズカフェ","住所":"〒356-0004 埼玉県ふじみ野市上福岡６丁目１−２０","ステータス":"APP_DISPLAY","region":"Fujimino","lat":35.871777,"lng":139.511368},{"店舗名":"Mama Ghar Nepali & Indian Restaurant","住所":"〒356-0005 埼玉県ふじみ野市西２丁目１−２３","ステータス":"APP_DISPLAY","region":"Fujimino","lat":35.87241,"lng":139.507919},{"店舗名":"カレーハウス CoCo壱番屋 東武上福岡駅西口店","住所":"〒356-0006 埼玉県ふじみ野市霞ケ丘１丁目２−３","ステータス":"APP_DISPLAY","region":"Fujimino","lat":35.873573,"lng":139.510391},{"店舗名":"粒粒香　肉饅","住所":"〒356-0007 埼玉県ふじみ野市北野","ステータス":"APP_DISPLAY","region":"Fujimino","lat":35.877029,"lng":139.510635},{"店舗名":"呉さんのビビンバ イオンタウンふじみ野店","住所":"〒356-0011 埼玉県ふじみ野市福岡２丁目１−６","ステータス":"APP_DISPLAY","region":"Fujimino","lat":35.879387,"lng":139.522018},{"店舗名":"バーガーキングイオンタウンふじみ野店","住所":"〒356-0011 埼玉県ふじみ野市福岡２丁目１−６","ステータス":"APP_DISPLAY","region":"Fujimino","lat":35.879387,"lng":139.522018},{"店舗名":"ダナパニイオンタウンふじみ野店","住所":"〒356-0011 埼玉県ふじみ野市福岡２丁目１−６","ステータス":"APP_DISPLAY","region":"Fujimino","lat":35.879387,"lng":139.522018},{"店舗名":"ケンタッキーフライドチキン イオンタウンふじみ野店","住所":"〒356-0011 埼玉県ふじみ野市福岡２丁目１−６","ステータス":"APP_DISPLAY","region":"Fujimino","lat":35.879387,"lng":139.522018},{"店舗名":"舎鈴イオンタウンふじみ野店","住所":"〒356-0011 埼玉県ふじみ野市福岡２丁目１−６ イオンタウンふじみ野 ３Ｆ フードコート","ステータス":"APP_DISPLAY","region":"Fujimino","lat":35.879387,"lng":139.522018},{"店舗名":"ジャンクガレッジ イオンタウンふじみ野店","住所":"〒356-0011 埼玉県ふじみ野市福岡２丁目１−６ イオンタウンふじみ野 ３Ｆ フードコート","ステータス":"APP_DISPLAY","region":"Fujimino","lat":35.879387,"lng":139.522018},{"店舗名":"小僧寿し 上福岡中央店","住所":"〒356-0031 埼玉県ふじみ野市福岡中央１丁目２−５","ステータス":"APP_DISPLAY","region":"Fujimino","lat":35.873817,"lng":139.518997},{"店舗名":"元祖 からあげの中津家 上福岡中央店","住所":"〒356-0031 埼玉県ふじみ野市福岡中央１丁目２−５","ステータス":"APP_DISPLAY","region":"Fujimino","lat":35.873817,"lng":139.518997},{"店舗名":"コナズ珈琲 ふじみ野店","住所":"〒356-0041 埼玉県ふじみ野市鶴ヶ舞3-9-1","ステータス":"APP_DISPLAY","region":"Fujimino","lat":35.87064,"lng":139.504562},{"店舗名":"Ganapati Indian Restaurant","住所":"〒356-0041埼玉県ふじみ野市鶴ケ舞２－５－８","ステータス":"APP_DISPLAY","region":"Fujimino","lat":35.868015,"lng":139.510757},{"店舗名":"バガィチャ","住所":"〒356-0043 埼玉県ふじみ野市緑ケ丘１丁目３−２５","ステータス":"APP_DISPLAY","region":"Fujimino","lat":35.860226,"lng":139.502045},{"店舗名":"中華料理 金香源","住所":"〒356-0045 埼玉県 ふじみ野市 鶴ケ岡２-２６-２３","ステータス":"APP_DISPLAY","region":"Fujimino","lat":35.86615,"lng":139.507812},{"店舗名":"大戸屋ごはん処 上福岡店","住所":"〒356-0045 埼玉県ふじみ野市鶴ケ岡３丁目１０−２２","ステータス":"APP_DISPLAY","region":"Fujimino","lat":35.870182,"lng":139.504578},{"店舗名":"ジェラフル イオン大井店","住所":"〒356-0050 埼玉県ふじみ野市ふじみ野１丁目２−１","ステータス":"APP_DISPLAY","region":"Fujimino","lat":35.860817,"lng":139.513092},{"店舗名":"ダナパニ ふじみ野店","住所":"〒356-0050 埼玉県ふじみ野市ふじみ野２丁目２５−３３","ステータス":"APP_DISPLAY","region":"Fujimino","lat":35.862511,"lng":139.517853},{"店舗名":"ケンタッキーフライドチキン イオン大井店","住所":"〒356-0051 埼玉県ふじみ野市ふじみ野１丁目２−１","ステータス":"APP_DISPLAY","region":"Fujimino","lat":35.860817,"lng":139.513092},{"店舗名":"ラーメンまこと屋ふじみ野店","住所":"〒356-0051 埼玉県ふじみ野市亀久保４丁目７−１８","ステータス":"APP_DISPLAY","region":"Fujimino","lat":35.859207,"lng":139.512863},{"店舗名":"アジアン料理・ケバブ・タイ料理 ふじみ野苗間店","住所":"〒356-0052 埼玉県ふじみ野市苗間１丁目１３－３５","ステータス":"APP_DISPLAY","region":"Fujimino","lat":35.856758,"lng":139.521042},{"店舗名":"インドエスニック料理&バー DANAPANI","住所":"〒356-0052 埼玉県ふじみ野市苗間１丁目１３−３５","ステータス":"APP_DISPLAY","region":"Fujimino","lat":35.856758,"lng":139.521042},{"店舗名":"ドミノ・ピザ ふじみ野店","住所":"〒356-0052 埼玉県ふじみ野市苗間４０−２１","ステータス":"APP_DISPLAY","region":"Fujimino","lat":35.854275,"lng":139.513931},{"店舗名":"小僧寿し ふじみ野店","住所":"〒356-0055 埼玉県ふじみ野市旭１丁目１３−８","ステータス":"APP_DISPLAY","region":"Fujimino","lat":35.857845,"lng":139.519272},{"店舗名":"元祖 からあげの中津家 ふじみ野店","住所":"〒356-0055 埼玉県ふじみ野市旭１丁目１３−８","ステータス":"APP_DISPLAY","region":"Fujimino","lat":35.857845,"lng":139.519272},{"店舗名":"アサイー工房ふじみ野店","住所":"〒356-0055 埼玉県ふじみ野市旭１丁目１−４","ステータス":"APP_DISPLAY","region":"Fujimino","lat":35.855572,"lng":139.515488},{"店舗名":"五穀みそらーめん 味噌屋蔵之介 254ふじみ野店","住所":"〒356-0055 埼玉県ふじみ野市旭１丁目１９−１４","ステータス":"APP_DISPLAY","region":"Fujimino","lat":35.85413,"lng":139.516037},{"店舗名":"CRAZY SPICE トナリエふじみ野店","住所":"〒356-0056 埼玉県ふじみ野市うれし野２丁目１０−８７","ステータス":"APP_DISPLAY","region":"Fujimino","lat":35.856411,"lng":139.522858},{"店舗名":"アゲラー本舗 からあげ屋 ふじみ野店","住所":"〒356-0056 埼玉県ふじみ野市うれし野２丁目１−５","ステータス":"APP_DISPLAY","region":"Fujimino","lat":35.856483,"lng":139.520859},{"店舗名":"MISHA Indian Nepail Restaurant","住所":"〒356-0058 埼玉県ふじみ野市大井中央１丁目１７−３６","ステータス":"APP_DISPLAY","region":"Fujimino","lat":35.857906,"lng":139.506577},{"店舗名":"ランチ＆珈琲 手作りの店 アレッタ","住所":"〒356-0058 埼玉県ふじみ野市大井中央２丁目１８−２２","ステータス":"APP_DISPLAY","region":"Fujimino","lat":35.857613,"lng":139.503265},{"店舗名":"えちごやKitchen２号車","住所":"〒356-0059 埼玉県ふじみ野市桜ケ丘３-３９-２５","ステータス":"APP_DISPLAY","region":"Fujimino","lat":35.850304,"lng":139.504929},{"店舗名":"えちごやKitchen","住所":"〒356-0059 埼玉県ふじみ野市桜ケ丘３丁目３９−２５","ステータス":"RECEIPT","region":"Fujimino","lat":35.850304,"lng":139.504929},{"店舗名":"珈琲館 トナリエふじみ野店","住所":"埼玉県ふじみ野市","ステータス":"APP_DISPLAY","region":"Fujimino","lat":35.879272,"lng":139.519516},{"店舗名":"チキン・ウイングストリート 上福岡店","住所":"埼玉県ふじみ野市清見２－１－２３","ステータス":"APP_DISPLAY","region":"Fujimino","lat":35.881912,"lng":139.520523},{"店舗名":"トスカーニパスタ 上福岡店","住所":"埼玉県ふじみ野市清見２－１－２３","ステータス":"APP_DISPLAY","region":"Fujimino","lat":35.881912,"lng":139.520523},{"店舗名":"【メガ盛り_】1キロ弁当工房肉MAX!!大盛りからあげお弁当 上福岡1丁目店","住所":"〒356-0004 埼玉県ふじみ野市上福岡１−１２−９","ステータス":"APP_DISPLAY","region":"Fujimino","lat":35.87553,"lng":139.514221}]