[{"店舗名":"ぞうのぱんや","住所":"〒418-0005 静岡県富士宮市宮原５２５−１","ステータス":"RECEIPT","region":"Fujinomiya","lat":35.255966,"lng":138.611786},{"店舗名":"やきにく居酒屋あじゃら","住所":"〒418-0015 静岡県富士宮市舞々木町２６０","ステータス":"RECEIPT","region":"Fujinomiya","lat":35.24213,"lng":138.621597},{"店舗名":"Machan Wooden Restaurant Cafe","住所":"〒418-0021","ステータス":"RECEIPT","region":"Fujinomiya","lat":35.224449,"lng":138.656113},{"店舗名":"ダダ南インディアンレストラン","住所":"〒418-0022","ステータス":"RECEIPT","region":"Fujinomiya","lat":35.223251,"lng":138.636276},{"店舗名":"台湾料理　金龍閣","住所":"〒418-0051 静岡県富士宮市淀師８２−１","ステータス":"RECEIPT","region":"Fujinomiya","lat":35.235035,"lng":138.600937},{"店舗名":"【しぐれやネギ焼きも！】お好み焼天国みっちゃん家【富士宮 宝】","住所":"〒418-0055 静岡県富士宮市宝町１１−２４","ステータス":"RECEIPT","region":"Fujinomiya","lat":35.229198,"lng":138.604813},{"店舗名":"Lyric","住所":"〒418-0057 静岡県富士宮市朝日町","ステータス":"RECEIPT","region":"Fujinomiya","lat":35.232769,"lng":138.606049},{"店舗名":"cafe Hanamori富士宮店","住所":"〒418-0066 静岡県富士宮市大宮町１３−７","ステータス":"RECEIPT","region":"Fujinomiya","lat":35.223839,"lng":138.613739},{"店舗名":"Lyriccoffee","住所":"〒418-0067 静岡県富士宮市宮町","ステータス":"RECEIPT","region":"Fujinomiya","lat":35.226292,"lng":138.608948},{"店舗名":"重山","住所":"〒418-0078 静岡県富士宮市阿幸地町１３２","ステータス":"RECEIPT","region":"Fujinomiya","lat":35.229511,"lng":138.621414},{"店舗名":"ラーメン口福","住所":"〒418-0078 静岡県富士宮市阿幸地町７２２","ステータス":"RECEIPT","region":"Fujinomiya","lat":35.228489,"lng":138.623306}]