[{"店舗名":"かるっと karutto","住所":"〒720-0034 広島県福山市若松町10-3","ステータス":"RECEIPT","region":"Fukuyama","lat":34.49231,"lng":133.374176},{"店舗名":"久天麻辣燙","住所":"〒720-0043 広島県福山市船町７−３３ 7-33","ステータス":"RECEIPT","region":"Fukuyama","lat":34.486355,"lng":133.366776},{"店舗名":"アサイー工房福山店","住所":"〒720-0062 広島県福山市伏見町１−１","ステータス":"RECEIPT","region":"Fukuyama","lat":34.489059,"lng":133.363297},{"店舗名":"雲茶","住所":"〒720-0062 広島県福山市伏見町１－１６","ステータス":"RECEIPT","region":"Fukuyama","lat":34.488567,"lng":133.363663},{"店舗名":"中華園","住所":"〒720-0063 広島県福山市元町１３−３","ステータス":"RECEIPT","region":"Fukuyama","lat":34.48764,"lng":133.364777},{"店舗名":"煮込み屋　章","住所":"〒720-0064 広島県福山市延広町8番2号","ステータス":"RECEIPT","region":"Fukuyama","lat":34.486332,"lng":133.365891},{"店舗名":"Spice & Trailer","住所":"〒720-0065 広島県福山市東桜町１−１","ステータス":"RECEIPT","region":"Fukuyama","lat":34.487732,"lng":133.362946},{"店舗名":"インド料理 サンガム 東桜町","住所":"〒720-0065 広島県福山市東桜町２−７","ステータス":"RECEIPT","region":"Fukuyama","lat":34.486465,"lng":133.361847},{"店舗名":"鶏丸","住所":"〒720-0073 広島県福山市北吉津町３丁目１１−１９","ステータス":"RECEIPT","region":"Fukuyama","lat":34.497524,"lng":133.363617},{"店舗名":"お好み焼き・鉄板焼き 大地の母 本庄店","住所":"〒720-0076 広島県福山市本庄町中","ステータス":"RECEIPT","region":"Fukuyama","lat":34.490936,"lng":133.35051},{"店舗名":"インドダイニングカフェエベレスト","住所":"〒720-0077 広島県福山市南本庄２丁目４−１ 101","ステータス":"RECEIPT","region":"Fukuyama","lat":34.487591,"lng":133.350021},{"店舗名":"クスクスラーメン福山店","住所":"〒720-0801","ステータス":"RECEIPT","region":"Fukuyama","lat":34.488579,"lng":133.37413},{"店舗名":"お好み焼き やまや","住所":"〒720-0801 広島県福山市入船町","ステータス":"RECEIPT","region":"Fukuyama","lat":34.488579,"lng":133.37413},{"店舗名":"【インド＆ネパールカレー】HIMALAYAN SAKURA","住所":"〒720-0801 広島県福山市入船町２丁目","ステータス":"RECEIPT","region":"Fukuyama","lat":34.486481,"lng":133.374176},{"店舗名":"【インド＆ネパールカレー】HIMALAYAN SAKURA","住所":"〒720-0801 広島県福山市入船町２丁目５−１９","ステータス":"RECEIPT","region":"Fukuyama","lat":34.48629,"lng":133.375198},{"店舗名":"広島つけ麺かず 福山入船町店","住所":"〒720-0801 広島県福山市入船町２丁目７−１９","ステータス":"RECEIPT","region":"Fukuyama","lat":34.486404,"lng":133.37468},{"店舗名":"火鍋・熱火朝天","住所":"〒720-0802 広島県福山市松浜町１丁目７−１５","ステータス":"RECEIPT","region":"Fukuyama","lat":34.484966,"lng":133.374283},{"店舗名":"ダイニングバーPitBull","住所":"〒720-0802 広島県福山市松浜町１丁目７−６","ステータス":"RECEIPT","region":"Fukuyama","lat":34.485329,"lng":133.374573},{"店舗名":"LIRY CUPCAKE.","住所":"〒720-0812 広島県福山市霞町４丁目９−５","ステータス":"RECEIPT","region":"Fukuyama","lat":34.482304,"lng":133.359756},{"店舗名":"ソッシンガ","住所":"〒720-0821 広島県福山市住吉町3番11号","ステータス":"RECEIPT","region":"Fukuyama","lat":34.486477,"lng":133.371979},{"店舗名":"江南","住所":"〒720-0824","ステータス":"RECEIPT","region":"Fukuyama","lat":34.473492,"lng":133.38176},{"店舗名":"【絶品チキンがオススメ】79韓国料理","住所":"〒720-0824 広島県福山市多治米町２丁目１４−８","ステータス":"RECEIPT","region":"Fukuyama","lat":34.471336,"lng":133.380051},{"店舗名":"江南","住所":"〒720-0824 広島県福山市松浜町１丁目７−１５","ステータス":"RECEIPT","region":"Fukuyama","lat":34.484966,"lng":133.374283},{"店舗名":"笑ひ鶏もんど waraidorimondo okinogamiten","住所":"〒720-0825 広島県福山市沖野上町１丁目５−３１","ステータス":"RECEIPT","region":"Fukuyama","lat":34.475227,"lng":133.376831},{"店舗名":"ピアーザ","住所":"〒720-0825 広島県福山市沖野上町２丁目１２−２８","ステータス":"RECEIPT","region":"Fukuyama","lat":34.473301,"lng":133.377548},{"店舗名":"Imo Batake いもばたけ","住所":"〒720-0830 広島県福山市水呑町三新田１−１４２","ステータス":"RECEIPT","region":"Fukuyama","lat":34.465542,"lng":133.353577},{"店舗名":"おきなわんふ～ど がちまやぁ","住所":"〒720-1131 広島県福山市駅家町万能倉","ステータス":"RECEIPT","region":"Fukuyama","lat":34.549965,"lng":133.332748},{"店舗名":"立花いちご農園","住所":"〒720-1264","ステータス":"RECEIPT","region":"Fukuyama","lat":34.521671,"lng":133.28418},{"店舗名":"Burrito Rico","住所":"〒720-2117 広島県福山市神辺町字下御領８０９−１","ステータス":"RECEIPT","region":"Fukuyama","lat":34.563587,"lng":133.396927},{"店舗名":"My Sweets 本店","住所":"〒720-2123","ステータス":"RECEIPT","region":"Fukuyama","lat":34.545662,"lng":133.378967},{"店舗名":"お好み焼きふるちゃん","住所":"〒721-0926 広島県福山市大門町４丁目１６−１８","ステータス":"RECEIPT","region":"Fukuyama","lat":34.491577,"lng":133.440903},{"店舗名":"DARUMAYA CAFE","住所":"〒721-0926 広島県福山市大門町５丁目２−６−１","ステータス":"RECEIPT","region":"Fukuyama","lat":34.489128,"lng":133.438187},{"店舗名":"COWCOWステ―キ引野店","住所":"〒721-0942 広島県福山市引野町","ステータス":"RECEIPT","region":"Fukuyama","lat":34.485867,"lng":133.415146},{"店舗名":"お好み焼き・鉄板焼きわっしょい","住所":"〒721-0952 広島県福山市曙町３丁目２−４３","ステータス":"RECEIPT","region":"Fukuyama","lat":34.473843,"lng":133.392319},{"店舗名":"まる徳ラーメン 福山曙店","住所":"〒721-0952 広島県福山市曙町５丁目１２−１０","ステータス":"RECEIPT","region":"Fukuyama","lat":34.471012,"lng":133.392975},{"店舗名":"たこ焼きかくれんぼ","住所":"〒721-0955 広島県福山市新涯町３丁目１３−２１","ステータス":"RECEIPT","region":"Fukuyama","lat":34.459969,"lng":133.390656},{"店舗名":"らーめんまるや　　あだち","住所":"〒721-0961 広島県福山市明神町２丁目１０−１２","ステータス":"RECEIPT","region":"Fukuyama","lat":34.491673,"lng":133.399918},{"店舗名":"情熱食堂　明神町店","住所":"〒721-0961 広島県福山市明神町２丁目１７−２２","ステータス":"RECEIPT","region":"Fukuyama","lat":34.489937,"lng":133.399963},{"店舗名":"お好み焼鉄板焼Tom's","住所":"〒721-0962 広島県福山市東手城町３丁目２２−１１","ステータス":"RECEIPT","region":"Fukuyama","lat":34.487831,"lng":133.409164},{"店舗名":"ＮＡＭＡＳＴＥインド・アジア料理 福山店","住所":"〒721-0962 広島県福山市東手城町４丁目４−１７","ステータス":"RECEIPT","region":"Fukuyama","lat":34.485703,"lng":133.409225},{"店舗名":"蕎麦屋の一休み","住所":"〒721-0963 広島県福山市南手城町２丁目１５－１３","ステータス":"RECEIPT","region":"Fukuyama","lat":34.482002,"lng":133.389389},{"店舗名":"焼肉食堂ブリスケ 福山蔵王店","住所":"〒721-0973 広島県福山市南蔵王町２丁目９−３２","ステータス":"RECEIPT","region":"Fukuyama","lat":34.504353,"lng":133.394012},{"店舗名":"CAFE Break Through","住所":"〒721-0973 広島県福山市南蔵王町６丁目１１−１０","ステータス":"RECEIPT","region":"Fukuyama","lat":34.500519,"lng":133.402283},{"店舗名":"東昇麻辣湯串揚げ","住所":"〒721-0973 広島県福山市南蔵王町６丁目１８−２２","ステータス":"RECEIPT","region":"Fukuyama","lat":34.500854,"lng":133.404007},{"店舗名":"お好み焼き 紅葉","住所":"〒721-0974","ステータス":"RECEIPT","region":"Fukuyama","lat":34.49894,"lng":133.387558},{"店舗名":"らぁ麺 一善","住所":"〒721-0974 広島県福山市東深津町","ステータス":"RECEIPT","region":"Fukuyama","lat":34.49894,"lng":133.387558},{"店舗名":"焼肉専門店　やきにく孫悟空　東深津店","住所":"〒721-0974 広島県福山市東深津町","ステータス":"RECEIPT","region":"Fukuyama","lat":34.49894,"lng":133.387558},{"店舗名":"タンドール東福山店","住所":"〒721-0974 広島県福山市東深津町１丁目１０−６４−２","ステータス":"RECEIPT","region":"Fukuyama","lat":34.496811,"lng":133.39119},{"店舗名":"タンドール東福山店","住所":"〒721-0974 広島県福山市東深津町１丁目１０−６４−２","ステータス":"RECEIPT","region":"Fukuyama","lat":34.496811,"lng":133.39119},{"店舗名":"ライクステーキ","住所":"〒721-0974 広島県福山市東深津町１丁目２０−１１","ステータス":"RECEIPT","region":"Fukuyama","lat":34.49897,"lng":133.388336},{"店舗名":"元祖豚丼屋TONTON　福山店","住所":"〒721-0974 広島県福山市東深津町３丁目２０−１４","ステータス":"RECEIPT","region":"Fukuyama","lat":34.495892,"lng":133.399231},{"店舗名":"徳川 福山東深津店","住所":"〒721-0974 広島県福山市東深津町３丁目２０−１４","ステータス":"RECEIPT","region":"Fukuyama","lat":34.495892,"lng":133.399231},{"店舗名":"お好み焼き鉄板焼きまん太郎","住所":"〒721-0974 広島県福山市東深津町７丁目１１−１６","ステータス":"RECEIPT","region":"Fukuyama","lat":34.497837,"lng":133.386581},{"店舗名":"D'KUSINA","住所":"〒729-0111 広島県福山市今津町３−５１","ステータス":"RECEIPT","region":"Fukuyama","lat":34.450771,"lng":133.240875},{"店舗名":"インドダイニングカフェ マター 松永店","住所":"〒729-0114 広島県福山市柳津町一丁目4番4号","ステータス":"RECEIPT","region":"Fukuyama","lat":34.442402,"lng":133.260544},{"店舗名":"いざかやキッチンあっか","住所":"〒729-3101","ステータス":"RECEIPT","region":"Fukuyama","lat":34.556488,"lng":133.293411},{"店舗名":"COCO彩　Kitchen","住所":"〒729-3103","ステータス":"RECEIPT","region":"Fukuyama","lat":34.55529,"lng":133.27623}]