[{"店舗名":"アジアレストラン　ハルカ","住所":"〒437-0038 静岡県袋井市大門１４−１０","ステータス":"RECEIPT","region":"Fukuroi","lat":34.738403,"lng":137.937759},{"店舗名":"麺屋　破天荒","住所":"〒437-0039 静岡県袋井市愛野東１丁目７ VIENTFUTURE","ステータス":"RECEIPT","region":"Fukuroi","lat":34.751839,"lng":137.958511},{"店舗名":"ビーワンカフェ","住所":"〒437-0040 静岡県袋井市愛野南２丁目１３−３","ステータス":"RECEIPT","region":"Fukuroi","lat":34.748047,"lng":137.964127},{"店舗名":"門前茶屋　胡祉斎〜こづち〜","住所":"〒437-0061","ステータス":"RECEIPT","region":"Fukuroi","lat":34.7658,"lng":137.917969},{"店舗名":"DISTRITO67","住所":"〒437-0065 静岡県袋井市堀越３丁目１３−５","ステータス":"RECEIPT","region":"Fukuroi","lat":34.753746,"lng":137.910431},{"店舗名":"HANGOUT","住所":"〒437-0067 静岡県袋井市天神町２丁目１−１７","ステータス":"RECEIPT","region":"Fukuroi","lat":34.749657,"lng":137.915604},{"店舗名":"うなまる亭 袋井本店","住所":"〒437-0126 静岡県袋井市月見町10−２","ステータス":"RECEIPT","region":"Fukuroi","lat":34.787273,"lng":137.908386},{"店舗名":"ヒマラヤンスパイス","住所":"〒437-1101","ステータス":"RECEIPT","region":"Fukuroi","lat":34.718533,"lng":137.927063},{"店舗名":"PICE","住所":"〒437-1101 静岡県袋井市浅羽","ステータス":"RECEIPT","region":"Fukuroi","lat":34.718533,"lng":137.927063},{"店舗名":"うなまる亭 浅羽店","住所":"〒437-1111 静岡県袋井市中新田４１５","ステータス":"RECEIPT","region":"Fukuroi","lat":34.677334,"lng":137.958649},{"店舗名":"ceylon spicy curry","住所":"〒437-1121 静岡県袋井市諸井１９２８","ステータス":"RECEIPT","region":"Fukuroi","lat":34.726032,"lng":137.91954},{"店舗名":"PIRA BURGER","住所":"〒437-1121 静岡県袋井市諸井１９２８−１","ステータス":"RECEIPT","region":"Fukuroi","lat":34.726032,"lng":137.91954},{"店舗名":"陽氣亭","住所":"〒437-1121 静岡県袋井市諸井１９６３−１４","ステータス":"RECEIPT","region":"Fukuroi","lat":34.730511,"lng":137.924438},{"店舗名":"マラビリア　ド　サボール","住所":"〒437-1126 静岡県袋井市長溝７３８−１８","ステータス":"RECEIPT","region":"Fukuroi","lat":34.70903,"lng":137.912659}]