[{"店舗名":"焼きおにぎりとこむすびmaru Sankaku","住所":"〒500-8005 岐阜県岐阜市上材木町３７４−１ 1f,北","ステータス":"RECEIPT","region":"Gifu","lat":35.437344,"lng":136.772919},{"店舗名":"ナガラタタン","住所":"〒500-8028 岐阜県岐阜市西材木町","ステータス":"RECEIPT","region":"Gifu","lat":35.43549,"lng":136.76796},{"店舗名":"から揚げの松や","住所":"〒500-8167 岐阜県岐阜市東金宝町３丁目３","ステータス":"RECEIPT","region":"Gifu","lat":35.41497,"lng":136.764114},{"店舗名":"PACIFICO パシフィコ","住所":"〒500-8175","ステータス":"RECEIPT","region":"Gifu","lat":35.411922,"lng":136.762878},{"店舗名":"歌志軒　岐阜駅前店","住所":"〒500-8175 岐阜県岐阜市長住町３丁目２","ステータス":"RECEIPT","region":"Gifu","lat":35.41227,"lng":136.757843},{"店舗名":"三代目下村牛ゆずり葉","住所":"〒500-8175 岐阜県岐阜市長住町４丁目８","ステータス":"RECEIPT","region":"Gifu","lat":35.412289,"lng":136.757645},{"店舗名":"インドカレー ツルシ 水海道店　Indian Curry TULSI","住所":"〒500-8223 岐阜県岐阜市水海道５丁目１−７","ステータス":"RECEIPT","region":"Gifu","lat":35.407604,"lng":136.811813},{"店舗名":"インド・ネパール料理 パルカッシュ","住所":"〒500-8234","ステータス":"RECEIPT","region":"Gifu","lat":35.393265,"lng":136.805481},{"店舗名":"インド•ネパール料理　パルカッシュ","住所":"〒500-8234","ステータス":"RECEIPT","region":"Gifu","lat":35.393265,"lng":136.805481},{"店舗名":"あっと鮨","住所":"〒500-8237 岐阜県岐阜市切通６丁目７−１２","ステータス":"RECEIPT","region":"Gifu","lat":35.398247,"lng":136.79715},{"店舗名":"【アサイーとオムライス】アミューズ カフェ プラス","住所":"〒500-8258","ステータス":"RECEIPT","region":"Gifu","lat":35.391006,"lng":136.762619},{"店舗名":"岐阜餃子 パイチャオズ","住所":"〒500-8262 岐阜県岐阜市茜部本郷３丁目１３４","ステータス":"RECEIPT","region":"Gifu","lat":35.388958,"lng":136.754181},{"店舗名":"あかねの空","住所":"〒500-8262 岐阜県岐阜市茜部本郷３丁目１３５−１","ステータス":"RECEIPT","region":"Gifu","lat":35.388958,"lng":136.754181},{"店舗名":"インドダイニング スワガタム 茜部店　swagatam AKANABE","住所":"〒500-8267 岐阜県岐阜市茜部寺屋敷2丁目68","ステータス":"RECEIPT","region":"Gifu","lat":35.376163,"lng":136.752563},{"店舗名":"薬膳カフェZEN","住所":"〒500-8268","ステータス":"RECEIPT","region":"Gifu","lat":35.387566,"lng":136.750961},{"店舗名":"ニーニャニーニョ桜小町 岐阜茜部店","住所":"〒500-8268 岐阜県岐阜市茜部菱野","ステータス":"RECEIPT","region":"Gifu","lat":35.387566,"lng":136.750961},{"店舗名":"AO donut","住所":"〒500-8285 岐阜県岐阜市南鶉３丁目４６−１","ステータス":"RECEIPT","region":"Gifu","lat":35.375656,"lng":136.73497},{"店舗名":"45kitchen","住所":"〒500-8286 岐阜県岐阜市西鶉１丁目３１ ＺＯＡビル 1F","ステータス":"RECEIPT","region":"Gifu","lat":35.384026,"lng":136.728729},{"店舗名":"男は黙って前を行け！","住所":"〒500-8287 岐阜県岐阜市北鶉１丁目６０−１","ステータス":"RECEIPT","region":"Gifu","lat":35.387978,"lng":136.73024},{"店舗名":"吉宝麻辣湯","住所":"〒500-8287 岐阜県岐阜市北鶉２丁目４８ 吉宝麻辣湯","ステータス":"RECEIPT","region":"Gifu","lat":35.387363,"lng":136.728912},{"店舗名":"Umakara Tan Tan Men かいえん","住所":"〒500-8287 岐阜県岐阜市北鶉５丁目６５ エステート65","ステータス":"RECEIPT","region":"Gifu","lat":35.379631,"lng":136.71904},{"店舗名":"サティネ パール・インドダイニング Sathi Nepal Indian Dining","住所":"〒500-8288 岐阜県岐阜市中鶉１丁目１２９ アベニュー鶉","ステータス":"RECEIPT","region":"Gifu","lat":35.386971,"lng":136.730698},{"店舗名":"あんかけパスタ ハラハチブンメ","住所":"〒500-8318 岐阜県岐阜市桜通6丁目21−1","ステータス":"RECEIPT","region":"Gifu","lat":35.417904,"lng":136.741425},{"店舗名":"インド・ネパール料理 ネパーリチュロ Nepali Chulo","住所":"〒500-8326 岐阜県岐阜市吹上町1丁目15-1","ステータス":"RECEIPT","region":"Gifu","lat":35.414742,"lng":136.744232},{"店舗名":"スパイスカレー55ジョニー","住所":"〒500-8326 岐阜県岐阜市吹上町１丁目５","ステータス":"RECEIPT","region":"Gifu","lat":35.415043,"lng":136.745087},{"店舗名":"海苔手巻き sendou","住所":"〒500-8345 岐阜県岐阜市菊地町２丁目２５","ステータス":"RECEIPT","region":"Gifu","lat":35.407684,"lng":136.745651},{"店舗名":"ネーナ岐阜山のカレー","住所":"〒500-8358","ステータス":"RECEIPT","region":"Gifu","lat":35.3979,"lng":136.743317},{"店舗名":"熟成味噌ラーメン専門店　ミソウソツカナイ岐阜西店","住所":"〒500-8362 岐阜県岐阜市西荘２丁目７−１４","ステータス":"RECEIPT","region":"Gifu","lat":35.408627,"lng":136.72644},{"店舗名":"菓匠将満 岐阜店","住所":"〒500-8362 岐阜県岐阜市西荘４丁目１−７","ステータス":"RECEIPT","region":"Gifu","lat":35.409389,"lng":136.720581},{"店舗名":"インドカレーデリシャスヴェニュー  Delicious Venue","住所":"〒500-8384 岐阜県岐阜市薮田南","ステータス":"RECEIPT","region":"Gifu","lat":35.394375,"lng":136.723206},{"店舗名":"カフェ チイタ ｃａｆｅｃｈｉｉｔａ","住所":"〒500-8402 岐阜県岐阜市竜田町","ステータス":"RECEIPT","region":"Gifu","lat":35.416306,"lng":136.767349},{"店舗名":"タイ料理 ピンタイ岐阜加納店","住所":"〒500-8424 岐阜県岐阜市加納柳町","ステータス":"RECEIPT","region":"Gifu","lat":35.404377,"lng":136.765182},{"店舗名":"ダルチニ　東明見町店","住所":"〒500-8436","ステータス":"RECEIPT","region":"Gifu","lat":35.397205,"lng":136.76738},{"店舗名":"ナマステ ネパール　インド・ネパール料理","住所":"〒500-8455 岐阜県岐阜市加納栄町通２丁目１７","ステータス":"RECEIPT","region":"Gifu","lat":35.407906,"lng":136.755951},{"店舗名":"米乃家 岐阜店","住所":"〒500-8462 岐阜県岐阜市加納神明町６丁目１","ステータス":"RECEIPT","region":"Gifu","lat":35.401447,"lng":136.749298},{"店舗名":"中華料理 善兵衛","住所":"〒500-8469 岐阜県岐阜市加納竜興町","ステータス":"RECEIPT","region":"Gifu","lat":35.400234,"lng":136.750702},{"店舗名":"キッチン勘兵衛","住所":"〒500-8825 岐阜県岐阜市八ツ寺町１丁目４","ステータス":"RECEIPT","region":"Gifu","lat":35.421883,"lng":136.76033},{"店舗名":"HELP BURGER 柳ヶ瀬店","住所":"〒500-8827","ステータス":"RECEIPT","region":"Gifu","lat":35.421028,"lng":136.758682},{"店舗名":"インドカレーツルシ India Curry Restaurant TULSI","住所":"〒500-8833 岐阜県岐阜市神田町","ステータス":"RECEIPT","region":"Gifu","lat":35.42194,"lng":136.760925},{"店舗名":"【真夜中の背徳バーガー】Marquee","住所":"〒500-8833 岐阜県岐阜市神田町","ステータス":"RECEIPT","region":"Gifu","lat":35.42194,"lng":136.760925},{"店舗名":"元祖台湾まぜそば　はなび岐阜店","住所":"〒500-8833 岐阜県岐阜市神田町６丁目","ステータス":"RECEIPT","region":"Gifu","lat":35.416145,"lng":136.759979},{"店舗名":"麺屋新黒船 shinkurofune","住所":"〒500-8833 岐阜県岐阜市神田町８丁目２１","ステータス":"RECEIPT","region":"Gifu","lat":35.4128,"lng":136.759384},{"店舗名":"イザスナ ふうじん Izasuna Fujin","住所":"〒500-8833 岐阜県岐阜市神田町９丁目１８","ステータス":"RECEIPT","region":"Gifu","lat":35.411415,"lng":136.758881},{"店舗名":"信長から揚げとりか /マッシュルーム プライム","住所":"〒500-8834 岐阜県岐阜市羽根町３０ レジデンス４０ 2階","ステータス":"RECEIPT","region":"Gifu","lat":35.412865,"lng":136.758621},{"店舗名":"がぶや天草 岐阜玉宮店","住所":"〒500-8835 岐阜県岐阜市玉宮町１丁目６−７","ステータス":"RECEIPT","region":"Gifu","lat":35.414074,"lng":136.758255},{"店舗名":"アサイー工房岐阜駅前店","住所":"〒500-8836 岐阜県岐阜市西玉宮町２丁目４−３","ステータス":"RECEIPT","region":"Gifu","lat":35.412987,"lng":136.757645},{"店舗名":"珈氷 Kacco","住所":"〒500-8838 岐阜県岐阜市八幡町１３","ステータス":"RECEIPT","region":"Gifu","lat":35.415657,"lng":136.758713},{"店舗名":"黒糖どら焼き 月の祠","住所":"〒500-8842","ステータス":"RECEIPT","region":"Gifu","lat":35.421394,"lng":136.757599},{"店舗名":"とろり本気カレー","住所":"〒500-8843","ステータス":"RECEIPT","region":"Gifu","lat":35.411781,"lng":136.758041},{"店舗名":"横浜家系ラーメン一正家 岐阜駅前店","住所":"〒500-8843 岐阜県岐阜市住田町","ステータス":"RECEIPT","region":"Gifu","lat":35.411781,"lng":136.758041},{"店舗名":"21時にアイス 岐阜駅前店 Ice at 21:00","住所":"〒500-8843 岐阜県岐阜市住田町１丁目１６−１","ステータス":"RECEIPT","region":"Gifu","lat":35.411903,"lng":136.757645},{"店舗名":"グリーク工房 ぎふ駅前店","住所":"〒500-8845","ステータス":"RECEIPT","region":"Gifu","lat":35.412212,"lng":136.755157},{"店舗名":"【タコスのお店】Aqui Taco","住所":"〒500-8847 岐阜県岐阜市金宝町２丁目１","ステータス":"RECEIPT","region":"Gifu","lat":35.414879,"lng":136.757904},{"店舗名":"高たんぱく・糖質制限カオマンガイ 東京鶏飯食堂 岐阜店","住所":"〒500-8853 岐阜県岐阜市西問屋町６−１","ステータス":"RECEIPT","region":"Gifu","lat":35.412056,"lng":136.753235},{"店舗名":"オリジナルガパオライス アロイ・ガパオ 岐阜店","住所":"〒500-8853 岐阜県岐阜市西問屋町６−１","ステータス":"RECEIPT","region":"Gifu","lat":35.412056,"lng":136.753235},{"店舗名":"チキンオーバーライス【NY CHICKEN STAND】 岐阜店","住所":"〒500-8853 岐阜県岐阜市西問屋町６−１","ステータス":"RECEIPT","region":"Gifu","lat":35.412056,"lng":136.753235},{"店舗名":"オリジナルタコライス【Taco feliz】 岐阜店","住所":"〒500-8853 岐阜県岐阜市西問屋町６−１","ステータス":"RECEIPT","region":"Gifu","lat":35.412056,"lng":136.753235},{"店舗名":"おみや江戸ッ子寿司","住所":"〒500-8856 岐阜県岐阜市橋本町１丁目１０−１","ステータス":"RECEIPT","region":"Gifu","lat":35.409679,"lng":136.754929},{"店舗名":"インドカレー NEW DEVI真砂店","住所":"〒500-8864 岐阜県岐阜市真砂町４丁目９","ステータス":"RECEIPT","region":"Gifu","lat":35.424683,"lng":136.751724},{"店舗名":"BINALOT RESTO BAR","住所":"〒500-8873","ステータス":"RECEIPT","region":"Gifu","lat":35.420033,"lng":136.755692},{"店舗名":"ダルチニ　岐阜柳ケ瀬本店","住所":"〒500-8875","ステータス":"RECEIPT","region":"Gifu","lat":35.419128,"lng":136.759628},{"店舗名":"インド料理 ネパラヤ Nepalaya","住所":"〒500-8875 岐阜県岐阜市柳ケ瀬通","ステータス":"RECEIPT","region":"Gifu","lat":35.419128,"lng":136.759628},{"店舗名":"STEAK&HAMBURG KUISHINBO","住所":"〒500-8875 岐阜県岐阜市柳ケ瀬通１丁目４ 石神会館 2F","ステータス":"RECEIPT","region":"Gifu","lat":35.419243,"lng":136.759628},{"店舗名":"九龍","住所":"〒500-8875 岐阜県岐阜市柳ケ瀬通5丁目25-2","ステータス":"RECEIPT","region":"Gifu","lat":35.419533,"lng":136.755127},{"店舗名":"サロンドマルイチ","住所":"〒500-8876 岐阜県岐阜市日ノ出町２丁目５−６","ステータス":"RECEIPT","region":"Gifu","lat":35.418827,"lng":136.758499},{"店舗名":"インドカレー料理 ナマステグル 岐阜柳ヶ瀬店","住所":"〒500-8878","ステータス":"RECEIPT","region":"Gifu","lat":35.417957,"lng":136.758972},{"店舗名":"タイごはんポーヤイ＆KAKA","住所":"〒500-8879 岐阜県岐阜市徹明通","ステータス":"RECEIPT","region":"Gifu","lat":35.417366,"lng":136.758896},{"店舗名":"cafe de Volta (カフェ ド ボルタ)","住所":"〒500-8879 岐阜県岐阜市徹明通２丁目１８","ステータス":"RECEIPT","region":"Gifu","lat":35.41766,"lng":136.757843},{"店舗名":"PIZZERIA　SPADA","住所":"〒501-0105","ステータス":"RECEIPT","region":"Gifu","lat":35.410862,"lng":136.703583},{"店舗名":"鶏笑　岐阜鏡島店","住所":"〒501-0115","ステータス":"RECEIPT","region":"Gifu","lat":35.407436,"lng":136.715942},{"店舗名":"力寿司","住所":"〒501-0115 岐阜県岐阜市鏡島南１丁目６−４８","ステータス":"RECEIPT","region":"Gifu","lat":35.408695,"lng":136.716415},{"店舗名":"バンブーパレス","住所":"〒501-1121 岐阜県岐阜市古市場336番地","ステータス":"RECEIPT","region":"Gifu","lat":35.46648,"lng":136.722687},{"店舗名":"JST アジアンレストラン","住所":"〒501-1123","ステータス":"RECEIPT","region":"Gifu","lat":35.461575,"lng":136.734222},{"店舗名":"深夜食堂","住所":"〒501-1132 岐阜県岐阜市折立","ステータス":"RECEIPT","region":"Gifu","lat":35.456547,"lng":136.733765},{"店舗名":"ANUSHKA INDIAN NAPALRESTAURANT CAFE AND BAR","住所":"〒501-1146 岐阜県岐阜市下尻毛３７７−１","ステータス":"RECEIPT","region":"Gifu","lat":35.438122,"lng":136.713165},{"店舗名":"らんまる","住所":"〒501-1178","ステータス":"RECEIPT","region":"Gifu","lat":35.475224,"lng":136.68573},{"店舗名":"スパイスキッチン","住所":"〒501-3132 岐阜県岐阜市芥見長山","ステータス":"RECEIPT","region":"Gifu","lat":35.455208,"lng":136.845901},{"店舗名":"横浜家系ラーメン一正家 柳津店","住所":"〒501-6103 岐阜県岐阜市柳津町蓮池","ステータス":"RECEIPT","region":"Gifu","lat":35.364754,"lng":136.745789},{"店舗名":"とりやTORIYA","住所":"〒501-6104","ステータス":"RECEIPT","region":"Gifu","lat":35.365707,"lng":136.740707},{"店舗名":"金の豚","住所":"〒501-6104 岐阜県岐阜市柳津町本郷４丁目","ステータス":"RECEIPT","region":"Gifu","lat":35.367847,"lng":136.744598},{"店舗名":"【台湾風焼き包子と餃子のお店】金の豚","住所":"〒501-6104 岐阜県岐阜市柳津町本郷４丁目５１","ステータス":"RECEIPT","region":"Gifu","lat":35.368828,"lng":136.745361},{"店舗名":"菓匠将満 柳津店","住所":"〒501-6112 岐阜県岐阜市柳津町北塚４丁目３２−２","ステータス":"RECEIPT","region":"Gifu","lat":35.368614,"lng":136.732056},{"店舗名":"横浜家系ラーメンとんこつ本舗柳津店","住所":"〒501-6113 岐阜県岐阜市柳津町南塚","ステータス":"RECEIPT","region":"Gifu","lat":35.363636,"lng":136.737701},{"店舗名":"焼き芋専門店 はりろ","住所":"〒501-6121 岐阜県岐阜市柳津町上佐波西５丁目１６","ステータス":"RECEIPT","region":"Gifu","lat":35.373783,"lng":136.712677},{"店舗名":"香吉定食　マーラータン","住所":"〒502-0002","ステータス":"RECEIPT","region":"Gifu","lat":35.482418,"lng":136.781036},{"店舗名":"でぶや","住所":"〒502-0002 岐阜県岐阜市粟野東４丁目２７","ステータス":"RECEIPT","region":"Gifu","lat":35.487526,"lng":136.784012},{"店舗名":"あおぞらデリカ","住所":"〒502-0005 岐阜県岐阜市岩崎８４３−２","ステータス":"RECEIPT","region":"Gifu","lat":35.47546,"lng":136.780212},{"店舗名":"広島風お好み焼き なおちゃん","住所":"〒502-0005 岐阜県岐阜市岩崎９８５","ステータス":"RECEIPT","region":"Gifu","lat":35.473755,"lng":136.780365},{"店舗名":"cafe HONEY CALM","住所":"〒502-0014 岐阜県岐阜市雄総緑町","ステータス":"RECEIPT","region":"Gifu","lat":35.441582,"lng":136.795883},{"店舗名":"CAFEHONEYCALM","住所":"〒502-0014 岐阜県岐阜市雄総緑町４丁目１６ グリーンハイツ １階","ステータス":"RECEIPT","region":"Gifu","lat":35.44289,"lng":136.79718},{"店舗名":"インドダイニング スワガタム 長良店 swagatam NAGARA","住所":"〒502-0803 岐阜県岐阜市上土居１丁目５−５","ステータス":"RECEIPT","region":"Gifu","lat":35.454445,"lng":136.763672},{"店舗名":"熟成味噌ラーメン専門店ミソウソツカナイ長良店","住所":"〒502-0812","ステータス":"RECEIPT","region":"Gifu","lat":35.458828,"lng":136.773178},{"店舗名":"BLACK LION","住所":"〒502-0812 岐阜県岐阜市八代１丁目２−８","ステータス":"RECEIPT","region":"Gifu","lat":35.45776,"lng":136.774612},{"店舗名":"cafe hiruneco","住所":"〒502-0814 岐阜県岐阜市福光西3丁目16-7","ステータス":"RECEIPT","region":"Gifu","lat":35.45715,"lng":136.768616},{"店舗名":"Cafe de vivre","住所":"〒502-0847 岐阜県岐阜市早田栄町１丁目３０","ステータス":"RECEIPT","region":"Gifu","lat":35.434654,"lng":136.750656},{"店舗名":"BAY COFFEE&CURRY","住所":"〒502-0850 岐阜県岐阜市鷺山東１丁目１０−１","ステータス":"RECEIPT","region":"Gifu","lat":35.4487,"lng":136.76384},{"店舗名":"インド料理 アサ Aasha","住所":"〒502-0911 岐阜県岐阜市北島８丁目１−１１","ステータス":"RECEIPT","region":"Gifu","lat":35.430328,"lng":136.733276},{"店舗名":"Seoul Deli Kanade","住所":"〒502-0916","ステータス":"RECEIPT","region":"Gifu","lat":35.425346,"lng":136.725845},{"店舗名":"だんご島","住所":"〒502-0928","ステータス":"RECEIPT","region":"Gifu","lat":35.435368,"lng":136.72644},{"店舗名":"インドネパール料理 KAMANA","住所":"〒502-0929","ステータス":"RECEIPT","region":"Gifu","lat":35.441128,"lng":136.751724},{"店舗名":"Chowdy（チャウディー）","住所":"〒502-0929 岐阜県岐阜市則武東","ステータス":"RECEIPT","region":"Gifu","lat":35.441128,"lng":136.751724},{"店舗名":"インドネパール料理KAMANA","住所":"〒502-0929 岐阜県岐阜市則武東４丁目３０−６","ステータス":"RECEIPT","region":"Gifu","lat":35.445724,"lng":136.746048},{"店舗名":"日乃屋カレー 岐阜則武店","住所":"〒502-0932","ステータス":"RECEIPT","region":"Gifu","lat":35.438995,"lng":136.74501}]