[{"店舗名":"ドンブリモンスター","住所":"〒583-0852","ステータス":"RECEIPT","region":"Habikino","lat":34.553741,"lng":135.610336},{"店舗名":"ドンブリモンスター","住所":"〒583-0852","ステータス":"APP_DISPLAY","region":"Habikino","lat":34.553741,"lng":135.610336},{"店舗名":"まるみえ亭","住所":"〒583-0852","ステータス":"APP_DISPLAY","region":"Habikino","lat":34.553741,"lng":135.610336},{"店舗名":"チムラック","住所":"〒583-0852 大阪府羽曳野市古市１丁目１−１２","ステータス":"APP_DISPLAY","region":"Habikino","lat":34.553654,"lng":135.610092},{"店舗名":"よっちゃん","住所":"〒583-0852 大阪府羽曳野市古市４丁目２−２","ステータス":"APP_DISPLAY","region":"Habikino","lat":34.553101,"lng":135.609772},{"店舗名":"meika","住所":"〒583-0853","ステータス":"APP_DISPLAY","region":"Habikino","lat":34.552105,"lng":135.607773},{"店舗名":"あっちゃんのからあげ屋 古市駅前店","住所":"〒583-0853 大阪府羽曳野市栄町３−４","ステータス":"APP_DISPLAY","region":"Habikino","lat":34.553101,"lng":135.607925},{"店舗名":"バーガーキング 近鉄古市駅前店","住所":"〒583-0853 大阪府羽曳野市栄町７","ステータス":"APP_DISPLAY","region":"Habikino","lat":34.551502,"lng":135.608109},{"店舗名":"【手作りお弁当】Cha-ko【羽曳野 翠鳥園】","住所":"〒583-0855 大阪府羽曳野市翠鳥園４０５−１","ステータス":"APP_DISPLAY","region":"Habikino","lat":34.554024,"lng":135.601868},{"店舗名":"おみコーヒー","住所":"〒583-0856 大阪府羽曳野市白鳥１丁目","ステータス":"APP_DISPLAY","region":"Habikino","lat":34.551868,"lng":135.606232},{"店舗名":"鮨ちふゆ","住所":"〒583-0856 大阪府羽曳野市白鳥３丁目１−１","ステータス":"APP_DISPLAY","region":"Habikino","lat":34.555351,"lng":135.608597},{"店舗名":"crepe house誉田店","住所":"〒583-0857 大阪府羽曳野市誉田１丁目４−８","ステータス":"RECEIPT","region":"Habikino","lat":34.554859,"lng":135.610352},{"店舗名":"タコテン","住所":"〒583-0857 大阪府羽曳野市誉田６丁目５−４４","ステータス":"APP_DISPLAY","region":"Habikino","lat":34.560749,"lng":135.613144},{"店舗名":"SHIYU","住所":"〒583-0861","ステータス":"APP_DISPLAY","region":"Habikino","lat":34.548237,"lng":135.604996},{"店舗名":"ナマステキッチン羽曳野店","住所":"〒583-0861","ステータス":"RECEIPT","region":"Habikino","lat":34.548237,"lng":135.604996},{"店舗名":"からあげ専門店 鶏笑 羽曳野店","住所":"〒583-0861","ステータス":"APP_DISPLAY","region":"Habikino","lat":34.548237,"lng":135.604996},{"店舗名":"とり庵 torian","住所":"〒583-0861 大阪府羽曳野市西浦","ステータス":"APP_DISPLAY","region":"Habikino","lat":34.548237,"lng":135.604996},{"店舗名":"ナマステキッチン羽曳野店","住所":"〒583-0861 大阪府羽曳野市西浦１１２８−２","ステータス":"RECEIPT","region":"Habikino","lat":34.53899,"lng":135.605286},{"店舗名":"ナマステキッチン 羽曳野店","住所":"〒583-0861 大阪府羽曳野市西浦１１２８−２","ステータス":"APP_DISPLAY","region":"Habikino","lat":34.53899,"lng":135.605286},{"店舗名":"ナマステキッチン羽曳野店","住所":"〒583-0861 大阪府羽曳野市西浦１１２８−２","ステータス":"RECEIPT","region":"Habikino","lat":34.53899,"lng":135.605286},{"店舗名":"焼肉甲子園","住所":"〒583-0861 大阪府羽曳野市西浦１２４２−１","ステータス":"APP_DISPLAY","region":"Habikino","lat":34.537632,"lng":135.609665},{"店舗名":"じゃんぼ総本店 古市店","住所":"〒583-0861 大阪府羽曳野市西浦１４４０−１","ステータス":"APP_DISPLAY","region":"Habikino","lat":34.539425,"lng":135.609207},{"店舗名":"本格インド料理 プジャ 西浦店","住所":"〒583-0861 大阪府羽曳野市西浦１丁目２０００−１","ステータス":"APP_DISPLAY","region":"Habikino","lat":34.546612,"lng":135.604767},{"店舗名":"ケンタッキーフライドチキン 外環羽曳野店","住所":"〒583-0861 大阪府羽曳野市西浦３丁目５−６","ステータス":"APP_DISPLAY","region":"Habikino","lat":34.541843,"lng":135.604492},{"店舗名":"寄す処-YOSUGA- めはり寿司 おにぎり","住所":"〒583-0861 大阪府羽曳野市西浦３丁目９２０−1","ステータス":"APP_DISPLAY","region":"Habikino","lat":34.544582,"lng":135.602417},{"店舗名":"rmama.juice","住所":"〒583-0861 大阪府羽曳野市西浦６丁目２−３３","ステータス":"APP_DISPLAY","region":"Habikino","lat":34.549648,"lng":135.601151},{"店舗名":"ラーメンまこと屋羽曳野尺度外環店","住所":"〒583-0862 大阪府羽曳野市尺度１２５−４","ステータス":"APP_DISPLAY","region":"Habikino","lat":34.531651,"lng":135.604111},{"店舗名":"吉野家 170号線尺度店","住所":"〒583-0862 大阪府羽曳野市尺度１９０−１","ステータス":"APP_DISPLAY","region":"Habikino","lat":34.531651,"lng":135.604111},{"店舗名":"オープンザキッチン蔵之内","住所":"〒583-0863 大阪府羽曳野市蔵之内26-7","ステータス":"APP_DISPLAY","region":"Habikino","lat":34.541821,"lng":135.599701},{"店舗名":"さだちゃんのわたあめ","住所":"〒583-0867 大阪府羽曳野市河原城８３１−７","ステータス":"RECEIPT","region":"Habikino","lat":34.546223,"lng":135.576462},{"店舗名":"立ち飲み処　武島","住所":"〒583-0871","ステータス":"APP_DISPLAY","region":"Habikino","lat":34.562733,"lng":135.59491},{"店舗名":"炭焼 耀縁","住所":"〒583-0871","ステータス":"APP_DISPLAY","region":"Habikino","lat":34.562733,"lng":135.59491},{"店舗名":"じぇらてりーあ ゆずりは","住所":"〒583-0871 大阪府羽曳野市野々上３丁目４−２６","ステータス":"APP_DISPLAY","region":"Habikino","lat":34.555946,"lng":135.592667},{"店舗名":"寿しきしもとplus","住所":"〒583-0871 大阪府羽曳野市野々上３丁目４−２６","ステータス":"APP_DISPLAY","region":"Habikino","lat":34.555946,"lng":135.592667},{"店舗名":"花様年華BAR","住所":"〒583-0871 大阪府羽曳野市野々上４丁目１−１０","ステータス":"APP_DISPLAY","region":"Habikino","lat":34.557575,"lng":135.5923},{"店舗名":"鍋と浜焼き居酒屋汐の花","住所":"〒583-0872 大阪府羽曳野市はびきの1丁目8-11","ステータス":"APP_DISPLAY","region":"Habikino","lat":34.555248,"lng":135.59259},{"店舗名":"crepehouse723","住所":"〒583-0872 大阪府羽曳野市はびきの４丁目１３−１３","ステータス":"RECEIPT","region":"Habikino","lat":34.553955,"lng":135.592316},{"店舗名":"GRIT TODAY 羽曳野店","住所":"〒583-0872 大阪府羽曳野市はびきの４丁目４−３２","ステータス":"APP_DISPLAY","region":"Habikino","lat":34.556232,"lng":135.589691},{"店舗名":"ピザハット 羽曳野樫山店","住所":"〒583-0875 大阪府羽曳野市樫山９−１","ステータス":"APP_DISPLAY","region":"Habikino","lat":34.55904,"lng":135.576538},{"店舗名":"チキン・ウイングストリート 羽曳野樫山店","住所":"〒583-0875 大阪府羽曳野市樫山９−１","ステータス":"APP_DISPLAY","region":"Habikino","lat":34.55904,"lng":135.576538},{"店舗名":"トスカーニパスタ 羽曳野樫山店","住所":"〒583-0875 大阪府羽曳野市樫山９−１","ステータス":"APP_DISPLAY","region":"Habikino","lat":34.55904,"lng":135.576538},{"店舗名":"おにぎり専門店 つやや 羽曳野店","住所":"〒583-0876","ステータス":"APP_DISPLAY","region":"Habikino","lat":34.555916,"lng":135.581146},{"店舗名":"おにぎり専門店 つやや　羽曳野店","住所":"〒583-0876","ステータス":"RECEIPT","region":"Habikino","lat":34.555916,"lng":135.581146},{"店舗名":"ドミノ・ピザ 羽曳野島泉店","住所":"〒583-0881 大阪府羽曳野市島泉２丁目５−１８４−１","ステータス":"APP_DISPLAY","region":"Habikino","lat":34.575653,"lng":135.580887},{"店舗名":"ほりぐち","住所":"〒583-0881 大阪府羽曳野市島泉２丁目６−３","ステータス":"APP_DISPLAY","region":"Habikino","lat":34.575008,"lng":135.579437},{"店舗名":"カフェスイート","住所":"〒583-0881 大阪府羽曳野市島泉８丁目１３−１","ステータス":"APP_DISPLAY","region":"Habikino","lat":34.575203,"lng":135.583328},{"店舗名":"より道 きよせ","住所":"〒583-0882 大阪府羽曳野市高鷲１０丁目８−１７","ステータス":"APP_DISPLAY","region":"Habikino","lat":34.570068,"lng":135.577744},{"店舗名":"喰来坊せかい","住所":"〒583-0882 大阪府羽曳野市高鷲9丁目2-6","ステータス":"APP_DISPLAY","region":"Habikino","lat":34.570362,"lng":135.583511},{"店舗名":"吉野家 羽曳野店","住所":"〒583-0883 大阪府羽曳野市向野３丁目７４−１","ステータス":"APP_DISPLAY","region":"Habikino","lat":34.559586,"lng":135.577484},{"店舗名":"ほっかほっか亭 恵我之荘駅前店","住所":"〒583-0885 大阪府羽曳野市南恵我之荘８丁目１−２","ステータス":"APP_DISPLAY","region":"Habikino","lat":34.573105,"lng":135.573074},{"店舗名":"BAR enn","住所":"〒583-0886 大阪府羽曳野市恵我之荘4丁目4-16","ステータス":"APP_DISPLAY","region":"Habikino","lat":34.576599,"lng":135.573105},{"店舗名":"ジャンボ酒場 恵我之荘店","住所":"〒583-0886 大阪府羽曳野市恵我之荘４丁目４−２５","ステータス":"APP_DISPLAY","region":"Habikino","lat":34.576427,"lng":135.574387},{"店舗名":"お好み焼きSHIMIZUYA","住所":"〒583-0886 大阪府羽曳野市恵我之荘４丁目４−３２","ステータス":"APP_DISPLAY","region":"Habikino","lat":34.575516,"lng":135.574249},{"店舗名":"ビビンバ倶楽部SHIMIZUYA","住所":"〒583-0886 大阪府羽曳野市恵我之荘４丁目４−３２","ステータス":"APP_DISPLAY","region":"Habikino","lat":34.575516,"lng":135.574249},{"店舗名":"おにぎり さんぷ","住所":"羽曳野市恵我之荘5丁目1-24","ステータス":"RECEIPT","region":"Habikino","lat":34.574162,"lng":135.573807}]