[{"店舗名":"ニューカトマンズキッチン 鶴巻温泉 New Kathmandu Kitchen","住所":"〒257-0001 神奈川県秦野市鶴巻北２丁目４−５","ステータス":"RECEIPT","region":"Hadano","lat":35.381962,"lng":139.277863},{"店舗名":"HibiPan Bakery&Cafe","住所":"〒257-0002 神奈川県秦野市鶴巻南２丁目１０−１９","ステータス":"RECEIPT","region":"Hadano","lat":35.375961,"lng":139.277222},{"店舗名":"カトマンズキッチン東海大学前店","住所":"〒257-0003","ステータス":"RECEIPT","region":"Hadano","lat":35.373379,"lng":139.250107},{"店舗名":"ロイラ インド・ネパールレストラン&バー","住所":"〒257-0003 神奈川県秦野市南矢名１−１４−３５","ステータス":"RECEIPT","region":"Hadano","lat":35.372028,"lng":139.270737},{"店舗名":"ＫＡＴＨＭＡＮＤＵ　ＫＩＴＣＨＥＮ　東海大学前","住所":"〒257-0003 神奈川県秦野市南矢名１丁目１−１","ステータス":"RECEIPT","region":"Hadano","lat":35.373032,"lng":139.271133},{"店舗名":"家系ラーメン王道乃印ふく家","住所":"〒257-0003 神奈川県秦野市南矢名１丁目１４−１０","ステータス":"RECEIPT","region":"Hadano","lat":35.372345,"lng":139.271454},{"店舗名":"青藍亭","住所":"〒257-0003 神奈川県秦野市南矢名１丁目１４−２０","ステータス":"RECEIPT","region":"Hadano","lat":35.371906,"lng":139.272079},{"店舗名":"香香マーラータン 東海大学店","住所":"〒257-0003 神奈川県秦野市南矢名２丁目１１−５","ステータス":"RECEIPT","region":"Hadano","lat":35.370209,"lng":139.272629},{"店舗名":"夢を語れ神奈川","住所":"〒257-0003 神奈川県秦野市南矢名２丁目３−１６","ステータス":"RECEIPT","region":"Hadano","lat":35.370518,"lng":139.272507},{"店舗名":"らぁ麺食堂井澤","住所":"〒257-0004 神奈川県秦野市下大槻１７３","ステータス":"RECEIPT","region":"Hadano","lat":35.36237,"lng":139.258606},{"店舗名":"リトルインディア Little India","住所":"〒257-0031 神奈川県秦野市曽屋４８２５−１","ステータス":"RECEIPT","region":"Hadano","lat":35.37254,"lng":139.238724},{"店舗名":"魚福","住所":"〒257-0034 神奈川県秦野市大秦町１−１","ステータス":"RECEIPT","region":"Hadano","lat":35.370495,"lng":139.226273},{"店舗名":"手羽だるま秦野駅前店","住所":"〒257-0035 神奈川県秦野市本町２丁目１−３１","ステータス":"RECEIPT","region":"Hadano","lat":35.371323,"lng":139.22699},{"店舗名":"たこまる　イオン秦野店","住所":"〒257-0041 神奈川県秦野市入船町","ステータス":"RECEIPT","region":"Hadano","lat":35.377808,"lng":139.229263},{"店舗名":"らあめん花月嵐Express イオン秦野SC店","住所":"〒257-0041 神奈川県秦野市入船町１２−１","ステータス":"APP_DISPLAY","region":"Hadano","lat":35.377827,"lng":139.228149},{"店舗名":"中華料理　王府","住所":"〒257-0043 神奈川県秦野市栄町７−１１","ステータス":"RECEIPT","region":"Hadano","lat":35.375618,"lng":139.226257},{"店舗名":"ＱＵＡＮ　ＣＯＣ　ＨＡＤＡＮＯ","住所":"〒259-1302 神奈川県秦野市菩提133-22","ステータス":"RECEIPT","region":"Hadano","lat":35.393745,"lng":139.200806},{"店舗名":"Brazilian Kitchen Tempero Caseiro","住所":"〒259-1312 神奈川県秦野市春日町１","ステータス":"RECEIPT","region":"Hadano","lat":35.377636,"lng":139.181519},{"店舗名":"本格中華かつ屋寒梅亭","住所":"〒259-1314 神奈川県秦野市若松町","ステータス":"RECEIPT","region":"Hadano","lat":35.373402,"lng":139.188873},{"店舗名":"大好きや 秦野渋沢店","住所":"〒259-1321 神奈川県秦野市曲松２丁目４−５","ステータス":"RECEIPT","region":"Hadano","lat":35.372711,"lng":139.187805},{"店舗名":"海鮮丼Vinegar","住所":"〒259-1331 神奈川県秦野市堀西３７−１","ステータス":"RECEIPT","region":"Hadano","lat":35.374283,"lng":139.190216},{"店舗名":"Red Roof Café","住所":"神奈川県秦野市南矢名1-14-8","ステータス":"RECEIPT","region":"Hadano","lat":35.372383,"lng":139.27124}]