[{"店舗名":"ばんざい","住所":"〒205-0001","ステータス":"RECEIPT","region":"Hamura","lat":35.777363,"lng":139.303391},{"店舗名":"がじゅまる","住所":"〒205-0001","ステータス":"RECEIPT","region":"Hamura","lat":35.777363,"lng":139.303391},{"店舗名":"OZAKU CAMP","住所":"〒205-0001","ステータス":"RECEIPT","region":"Hamura","lat":35.777363,"lng":139.303391},{"店舗名":"肉処居酒屋　福の重","住所":"〒205-0001","ステータス":"RECEIPT","region":"Hamura","lat":35.777363,"lng":139.303391},{"店舗名":"つけめん美豚小作店","住所":"〒205-0001 東京都羽村市小作台","ステータス":"RECEIPT","region":"Hamura","lat":35.777363,"lng":139.303391},{"店舗名":"SHERPA KEBAB CURRY NAN AND BAR","住所":"〒205-0001 東京都羽村市小作台１丁目１２−７","ステータス":"RECEIPT","region":"Hamura","lat":35.777275,"lng":139.30249},{"店舗名":"arch and...","住所":"〒205-0001 東京都羽村市小作台１丁目６−１","ステータス":"RECEIPT","region":"Hamura","lat":35.778522,"lng":139.301712},{"店舗名":"酒亭　雅楽","住所":"〒205-0001 東京都羽村市小作台１丁目6−９ アドラシオン小作","ステータス":"RECEIPT","region":"Hamura","lat":35.778522,"lng":139.301712},{"店舗名":"ばんざい居酒屋 小作","住所":"〒205-0001 東京都羽村市小作台1丁目7番2号","ステータス":"RECEIPT","region":"Hamura","lat":35.779224,"lng":139.301529},{"店舗名":"ミャンマー&タイレストランシェーニャトゥ","住所":"〒205-0001 東京都羽村市小作台２丁目","ステータス":"RECEIPT","region":"Hamura","lat":35.779217,"lng":139.299026},{"店舗名":"PAM'S BAR&RESTO","住所":"〒205-0001 東京都羽村市小作台3丁目21-6","ステータス":"RECEIPT","region":"Hamura","lat":35.775627,"lng":139.300201},{"店舗名":"アジアン ダイニング&バー アラティ ARATI","住所":"〒205-0002 東京都羽村市栄町１丁目","ステータス":"RECEIPT","region":"Hamura","lat":35.775005,"lng":139.307312},{"店舗名":"ASIAN RESTAURANT FOOD GAEDEN","住所":"〒205-0011 東京都羽村市五ノ神１丁目４−５ ビューシャトル","ステータス":"RECEIPT","region":"Hamura","lat":35.759735,"lng":139.31871},{"店舗名":"インドカレーレストラン マサラ 羽村店","住所":"〒205-0011 東京都羽村市五ノ神１丁目８−１４","ステータス":"RECEIPT","region":"Hamura","lat":35.757927,"lng":139.316879},{"店舗名":"マサラ羽村店","住所":"〒205-0011 東京都羽村市五ノ神１丁目８−１４","ステータス":"RECEIPT","region":"Hamura","lat":35.757927,"lng":139.316879},{"店舗名":"Cafe'&Bar 808","住所":"〒205-0011 東京都羽村市五ノ神４丁目２−８","ステータス":"RECEIPT","region":"Hamura","lat":35.760292,"lng":139.315353},{"店舗名":"麺の蔵かめだ屋","住所":"〒205-0013 東京都羽村市富士見平1丁目4-8","ステータス":"RECEIPT","region":"Hamura","lat":35.766415,"lng":139.324219},{"店舗名":"1/4KARAT","住所":"〒205-0022 東京都羽村市双葉町２丁目１９−７","ステータス":"RECEIPT","region":"Hamura","lat":35.758793,"lng":139.33577}]