[{"店舗名":"来来麻辣湯","住所":"〒738-0001","ステータス":"RECEIPT","region":"Hatsukaichi","lat":34.370068,"lng":132.328247},{"店舗名":"元祖麺一","住所":"〒738-0001 広島県廿日市市佐方","ステータス":"RECEIPT","region":"Hatsukaichi","lat":34.370068,"lng":132.328247},{"店舗名":"お好み焼き　なぎさ","住所":"〒738-0001 広島県廿日市市佐方","ステータス":"RECEIPT","region":"Hatsukaichi","lat":34.370068,"lng":132.328247},{"店舗名":"お好み焼ぐぅぐぅ 佐方店","住所":"〒738-0001 広島県廿日市市佐方１丁目","ステータス":"RECEIPT","region":"Hatsukaichi","lat":34.363831,"lng":132.339951},{"店舗名":"お好み焼き いわもと","住所":"〒738-0001 広島県廿日市市佐方１丁目４−１６","ステータス":"RECEIPT","region":"Hatsukaichi","lat":34.364666,"lng":132.340958},{"店舗名":"201珈琲焙煎所","住所":"〒738-0011 広島県廿日市市駅前４−２５","ステータス":"RECEIPT","region":"Hatsukaichi","lat":34.35754,"lng":132.336014},{"店舗名":"徳川 廿日市店","住所":"〒738-0023 広島県廿日市市下平良２丁目","ステータス":"RECEIPT","region":"Hatsukaichi","lat":34.345974,"lng":132.334503},{"店舗名":"お好み焼きぐぅぐぅ　宮内店","住所":"〒738-0034 広島県廿日市市宮内１５６９","ステータス":"RECEIPT","region":"Hatsukaichi","lat":34.34663,"lng":132.306213},{"店舗名":"むすび屋","住所":"〒738-0034 広島県廿日市市宮内２丁目１−７","ステータス":"RECEIPT","region":"Hatsukaichi","lat":34.349422,"lng":132.31781},{"店舗名":"ナンダインディアンダイニング","住所":"〒738-0034 広島県廿日市市宮内３丁目４ メゾン・シーブリーズD","ステータス":"RECEIPT","region":"Hatsukaichi","lat":34.347115,"lng":132.311432},{"店舗名":"つけ麺本舗辛部 廿日市店","住所":"〒738-0034 広島県廿日市市宮内４３１４−１ b103","ステータス":"RECEIPT","region":"Hatsukaichi","lat":34.344666,"lng":132.304733},{"店舗名":"ナンダ　インディアンダイニング","住所":"〒738-0034 広島県廿日市市宮内４丁目１０−１３","ステータス":"RECEIPT","region":"Hatsukaichi","lat":34.348614,"lng":132.312302},{"店舗名":"SATYAM VIDHI INDIAN","住所":"〒738-0054 広島県廿日市市阿品３丁目１−１ 2階 フジグランナタリ フードコート","ステータス":"RECEIPT","region":"Hatsukaichi","lat":34.323738,"lng":132.318344}]