[{"店舗名":"インド・ネパール料理　ポカラ碧南店","住所":"〒447-0023 愛知県碧南市池下町４丁目１６","ステータス":"APP_DISPLAY","region":"Hekinan","lat":34.885197,"lng":137.01445},{"店舗名":"ポカラ碧南店","住所":"〒447-0023 愛知県碧南市池下町４丁目１６","ステータス":"RECEIPT","region":"Hekinan","lat":34.885197,"lng":137.01445},{"店舗名":"中国家庭料理 京東","住所":"〒447-0027","ステータス":"APP_DISPLAY","region":"Hekinan","lat":34.886288,"lng":137.016663},{"店舗名":"アトラクト奥山","住所":"〒447-0029 愛知県碧南市二本木町３丁目５０−１","ステータス":"APP_DISPLAY","region":"Hekinan","lat":34.88998,"lng":137.014053},{"店舗名":"アグラ","住所":"〒447-0038 愛知県碧南市荒子町","ステータス":"APP_DISPLAY","region":"Hekinan","lat":34.897655,"lng":137.010513},{"店舗名":"チキン・ウイングストリート 碧南店","住所":"〒447-0041 愛知県碧南市緑町３－１１５","ステータス":"APP_DISPLAY","region":"Hekinan","lat":34.894028,"lng":137.005142},{"店舗名":"ピザハット 碧南店","住所":"〒447-0041 愛知県碧南市緑町３丁目１１５","ステータス":"APP_DISPLAY","region":"Hekinan","lat":34.894028,"lng":137.005142},{"店舗名":"トスカーニパスタ 碧南店","住所":"〒447-0041 愛知県碧南市緑町３丁目１１５","ステータス":"APP_DISPLAY","region":"Hekinan","lat":34.894028,"lng":137.005142},{"店舗名":"ドミノ・ピザ 碧南笹山町","住所":"〒447-0053 愛知県碧南市笹山町","ステータス":"APP_DISPLAY","region":"Hekinan","lat":34.900227,"lng":137.007462},{"店舗名":"折詰弁当 西洋軒","住所":"〒447-0807 愛知県碧南市伏見町","ステータス":"RECEIPT","region":"Hekinan","lat":34.882282,"lng":137.003738},{"店舗名":"CLOUD9","住所":"〒447-0846 愛知県碧南市中町３丁目","ステータス":"RECEIPT","region":"Hekinan","lat":34.873592,"lng":136.983978},{"店舗名":"CLOUD9","住所":"〒447-0846 愛知県碧南市中町３丁目８","ステータス":"APP_DISPLAY","region":"Hekinan","lat":34.873436,"lng":136.984375},{"店舗名":"中国菜館味圓","住所":"〒447-0851","ステータス":"APP_DISPLAY","region":"Hekinan","lat":34.877068,"lng":136.984283},{"店舗名":"新撰組","住所":"〒447-0875 愛知県碧南市善明町","ステータス":"RECEIPT","region":"Hekinan","lat":34.880787,"lng":136.988815},{"店舗名":"ベトナム料理　LADO","住所":"〒447-0876 愛知県碧南市野田町","ステータス":"APP_DISPLAY","region":"Hekinan","lat":34.884178,"lng":136.990128},{"店舗名":"インド料理マヤマサラ碧南店","住所":"〒447-0876 愛知県碧南市野田町１１９","ステータス":"APP_DISPLAY","region":"Hekinan","lat":34.884274,"lng":136.990967},{"店舗名":"インドネシア料理MARI COY","住所":"〒447-0877","ステータス":"RECEIPT","region":"Hekinan","lat":34.888157,"lng":136.990692},{"店舗名":"お弁当のわが家","住所":"〒447-0882","ステータス":"APP_DISPLAY","region":"Hekinan","lat":34.879738,"lng":137.001587}]