[{"店舗名":"フロイトミヒ","住所":"〒350-1206 埼玉県日高市南平沢１０８２−４","ステータス":"RECEIPT","region":"Hidaka","lat":35.90699,"lng":139.339859},{"店舗名":"まはとま","住所":"〒350-1206 埼玉県日高市南平沢２４７","ステータス":"RECEIPT","region":"Hidaka","lat":35.904022,"lng":139.334625},{"店舗名":"串焼家 のっけ","住所":"〒350-1213 埼玉県日高市高萩１６３１−８","ステータス":"RECEIPT","region":"Hidaka","lat":35.902294,"lng":139.379761},{"店舗名":"唐揚げの蔦日高本店","住所":"〒350-1231 埼玉県日高市鹿山２４８","ステータス":"RECEIPT","region":"Hidaka","lat":35.896717,"lng":139.343628},{"店舗名":"Spice Garden","住所":"〒350-1249 埼玉県日高市高麗川２丁目１−１５","ステータス":"RECEIPT","region":"Hidaka","lat":35.895535,"lng":139.338104},{"店舗名":"DELICA TEN･SEN","住所":"〒350-1255 埼玉県日高市武蔵台１丁目１−１","ステータス":"RECEIPT","region":"Hidaka","lat":35.881645,"lng":139.304535}]