[{"店舗名":"クリスピーチキンアンドトマト 徳庵店 CRISPY CHICKEN n' TOMATO Tokuan","住所":"〒577-0001 大阪府東大阪市徳庵本町１−１５","ステータス":"RECEIPT","region":"Higashi-Osaka","lat":34.692917,"lng":135.581314},{"店舗名":"お好み焼き　おいでや","住所":"〒577-0002 大阪府東大阪市稲田上町１丁目６−２ プラザあさも 102","ステータス":"RECEIPT","region":"Higashi-Osaka","lat":34.691971,"lng":135.582123},{"店舗名":"セイロンカリー 東大阪店","住所":"〒577-0004 大阪府東大阪市稲田新町２丁目３１−１６","ステータス":"APP_DISPLAY","region":"Higashi-Osaka","lat":34.688385,"lng":135.58902},{"店舗名":"手作り弁当Peace　荒本店","住所":"〒577-0011 大阪府東大阪市荒本北１丁目７−１５","ステータス":"APP_DISPLAY","region":"Higashi-Osaka","lat":34.682045,"lng":135.597015},{"店舗名":"チキン・ウイングストリート 東大阪長田店","住所":"〒577-0013 大阪府東大阪市長田中２丁目１−１１","ステータス":"APP_DISPLAY","region":"Higashi-Osaka","lat":34.680054,"lng":135.588165},{"店舗名":"トスカーニパスタ 東大阪長田店","住所":"〒577-0013 大阪府東大阪市長田中２丁目１−１１","ステータス":"APP_DISPLAY","region":"Higashi-Osaka","lat":34.680054,"lng":135.588165},{"店舗名":"あの味が恋しい。","住所":"〒577-0016 大阪府東大阪市長田西","ステータス":"APP_DISPLAY","region":"Higashi-Osaka","lat":34.677887,"lng":135.58345},{"店舗名":"リカー＆フード ドリーム長田本店","住所":"〒577-0016 大阪府東大阪市長田西２丁目","ステータス":"RECEIPT","region":"Higashi-Osaka","lat":34.677528,"lng":135.586136},{"店舗名":"うなぎの照本 東大阪店","住所":"〒577-0022 大阪府東大阪市荒本新町８ −２７","ステータス":"RECEIPT","region":"Higashi-Osaka","lat":34.678127,"lng":135.602509},{"店舗名":"スタミナ丼 活家 東大阪店","住所":"〒577-0022 大阪府東大阪市荒本新町８−２７","ステータス":"RECEIPT","region":"Higashi-Osaka","lat":34.678127,"lng":135.602509},{"店舗名":"唐揚げのDoN　大商大前店","住所":"〒577-0036 大阪府東大阪市御厨栄町１丁目７−２５","ステータス":"APP_DISPLAY","region":"Higashi-Osaka","lat":34.666389,"lng":135.583466},{"店舗名":"美味カレーLabo","住所":"〒577-0036 大阪府東大阪市御厨栄町３丁目１−２８","ステータス":"APP_DISPLAY","region":"Higashi-Osaka","lat":34.667583,"lng":135.585419},{"店舗名":"麻辣湯","住所":"〒577-0056 大阪府東大阪市長堂１丁目１０−１","ステータス":"APP_DISPLAY","region":"Higashi-Osaka","lat":34.665924,"lng":135.562134},{"店舗名":"担担麺専門店 ENISHI 東大阪布施店","住所":"〒577-0056 大阪府東大阪市長堂１丁目１−４１","ステータス":"RECEIPT","region":"Higashi-Osaka","lat":34.664249,"lng":135.565765},{"店舗名":"蟹と活ふぐ専門店　蟹虎","住所":"〒577-0056 大阪府東大阪市長堂１丁目８−１１","ステータス":"APP_DISPLAY","region":"Higashi-Osaka","lat":34.666206,"lng":135.563095},{"店舗名":"ごはんが進む！『チキン南蛮本舗』布施駅前店","住所":"〒577-0056 大阪府東大阪市長堂２丁目１−２３","ステータス":"APP_DISPLAY","region":"Higashi-Osaka","lat":34.66441,"lng":135.56488},{"店舗名":"『油そば桐ちゃん』～食べログ百名店 桐麺監修～ 布施駅前店","住所":"〒577-0056 大阪府東大阪市長堂２丁目１−２３","ステータス":"APP_DISPLAY","region":"Higashi-Osaka","lat":34.66441,"lng":135.56488},{"店舗名":"ごはんがすすむ！油淋鶏飯店 布施駅前店","住所":"〒577-0056 大阪府東大阪市長堂２丁目１−２３","ステータス":"APP_DISPLAY","region":"Higashi-Osaka","lat":34.66441,"lng":135.56488},{"店舗名":"わらび餅茶屋 布施駅前店","住所":"〒577-0056 大阪府東大阪市長堂２丁目１−２３","ステータス":"APP_DISPLAY","region":"Higashi-Osaka","lat":34.66441,"lng":135.56488},{"店舗名":"ミルゼリッチ 布施駅前店","住所":"〒577-0056 大阪府東大阪市長堂２丁目１−２３","ステータス":"APP_DISPLAY","region":"Higashi-Osaka","lat":34.66441,"lng":135.56488},{"店舗名":"二段仕込み唐揚げ『鶏の福』布施駅前店","住所":"〒577-0056 大阪府東大阪市長堂２丁目１−２３ FUSE FUKU BLD 3階～5階","ステータス":"APP_DISPLAY","region":"Higashi-Osaka","lat":34.66441,"lng":135.56488},{"店舗名":"ひみちゅきち","住所":"〒577-0057 大阪府東大阪市足代新町10-11","ステータス":"APP_DISPLAY","region":"Higashi-Osaka","lat":34.665421,"lng":135.560455},{"店舗名":"アンドタイム　布施店","住所":"〒577-0057 大阪府東大阪市足代新町１１−１","ステータス":"APP_DISPLAY","region":"Higashi-Osaka","lat":34.665031,"lng":135.560074},{"店舗名":"今日ぐらいいいやん？","住所":"〒577-0057 大阪府東大阪市足代新町５−１２","ステータス":"APP_DISPLAY","region":"Higashi-Osaka","lat":34.665375,"lng":135.560898},{"店舗名":"大寿庵","住所":"〒577-0062 大阪府東大阪市森河内東１丁目１９−３","ステータス":"APP_DISPLAY","region":"Higashi-Osaka","lat":34.680744,"lng":135.568924},{"店舗名":"ザ・めしや 高井田店","住所":"〒577-0063 大阪府東大阪市川俣１丁目５−３０","ステータス":"RECEIPT","region":"Higashi-Osaka","lat":34.679081,"lng":135.575089},{"店舗名":"MACHICOCO CAFE","住所":"〒577-0064 大阪府東大阪市川俣本町１１−１０","ステータス":"APP_DISPLAY","region":"Higashi-Osaka","lat":34.681671,"lng":135.579865},{"店舗名":"Cafe cuore","住所":"〒577-0801","ステータス":"RECEIPT","region":"Higashi-Osaka","lat":34.66494,"lng":135.581497},{"店舗名":"大阪王将 八戸ノ里店","住所":"〒577-0801 大阪府東大阪市小阪２丁目１３−１１","ステータス":"APP_DISPLAY","region":"Higashi-Osaka","lat":34.663963,"lng":135.588074},{"店舗名":"横浜家系ラーメン 一蓮家 八戸ノ里店","住所":"〒577-0801 大阪府東大阪市小阪２丁目１３−１４","ステータス":"APP_DISPLAY","region":"Higashi-Osaka","lat":34.663979,"lng":135.588425},{"店舗名":"ラーメンフクロウ2nd","住所":"〒577-0801 大阪府東大阪市小阪２丁目１５−１４","ステータス":"APP_DISPLAY","region":"Higashi-Osaka","lat":34.66436,"lng":135.587845},{"店舗名":"やゑの亭","住所":"〒577-0803 大阪府東大阪市下小阪５丁目１０−１４","ステータス":"APP_DISPLAY","region":"Higashi-Osaka","lat":34.663071,"lng":135.5923},{"店舗名":"ほっかほっか亭 八戸ノ里駅前店","住所":"〒577-0803 大阪府東大阪市下小阪５丁目１−２１","ステータス":"APP_DISPLAY","region":"Higashi-Osaka","lat":34.663155,"lng":135.589874},{"店舗名":"INDIAN NEPALI RESTAURANT MEGA","住所":"〒577-0804 大阪府東大阪市中小阪１丁目７−１７","ステータス":"APP_DISPLAY","region":"Higashi-Osaka","lat":34.656567,"lng":135.582123},{"店舗名":"スパイスダイニング　ここ","住所":"〒577-0807 大阪府東大阪市菱屋西１丁目１７−１１","ステータス":"APP_DISPLAY","region":"Higashi-Osaka","lat":34.650665,"lng":135.578064},{"店舗名":"【本格麻辣×自家製春雨】白虎麻辣湯 横沼町3丁目店","住所":"〒577-0808 大阪府東大阪市横沼町３丁目４−１","ステータス":"RECEIPT","region":"Higashi-Osaka","lat":34.657284,"lng":135.57605},{"店舗名":"みちゃピザ","住所":"〒577-0817 大阪府東大阪市近江堂１丁目１５−１７","ステータス":"RECEIPT","region":"Higashi-Osaka","lat":34.643452,"lng":135.582932},{"店舗名":"笑美食堂","住所":"〒577-0818","ステータス":"APP_DISPLAY","region":"Higashi-Osaka","lat":34.64994,"lng":135.581329},{"店舗名":"Birdie","住所":"〒577-0818 大阪府東大阪市小若江２丁目１５−２","ステータス":"APP_DISPLAY","region":"Higashi-Osaka","lat":34.648598,"lng":135.585144},{"店舗名":"街かど屋 近大前店","住所":"〒577-0818 大阪府東大阪市小若江３丁目７−２４","ステータス":"RECEIPT","region":"Higashi-Osaka","lat":34.651478,"lng":135.585312},{"店舗名":"大阪王将 近畿大学前店","住所":"〒577-0818 大阪府東大阪市小若江３丁目７−６","ステータス":"APP_DISPLAY","region":"Higashi-Osaka","lat":34.651569,"lng":135.585876},{"店舗名":"唐揚げのDoN　近大前店","住所":"〒577-0818 大阪府東大阪市小若江３丁目７−７","ステータス":"APP_DISPLAY","region":"Higashi-Osaka","lat":34.651577,"lng":135.585983},{"店舗名":"かつ吉弥刀駅前店","住所":"〒577-0823 大阪府東大阪市金岡１丁目１６−３","ステータス":"RECEIPT","region":"Higashi-Osaka","lat":34.640591,"lng":135.583755},{"店舗名":"インド料理　サクラ","住所":"〒577-0824","ステータス":"RECEIPT","region":"Higashi-Osaka","lat":34.641529,"lng":135.578537},{"店舗名":"楓林軒","住所":"〒577-0835 大阪府東大阪市柏田西２丁目１１−９","ステータス":"APP_DISPLAY","region":"Higashi-Osaka","lat":34.646839,"lng":135.567642},{"店舗名":"ホルモン ふっちー","住所":"〒577-0836","ステータス":"APP_DISPLAY","region":"Higashi-Osaka","lat":34.6492,"lng":135.563065},{"店舗名":"希楽","住所":"〒577-0836 大阪府東大阪市渋川町２丁目１−２９","ステータス":"APP_DISPLAY","region":"Higashi-Osaka","lat":34.648113,"lng":135.563156},{"店舗名":"大阪ふくちぁんラーメン　布施渋川町店","住所":"〒577-0836 大阪府東大阪市渋川町３丁目１−３０","ステータス":"APP_DISPLAY","region":"Higashi-Osaka","lat":34.645588,"lng":135.563461},{"店舗名":"ラーメン男塾 布施渋川町店 Ramen Otoko Juku Fuse Shibukawa-choten","住所":"〒577-0836 大阪府東大阪市渋川町３丁目１−３０","ステータス":"APP_DISPLAY","region":"Higashi-Osaka","lat":34.645588,"lng":135.563461},{"店舗名":"横浜家系ラーメン 一蓮家 布施店","住所":"〒577-0837 大阪府東大阪市寿町３丁目２３−２","ステータス":"APP_DISPLAY","region":"Higashi-Osaka","lat":34.651402,"lng":135.562897},{"店舗名":"焼肉工房もっちゃん","住所":"〒577-0842","ステータス":"APP_DISPLAY","region":"Higashi-Osaka","lat":34.659866,"lng":135.562378},{"店舗名":"チキン・ウイングストリート 俊徳道駅前店","住所":"〒577-0843 大阪府東大阪市荒川２丁目２４−８","ステータス":"APP_DISPLAY","region":"Higashi-Osaka","lat":34.658691,"lng":135.571152},{"店舗名":"トスカーニパスタ 俊徳道駅前店","住所":"〒577-0843 大阪府東大阪市荒川２丁目２４−８","ステータス":"APP_DISPLAY","region":"Higashi-Osaka","lat":34.658691,"lng":135.571152},{"店舗名":"ほっかほっか亭 永和駅前店","住所":"〒577-0843 大阪府東大阪市荒川３丁目５−６","ステータス":"APP_DISPLAY","region":"Higashi-Osaka","lat":34.66383,"lng":135.571899},{"店舗名":"ほっかほっか亭 太平寺店","住所":"〒577-0844 大阪府東大阪市太平寺２丁目１０−２６","ステータス":"APP_DISPLAY","region":"Higashi-Osaka","lat":34.653008,"lng":135.567291},{"店舗名":"うなーずキッチン","住所":"〒577-0848 大阪府東大阪市岸田堂西２丁目","ステータス":"APP_DISPLAY","region":"Higashi-Osaka","lat":34.653965,"lng":135.561172},{"店舗名":"街中弁当 千行","住所":"〒578-0901 大阪府東大阪市加納８丁目３５−６５","ステータス":"APP_DISPLAY","region":"Higashi-Osaka","lat":34.700924,"lng":135.619125},{"店舗名":"お好み焼・鉄板焼ファミリー居酒屋 偶 吉田駅前店","住所":"〒578-0903 大阪府東大阪市今米1丁目2番45号","ステータス":"RECEIPT","region":"Higashi-Osaka","lat":34.680443,"lng":135.624756},{"店舗名":"旬菜 さかなと酒 匠海 隠れ家","住所":"〒578-0904","ステータス":"RECEIPT","region":"Higashi-Osaka","lat":34.685863,"lng":135.619553},{"店舗名":"チキン・ウイングストリート 東大阪吉原店","住所":"〒578-0904 大阪府東大阪市吉原２丁目３−４３","ステータス":"APP_DISPLAY","region":"Higashi-Osaka","lat":34.684803,"lng":135.624329},{"店舗名":"トスカーニパスタ 東大阪吉原店","住所":"〒578-0904 大阪府東大阪市吉原２丁目３−４３","ステータス":"APP_DISPLAY","region":"Higashi-Osaka","lat":34.684803,"lng":135.624329},{"店舗名":"大阪ふくちぁんラーメン　吉田店","住所":"〒578-0904 大阪府東大阪市吉原２丁目４−３３","ステータス":"APP_DISPLAY","region":"Higashi-Osaka","lat":34.686825,"lng":135.625641},{"店舗名":"ラーメン男塾 吉田店","住所":"〒578-0904 大阪府東大阪市吉原２丁目４−３３","ステータス":"APP_DISPLAY","region":"Higashi-Osaka","lat":34.686825,"lng":135.625641},{"店舗名":"ふくのやま","住所":"〒578-0924 大阪府東大阪市吉田６丁目５−２２","ステータス":"APP_DISPLAY","region":"Higashi-Osaka","lat":34.664749,"lng":135.626938},{"店舗名":"JHARANA RESTURENT AND BAR","住所":"〒578-0931","ステータス":"RECEIPT","region":"Higashi-Osaka","lat":34.66,"lng":135.620895},{"店舗名":"インド料理　桜","住所":"〒578-0931","ステータス":"RECEIPT","region":"Higashi-Osaka","lat":34.66,"lng":135.620895},{"店舗名":"肉の森田屋 花園店","住所":"〒578-0937 大阪府東大阪市花園本町１丁目２−３０","ステータス":"APP_DISPLAY","region":"Higashi-Osaka","lat":34.662193,"lng":135.618546},{"店舗名":"肉屋まがり花園店","住所":"〒578-0937 大阪府東大阪市花園本町１丁目６−７","ステータス":"APP_DISPLAY","region":"Higashi-Osaka","lat":34.662384,"lng":135.617996},{"店舗名":"INDIAN RESTAURANT　JUCTION","住所":"〒578-0941","ステータス":"RECEIPT","region":"Higashi-Osaka","lat":34.664013,"lng":135.612335},{"店舗名":"coconico","住所":"〒578-0944 大阪府東大阪市若江西新町３丁目６−２４","ステータス":"APP_DISPLAY","region":"Higashi-Osaka","lat":34.655464,"lng":135.594193},{"店舗名":"ラーメン男塾 八戸ノ里店","住所":"〒578-0947 大阪府東大阪市西岩田３丁目５−６","ステータス":"APP_DISPLAY","region":"Higashi-Osaka","lat":34.664673,"lng":135.597687},{"店舗名":"大阪ふくちぁんラーメン　八戸ノ里店","住所":"〒578-0947 大阪府東大阪市西岩田３丁目５−６","ステータス":"APP_DISPLAY","region":"Higashi-Osaka","lat":34.664673,"lng":135.597687},{"店舗名":"ドミノ・ピザ 八戸ノ里店","住所":"〒578-0947 大阪府東大阪市西岩田３丁目５−８","ステータス":"APP_DISPLAY","region":"Higashi-Osaka","lat":34.664494,"lng":135.597702},{"店舗名":"TRACT the local","住所":"〒578-0948 大阪府東大阪市菱屋東２丁目１−２８","ステータス":"APP_DISPLAY","region":"Higashi-Osaka","lat":34.66684,"lng":135.609482},{"店舗名":"ラーメン男塾 横枕店 Ramen Otoko Juku Yokomakuraten","住所":"〒578-0955 大阪府東大阪市横枕南５−１０","ステータス":"APP_DISPLAY","region":"Higashi-Osaka","lat":34.678391,"lng":135.606659},{"店舗名":"大阪ふくちぁんラーメン　横枕店","住所":"〒578-0955 大阪府東大阪市横枕南５−１０ ふくちあんラーメン","ステータス":"APP_DISPLAY","region":"Higashi-Osaka","lat":34.678391,"lng":135.606659},{"店舗名":"ICHIGO MART","住所":"〒578-0961","ステータス":"APP_DISPLAY","region":"Higashi-Osaka","lat":34.694351,"lng":135.598846},{"店舗名":"満腹のりちゃん","住所":"〒578-0965 大阪府東大阪市本庄西１丁目８−４４","ステータス":"RECEIPT","region":"Higashi-Osaka","lat":34.685028,"lng":135.599304},{"店舗名":"昇龍物産麻辣湯","住所":"〒578-0972 大阪府東大阪市鴻池町１丁目２７−３５","ステータス":"APP_DISPLAY","region":"Higashi-Osaka","lat":34.698082,"lng":135.606415},{"店舗名":"Chou CREABee","住所":"〒579-8001 大阪府東大阪市善根寺町５丁目３−１","ステータス":"RECEIPT","region":"Higashi-Osaka","lat":34.701263,"lng":135.644669},{"店舗名":"ほっかほっか亭 新石切駅前店","住所":"〒579-8013 大阪府東大阪市西石切町３丁目３−２５","ステータス":"APP_DISPLAY","region":"Higashi-Osaka","lat":34.680416,"lng":135.640656},{"店舗名":"ほっかほっか亭 中石切町店","住所":"〒579-8014 大阪府東大阪市中石切町４丁目４−２７","ステータス":"APP_DISPLAY","region":"Higashi-Osaka","lat":34.687595,"lng":135.64418},{"店舗名":"肉の森田屋 額田店","住所":"〒579-8023 大阪府東大阪市立花町１７−１５","ステータス":"APP_DISPLAY","region":"Higashi-Osaka","lat":34.67527,"lng":135.650925},{"店舗名":"中華料理 福聚軒","住所":"〒579-8024 大阪府東大阪市南荘町９−３７","ステータス":"APP_DISPLAY","region":"Higashi-Osaka","lat":34.673389,"lng":135.642426},{"店舗名":"石切鯛焼き和ノ国","住所":"〒579-8027","ステータス":"APP_DISPLAY","region":"Higashi-Osaka","lat":34.678322,"lng":135.645126},{"店舗名":"米と豚","住所":"〒579-8027","ステータス":"APP_DISPLAY","region":"Higashi-Osaka","lat":34.678322,"lng":135.645126},{"店舗名":"【本格麻辣×自家製春雨】白虎麻辣湯 新石切店","住所":"〒579-8027 大阪府東大阪市東山町４−１３ OHS Build 新石切 1F","ステータス":"RECEIPT","region":"Higashi-Osaka","lat":34.67963,"lng":135.642548},{"店舗名":"Kitchen ohana","住所":"〒579-8045 大阪府東大阪市本町１５−１３","ステータス":"APP_DISPLAY","region":"Higashi-Osaka","lat":34.662392,"lng":135.640137},{"店舗名":"和処 おかもと","住所":"〒579-8045 大阪府東大阪市本町８−２２","ステータス":"APP_DISPLAY","region":"Higashi-Osaka","lat":34.663239,"lng":135.640137},{"店舗名":"【本格カオマンガイ】ヘルシーカオキッチン～瓢箪山店～","住所":"〒579-8046 大阪府東大阪市昭和町１６−１１","ステータス":"RECEIPT","region":"Higashi-Osaka","lat":34.662357,"lng":135.634872},{"店舗名":"大起水産 街のみなと 瓢箪山店","住所":"〒579-8046 大阪府東大阪市昭和町３−２","ステータス":"APP_DISPLAY","region":"Higashi-Osaka","lat":34.662659,"lng":135.64006},{"店舗名":"焼肉工房けん","住所":"〒579-8051 大阪府東大阪市瓢箪山町３−１５","ステータス":"RECEIPT","region":"Higashi-Osaka","lat":34.660828,"lng":135.640854},{"店舗名":"チョークアートカフェ&BAR Shine","住所":"〒579-8051 東大阪市瓢箪山町2番11号","ステータス":"RECEIPT","region":"Higashi-Osaka","lat":34.661503,"lng":135.640991},{"店舗名":"ほっかほっか亭 瓢箪山店","住所":"〒579-8053 大阪府東大阪市四条町２−１３","ステータス":"APP_DISPLAY","region":"Higashi-Osaka","lat":34.658783,"lng":135.639954},{"店舗名":"花まる亭","住所":"〒579-8058 大阪府東大阪市神田町２−７","ステータス":"APP_DISPLAY","region":"Higashi-Osaka","lat":34.661377,"lng":135.640015},{"店舗名":"Olu Olu ベーグル","住所":"〒579-8065 大阪府東大阪市新池島町1丁目15-24","ステータス":"APP_DISPLAY","region":"Higashi-Osaka","lat":34.657681,"lng":135.631683},{"店舗名":"寿し まつもと","住所":"東大阪市大蓮東3丁目1番7号","ステータス":"APP_DISPLAY","region":"Higashi-Osaka","lat":34.637421,"lng":135.581879},{"店舗名":"うどん 大多喜","住所":"東大阪市稲田上町1丁目3番24号","ステータス":"APP_DISPLAY","region":"Higashi-Osaka","lat":34.692028,"lng":135.582092},{"店舗名":"そそもん食堂 近大前店","住所":"東大阪市小若江2-1-7","ステータス":"RECEIPT","region":"Higashi-Osaka","lat":34.651459,"lng":135.584183},{"店舗名":"JACKASS BURGER","住所":"東大阪市小若江3丁目5番10号","ステータス":"RECEIPT","region":"Higashi-Osaka","lat":34.652203,"lng":135.586105},{"店舗名":"街かど屋 若江南店","住所":"東大阪市若江東町6丁目1番38号","ステータス":"RECEIPT","region":"Higashi-Osaka","lat":34.654594,"lng":135.607788},{"店舗名":"ぽっぽ","住所":"東大阪市御厨栄町3丁目1番28号","ステータス":"APP_DISPLAY","region":"Higashi-Osaka","lat":34.667583,"lng":135.585419},{"店舗名":"らどん小椋","住所":"東大阪市長堂2丁目12番6号","ステータス":"APP_DISPLAY","region":"Higashi-Osaka","lat":34.667469,"lng":135.564957},{"店舗名":"ラーメン男塾","住所":"東大阪市長堂2丁目3番12号","ステータス":"APP_DISPLAY","region":"Higashi-Osaka","lat":34.664894,"lng":135.56604},{"店舗名":"Kitchen friend 怜","住所":"東大阪市足代新町3番17号","ステータス":"RECEIPT","region":"Higashi-Osaka","lat":34.664684,"lng":135.561966},{"店舗名":"白いとんかつ 花ひらく 布施店","住所":"東大阪市足代新町4番12号","ステータス":"APP_DISPLAY","region":"Higashi-Osaka","lat":34.665298,"lng":135.56163},{"店舗名":"気まぐれ本舗","住所":"東大阪市下小阪5丁目16番19号","ステータス":"APP_DISPLAY","region":"Higashi-Osaka","lat":34.663036,"lng":135.593353},{"店舗名":"たんぽぽ Kitchen","住所":"東大阪市花園本町1丁目6番11号","ステータス":"RECEIPT","region":"Higashi-Osaka","lat":34.662365,"lng":135.618423},{"店舗名":"大盛スタミナ肉丼 ニンニク野郎 鴻池新田店","住所":"鴻池高架西 鴻池二番街, １-２２ 鴻池本町 東大阪市 大阪府 578-0971","ステータス":"APP_DISPLAY","region":"Higashi-Osaka","lat":34.797134,"lng":135.39122}]