[{"店舗名":"麺屋ひろせ","住所":"〒254-0002","ステータス":"APP_DISPLAY","region":"Hiratsuka","lat":35.372265,"lng":139.350311},{"店舗名":"ホルモン焼福だるま","住所":"〒254-0002","ステータス":"APP_DISPLAY","region":"Hiratsuka","lat":35.372265,"lng":139.350311},{"店舗名":"ESKINITA","住所":"〒254-0002","ステータス":"RECEIPT","region":"Hiratsuka","lat":35.372265,"lng":139.350311},{"店舗名":"以心麺心 平塚店","住所":"〒254-0002 神奈川県平塚市横内３３６１ー１","ステータス":"APP_DISPLAY","region":"Hiratsuka","lat":35.370213,"lng":139.351074},{"店舗名":"EMILY TEA&.BREAD","住所":"〒254-0012","ステータス":"APP_DISPLAY","region":"Hiratsuka","lat":35.388855,"lng":139.373001},{"店舗名":"個室焼肉 登龍門 平塚店 koshitsu Yakiniku Toryumon Hiratsuka store","住所":"〒254-0012 神奈川県平塚市大神","ステータス":"APP_DISPLAY","region":"Hiratsuka","lat":35.388855,"lng":139.373001},{"店舗名":"APNA ZAIKA DONER KEBAB","住所":"〒254-0012 神奈川県平塚市大神","ステータス":"RECEIPT","region":"Hiratsuka","lat":35.388855,"lng":139.373001},{"店舗名":"君尚香合","住所":"〒254-0012 神奈川県平塚市大神１６４１−２","ステータス":"APP_DISPLAY","region":"Hiratsuka","lat":35.382156,"lng":139.364258},{"店舗名":"辛麺屋 桝元 THE OUTLETS SHONAN HIRATSUKA店","住所":"〒254-0012 神奈川県平塚市大神６０５","ステータス":"APP_DISPLAY","region":"Hiratsuka","lat":35.388855,"lng":139.373001},{"店舗名":"カレーハウス CoCo壱番屋 平塚大神店","住所":"〒254-0012 神奈川県平塚市大神７丁目１１−１６","ステータス":"APP_DISPLAY","region":"Hiratsuka","lat":35.389423,"lng":139.360291},{"店舗名":"クリスピー・クリーム・ドーナツ THE OUTLETS SHONAN HIRATSUKA店","住所":"〒254-0012 神奈川県平塚市大神８丁目１−１","ステータス":"APP_DISPLAY","region":"Hiratsuka","lat":35.39262,"lng":139.365082},{"店舗名":"FLOWS GRILL BAR ジ アウトレット湘南平塚","住所":"〒254-0012 神奈川県平塚市大神８丁目１−１","ステータス":"APP_DISPLAY","region":"Hiratsuka","lat":35.39262,"lng":139.365082},{"店舗名":"吉野家 平塚大神店","住所":"〒254-0012 神奈川県平塚市大神８丁目２−１","ステータス":"APP_DISPLAY","region":"Hiratsuka","lat":35.39262,"lng":139.365082},{"店舗名":"ウェンディーズ・ファーストキッチン 129平塚田村店","住所":"〒254-0013 神奈川県平塚市田村３丁目６−１","ステータス":"APP_DISPLAY","region":"Hiratsuka","lat":35.37492,"lng":139.361542},{"店舗名":"丸源ラーメン 平塚田村店","住所":"〒254-0013 神奈川県平塚市田村４丁目１４−４１","ステータス":"APP_DISPLAY","region":"Hiratsuka","lat":35.377689,"lng":139.361649},{"店舗名":"焼肉ライク平塚四ノ宮店","住所":"〒254-0014 神奈川県平塚市四之宮","ステータス":"APP_DISPLAY","region":"Hiratsuka","lat":35.360092,"lng":139.367599},{"店舗名":"じゅえん","住所":"〒254-0014 神奈川県平塚市四之宮２丁目１４−３７","ステータス":"APP_DISPLAY","region":"Hiratsuka","lat":35.35112,"lng":139.355347},{"店舗名":"かっぱ寿司 平塚店","住所":"〒254-0014 神奈川県平塚市四之宮２丁目７−１１","ステータス":"APP_DISPLAY","region":"Hiratsuka","lat":35.349045,"lng":139.35495},{"店舗名":"丼ぶり専門 清水港 バンノウ水産 平塚店","住所":"〒254-0014 神奈川県平塚市四之宮２丁目７−１１","ステータス":"APP_DISPLAY","region":"Hiratsuka","lat":35.349045,"lng":139.35495},{"店舗名":"ラジインドレストラン","住所":"〒254-0014 神奈川県平塚市四之宮３丁目１９−１４","ステータス":"APP_DISPLAY","region":"Hiratsuka","lat":35.354065,"lng":139.361923},{"店舗名":"はなまるうどん 平塚四之宮店","住所":"〒254-0014 神奈川県平塚市四之宮５丁目２５−１０","ステータス":"APP_DISPLAY","region":"Hiratsuka","lat":35.360237,"lng":139.359299},{"店舗名":"ケンタッキーフライドチキン 平塚四之宮店","住所":"〒254-0014 神奈川県平塚市四之宮６丁目４−３６","ステータス":"APP_DISPLAY","region":"Hiratsuka","lat":35.358772,"lng":139.358292},{"店舗名":"オカモトタンメン　平塚店","住所":"〒254-0016 神奈川県平塚市東八幡１丁目１−３","ステータス":"APP_DISPLAY","region":"Hiratsuka","lat":35.339306,"lng":139.351669},{"店舗名":"NALU ΜΟΝΑ","住所":"〒254-0016 神奈川県平塚市東八幡１丁目１６−１","ステータス":"APP_DISPLAY","region":"Hiratsuka","lat":35.342094,"lng":139.352707},{"店舗名":"どん亭 平塚店","住所":"〒254-0016 神奈川県平塚市東八幡２丁目４−３９ アークミール","ステータス":"APP_DISPLAY","region":"Hiratsuka","lat":35.343536,"lng":139.356155},{"店舗名":"麺処 わたい","住所":"〒254-0016 神奈川県平塚市東八幡２丁目８−１８","ステータス":"RECEIPT","region":"Hiratsuka","lat":35.345695,"lng":139.355499},{"店舗名":"小僧寿し アール元気真土店","住所":"〒254-0018 神奈川県平塚市東真土１丁目１−９４","ステータス":"APP_DISPLAY","region":"Hiratsuka","lat":35.353394,"lng":139.352615},{"店舗名":"唐揚げ専門　はっぴ商店平塚店","住所":"〒254-0018 神奈川県平塚市東真土１丁目９−３２","ステータス":"APP_DISPLAY","region":"Hiratsuka","lat":35.355366,"lng":139.349487},{"店舗名":"スパゲッティーのパンチョ平塚店","住所":"〒254-0018 神奈川県平塚市東真土２丁目８−１","ステータス":"APP_DISPLAY","region":"Hiratsuka","lat":35.356506,"lng":139.357452},{"店舗名":"リンガーハット 平塚バイパス店","住所":"〒254-0018 神奈川県平塚市東真土２丁目８−７","ステータス":"APP_DISPLAY","region":"Hiratsuka","lat":35.35598,"lng":139.357269},{"店舗名":"壱ふじ","住所":"〒254-0018 神奈川県平塚市東真土３丁目２-２７","ステータス":"APP_DISPLAY","region":"Hiratsuka","lat":35.35564,"lng":139.349518},{"店舗名":"ディムヘンカフェヴェット","住所":"〒254-0019 神奈川県平塚市西真土4-22-14","ステータス":"APP_DISPLAY","region":"Hiratsuka","lat":35.364407,"lng":139.347},{"店舗名":"こっと•ろっぺ","住所":"〒254-0026 神奈川県平塚市中堂１７−９ パークライフ平塚","ステータス":"APP_DISPLAY","region":"Hiratsuka","lat":35.335022,"lng":139.362244},{"店舗名":"山大キッチン","住所":"〒254-0027 神奈川県平塚市堤町１−２−２","ステータス":"RECEIPT","region":"Hiratsuka","lat":35.337498,"lng":139.360657},{"店舗名":"辛麺屋桝元ららぽーと湘南平塚店","住所":"〒254-0031 神奈川県平塚市天沼１０−１","ステータス":"APP_DISPLAY","region":"Hiratsuka","lat":35.33651,"lng":139.352646},{"店舗名":"築地銀だこ ららぽーと湘南平塚店","住所":"〒254-0031 神奈川県平塚市天沼１０−１","ステータス":"APP_DISPLAY","region":"Hiratsuka","lat":35.33651,"lng":139.352646},{"店舗名":"吉野家 平塚天沼店","住所":"〒254-0031 神奈川県平塚市天沼１−４２","ステータス":"APP_DISPLAY","region":"Hiratsuka","lat":35.333134,"lng":139.353912},{"店舗名":"cafe ringo","住所":"〒254-0031 神奈川県平塚市天沼２−４０","ステータス":"APP_DISPLAY","region":"Hiratsuka","lat":35.333015,"lng":139.356308},{"店舗名":"焼肉 湘南","住所":"〒254-0031 神奈川県平塚市天沼７−１","ステータス":"APP_DISPLAY","region":"Hiratsuka","lat":35.333591,"lng":139.35553},{"店舗名":"アモレア （Amorea）","住所":"〒254-0033 神奈川県平塚市老松町１６－３","ステータス":"APP_DISPLAY","region":"Hiratsuka","lat":35.330715,"lng":139.35643},{"店舗名":"自然薯　和風＆韓国居酒屋　caprisious","住所":"〒254-0034","ステータス":"RECEIPT","region":"Hiratsuka","lat":35.328983,"lng":139.351959},{"店舗名":"クリスピー・クリーム・ドーナツ ラスカ平塚店","住所":"〒254-0034 神奈川県平塚市宝町１−１","ステータス":"APP_DISPLAY","region":"Hiratsuka","lat":35.328316,"lng":139.350952},{"店舗名":"サーティワンアイスクリーム ラスカ平塚店","住所":"〒254-0034 神奈川県平塚市宝町１−１","ステータス":"APP_DISPLAY","region":"Hiratsuka","lat":35.328316,"lng":139.350952},{"店舗名":"MASALA","住所":"〒254-0034 神奈川県平塚市宝町３－１８スカイビル","ステータス":"APP_DISPLAY","region":"Hiratsuka","lat":35.329407,"lng":139.351089},{"店舗名":"泪橋","住所":"〒254-0034 神奈川県平塚市宝町４−１６","ステータス":"APP_DISPLAY","region":"Hiratsuka","lat":35.330093,"lng":139.352219},{"店舗名":"中華料理 楽楽亭 rakurakutei","住所":"〒254-0034 神奈川県平塚市宝町５−５","ステータス":"APP_DISPLAY","region":"Hiratsuka","lat":35.32962,"lng":139.351105},{"店舗名":"Steak134","住所":"〒254-0034 神奈川県平塚市宝町９−１","ステータス":"APP_DISPLAY","region":"Hiratsuka","lat":35.32896,"lng":139.352219},{"店舗名":"みんなのぱんだ焼き ラスカ平塚店","住所":"〒254-0034神奈川県平塚市宝町１−１","ステータス":"APP_DISPLAY","region":"Hiratsuka","lat":35.328316,"lng":139.350952},{"店舗名":"Asian Kitchen 平塚","住所":"〒254-0035","ステータス":"APP_DISPLAY","region":"Hiratsuka","lat":35.3316,"lng":139.35173},{"店舗名":"宮の前弁当","住所":"〒254-0035 神奈川県平塚市宮の前７−２","ステータス":"APP_DISPLAY","region":"Hiratsuka","lat":35.33083,"lng":139.350922},{"店舗名":"クレープ Rib Crape Rib","住所":"〒254-0035 神奈川県平塚市宮の前７−２","ステータス":"APP_DISPLAY","region":"Hiratsuka","lat":35.33083,"lng":139.350922},{"店舗名":"グリルフクヨシ 平塚店","住所":"〒254-0035 神奈川県平塚市宮の前８−４","ステータス":"APP_DISPLAY","region":"Hiratsuka","lat":35.330521,"lng":139.350967},{"店舗名":"ハッピー ネパール&インディアン レストラン Happy Nepal and Indian Restaurant","住所":"〒254-0035 神奈川県平塚市宮の前９−６","ステータス":"APP_DISPLAY","region":"Hiratsuka","lat":35.330807,"lng":139.352448},{"店舗名":"Mugshots bar and grill","住所":"〒254-0036","ステータス":"APP_DISPLAY","region":"Hiratsuka","lat":35.335987,"lng":139.351746},{"店舗名":"【メガ盛り‼】1キロ弁当工房肉MAX!!大盛りからあげお弁当 宮松町店","住所":"〒254-0036 神奈川県平塚市宮松町１−１６","ステータス":"APP_DISPLAY","region":"Hiratsuka","lat":35.332981,"lng":139.350342},{"店舗名":"タイ料理 ガパオエクスプレス","住所":"〒254-0036 神奈川県平塚市宮松町12-1","ステータス":"APP_DISPLAY","region":"Hiratsuka","lat":35.335339,"lng":139.350708},{"店舗名":"インド・ネパール料理 平塚インドダイニング","住所":"〒254-0036 神奈川県平塚市宮松町１２−１ ISM 平塚","ステータス":"APP_DISPLAY","region":"Hiratsuka","lat":35.335339,"lng":139.350708},{"店舗名":"鰻の成瀬 平塚八幡宮店","住所":"〒254-0036 神奈川県平塚市宮松町２−２−５","ステータス":"APP_DISPLAY","region":"Hiratsuka","lat":35.33313,"lng":139.350693},{"店舗名":"うまみ屋","住所":"〒254-0036 神奈川県平塚市宮松町３−２１","ステータス":"APP_DISPLAY","region":"Hiratsuka","lat":35.333057,"lng":139.352249},{"店舗名":"盈満楼","住所":"〒254-0041","ステータス":"APP_DISPLAY","region":"Hiratsuka","lat":35.335266,"lng":139.34848},{"店舗名":"インドカレー シッダババ INDIAN NEPALI RESTAURANT SIDDHA BABA","住所":"〒254-0041 神奈川県平塚市浅間町２−１０","ステータス":"APP_DISPLAY","region":"Hiratsuka","lat":35.332794,"lng":139.347},{"店舗名":"屋台ラーメン いより","住所":"〒254-0042","ステータス":"APP_DISPLAY","region":"Hiratsuka","lat":35.3311,"lng":139.347366},{"店舗名":"Sili's","住所":"〒254-0042 神奈川県平塚市明石町１４−１３","ステータス":"APP_DISPLAY","region":"Hiratsuka","lat":35.331642,"lng":139.347183},{"店舗名":"ピザハット 平塚明石町店","住所":"〒254-0042 神奈川県平塚市明石町１８−２５","ステータス":"APP_DISPLAY","region":"Hiratsuka","lat":35.332123,"lng":139.346863},{"店舗名":"トスカーニパスタ 平塚明石町店","住所":"〒254-0042 神奈川県平塚市明石町１８−２５","ステータス":"APP_DISPLAY","region":"Hiratsuka","lat":35.332123,"lng":139.346863},{"店舗名":"チキン・ウイングストリート 平塚明石町店","住所":"〒254-0042 神奈川県平塚市明石町１８−２５ Ｋ２明石ビル","ステータス":"APP_DISPLAY","region":"Hiratsuka","lat":35.332123,"lng":139.346863},{"店舗名":"デリカテッセン　幸の羽","住所":"〒254-0042 神奈川県平塚市明石町２１−６","ステータス":"RECEIPT","region":"Hiratsuka","lat":35.330746,"lng":139.346542},{"店舗名":"沖縄そば呑み処 がじゅまる","住所":"〒254-0042 神奈川県平塚市明石町２２−３","ステータス":"APP_DISPLAY","region":"Hiratsuka","lat":35.330425,"lng":139.346939},{"店舗名":"【ケーキ・プリン・焼菓子の店】ドミネジョワ","住所":"〒254-0042 神奈川県平塚市明石町２６−６","ステータス":"APP_DISPLAY","region":"Hiratsuka","lat":35.330212,"lng":139.345215},{"店舗名":"まぐろ屋大将 Maguro-ya Taisho","住所":"〒254-0042 神奈川県平塚市明石町２６−８ コープ魚春","ステータス":"APP_DISPLAY","region":"Hiratsuka","lat":35.330391,"lng":139.345154},{"店舗名":"からあげ専門店 ロッタ","住所":"〒254-0042 神奈川県平塚市明石町６-２","ステータス":"APP_DISPLAY","region":"Hiratsuka","lat":35.3307,"lng":139.349213},{"店舗名":"北海道十勝豚丼なまらうまいっしょ！　平塚北口店","住所":"〒254-0042 神奈川県平塚市明石町９−２３","ステータス":"APP_DISPLAY","region":"Hiratsuka","lat":35.330055,"lng":139.349457},{"店舗名":"串カツ田中 平塚店","住所":"〒254-0043 神奈川県平塚市紅谷町１０−２０","ステータス":"APP_DISPLAY","region":"Hiratsuka","lat":35.329098,"lng":139.348511},{"店舗名":"餃子酒場 味匠軒","住所":"〒254-0043 神奈川県平塚市紅谷町１０−６","ステータス":"APP_DISPLAY","region":"Hiratsuka","lat":35.328892,"lng":139.347916},{"店舗名":"龍辛麻辣湯","住所":"〒254-0043 神奈川県平塚市紅谷町１０−６","ステータス":"APP_DISPLAY","region":"Hiratsuka","lat":35.328892,"lng":139.347916},{"店舗名":"焼トン ちばちゃん","住所":"〒254-0043 神奈川県平塚市紅谷町１２−１２","ステータス":"APP_DISPLAY","region":"Hiratsuka","lat":35.328903,"lng":139.346268},{"店舗名":"スパムおむすび＆タコライス べごっこのかふぅキッチン","住所":"〒254-0043 神奈川県平塚市紅谷町１２−９","ステータス":"APP_DISPLAY","region":"Hiratsuka","lat":35.328991,"lng":139.346588},{"店舗名":"【選べる本格パスタ】Jazz Bar Pianoforte","住所":"〒254-0043 神奈川県平塚市紅谷町１４−１８ 2f","ステータス":"APP_DISPLAY","region":"Hiratsuka","lat":35.328712,"lng":139.347397},{"店舗名":"金曜、土曜の料理店","住所":"〒254-0043 神奈川県平塚市紅谷町１４−２６","ステータス":"APP_DISPLAY","region":"Hiratsuka","lat":35.328167,"lng":139.347687},{"店舗名":"黒毛和牛炭火焼肉 べごっこのカルビ","住所":"〒254-0043 神奈川県平塚市紅谷町１４−３","ステータス":"APP_DISPLAY","region":"Hiratsuka","lat":35.327721,"lng":139.347473},{"店舗名":"オーガニック日本茶と畳カフェTEA TATAMO! 平塚店","住所":"〒254-0043 神奈川県平塚市紅谷町１４−３","ステータス":"APP_DISPLAY","region":"Hiratsuka","lat":35.327721,"lng":139.347473},{"店舗名":"とらきち家　平塚店","住所":"〒254-0043 神奈川県平塚市紅谷町１５−１４","ステータス":"APP_DISPLAY","region":"Hiratsuka","lat":35.328476,"lng":139.346329},{"店舗名":"油そばどんちゃん 平塚店","住所":"〒254-0043 神奈川県平塚市紅谷町１５−５","ステータス":"APP_DISPLAY","region":"Hiratsuka","lat":35.328144,"lng":139.346634},{"店舗名":"近江牛の丼ぶり屋 平塚店","住所":"〒254-0043 神奈川県平塚市紅谷町１５−５","ステータス":"APP_DISPLAY","region":"Hiratsuka","lat":35.328144,"lng":139.346634},{"店舗名":"博多山笠","住所":"〒254-0043 神奈川県平塚市紅谷町17-15","ステータス":"APP_DISPLAY","region":"Hiratsuka","lat":35.32832,"lng":139.345673},{"店舗名":"大好きや 西口店","住所":"〒254-0043 神奈川県平塚市紅谷町１８−８","ステータス":"APP_DISPLAY","region":"Hiratsuka","lat":35.328709,"lng":139.34552},{"店舗名":"ウェンディーズ・ファーストキッチン 平塚店","住所":"〒254-0043 神奈川県平塚市紅谷町１−９","ステータス":"APP_DISPLAY","region":"Hiratsuka","lat":35.328823,"lng":139.349869},{"店舗名":"吉野家 平塚駅前店","住所":"〒254-0043 神奈川県平塚市紅谷町２−１","ステータス":"APP_DISPLAY","region":"Hiratsuka","lat":35.329025,"lng":139.350067},{"店舗名":"カレーハウス CoCo壱番屋 JR平塚駅北口店","住所":"〒254-0043 神奈川県平塚市紅谷町２−１２","ステータス":"APP_DISPLAY","region":"Hiratsuka","lat":35.329708,"lng":139.349579},{"店舗名":"目利きの銀次 平塚北口駅前店","住所":"〒254-0043 神奈川県平塚市紅谷町２−６","ステータス":"APP_DISPLAY","region":"Hiratsuka","lat":35.329166,"lng":139.349655},{"店舗名":"大衆鰻 うな銀 平塚北口駅前店","住所":"〒254-0043 神奈川県平塚市紅谷町２−６ サクライビル","ステータス":"APP_DISPLAY","region":"Hiratsuka","lat":35.329166,"lng":139.349655},{"店舗名":"とんかつの和吉 平塚北口駅前店","住所":"〒254-0043 神奈川県平塚市紅谷町２−６ サクライビル 1階","ステータス":"APP_DISPLAY","region":"Hiratsuka","lat":35.329166,"lng":139.349655},{"店舗名":"焼肉ライク 平塚北口店","住所":"〒254-0043 神奈川県平塚市紅谷町4-1","ステータス":"APP_DISPLAY","region":"Hiratsuka","lat":35.328964,"lng":139.349503},{"店舗名":"韓国料理専門店 トンチキン","住所":"〒254-0043 神奈川県平塚市紅谷町４−１９","ステータス":"APP_DISPLAY","region":"Hiratsuka","lat":35.329319,"lng":139.349335},{"店舗名":"お出汁香る、炙り親子丼。金の卵 平塚店","住所":"〒254-0043 神奈川県平塚市紅谷町４－６","ステータス":"APP_DISPLAY","region":"Hiratsuka","lat":35.328957,"lng":139.348953},{"店舗名":"ときわのまかない牛たんカレーって知ってる？平塚店","住所":"〒254-0043 神奈川県平塚市紅谷町４−６","ステータス":"APP_DISPLAY","region":"Hiratsuka","lat":35.328957,"lng":139.348953},{"店舗名":"韓国風旨辛最高＃ヤンニョムチキン。平塚店","住所":"〒254-0043 神奈川県平塚市紅谷町４−６","ステータス":"APP_DISPLAY","region":"Hiratsuka","lat":35.328957,"lng":139.348953},{"店舗名":"仙台本家 たんとはらみ、ときどきかるび。平塚店","住所":"〒254-0043 神奈川県平塚市紅谷町４−６","ステータス":"APP_DISPLAY","region":"Hiratsuka","lat":35.328957,"lng":139.348953},{"店舗名":"本場盛岡冷麺専門店「ときわ冷麺道」平塚店","住所":"〒254-0043 神奈川県平塚市紅谷町４−６","ステータス":"APP_DISPLAY","region":"Hiratsuka","lat":35.328957,"lng":139.348953},{"店舗名":"韓国風旨辛最高#ときわシン・ラーメン。平塚店","住所":"〒254-0043 神奈川県平塚市紅谷町４−６","ステータス":"APP_DISPLAY","region":"Hiratsuka","lat":35.328957,"lng":139.348953},{"店舗名":"ときじ郎、まぜそばはじめたってよ。ときわ亭 平塚店","住所":"〒254-0043 神奈川県平塚市紅谷町４−６","ステータス":"APP_DISPLAY","region":"Hiratsuka","lat":35.328957,"lng":139.348953},{"店舗名":"らあめん花月嵐 平塚北口店","住所":"〒254-0043 神奈川県平塚市紅谷町６−２６","ステータス":"APP_DISPLAY","region":"Hiratsuka","lat":35.328156,"lng":139.349731},{"店舗名":"炭火焼肉バルTAISEI","住所":"〒254-0043 神奈川県平塚市紅谷町６−３０","ステータス":"APP_DISPLAY","region":"Hiratsuka","lat":35.328217,"lng":139.349197},{"店舗名":"松壱家平塚店","住所":"〒254-0043 神奈川県平塚市紅谷町８－８","ステータス":"APP_DISPLAY","region":"Hiratsuka","lat":35.327831,"lng":139.347916},{"店舗名":"【麦味噌の豚汁と豚角煮ごはん】むぎとん 紅谷町3号店","住所":"〒254-0043 神奈川県平塚市紅谷町９−１０","ステータス":"APP_DISPLAY","region":"Hiratsuka","lat":35.328476,"lng":139.347794},{"店舗名":"【とろける角煮】東京角煮総本店 紅谷町3号店","住所":"〒254-0043 神奈川県平塚市紅谷町９−１０","ステータス":"APP_DISPLAY","region":"Hiratsuka","lat":35.328476,"lng":139.347794},{"店舗名":"厳選とろとろ豚 炒飯一華-ichika- 紅谷町3号店","住所":"〒254-0043 神奈川県平塚市紅谷町９−１０","ステータス":"APP_DISPLAY","region":"Hiratsuka","lat":35.328476,"lng":139.347794},{"店舗名":"バルティヤ・ザイカ 平塚店","住所":"〒254-0043 神奈川県平塚市紅谷町９−１５ セントアイ","ステータス":"APP_DISPLAY","region":"Hiratsuka","lat":35.328762,"lng":139.347961},{"店舗名":"レストラン三貴","住所":"〒254-0043 神奈川県平塚市紅谷町９−２０ 金井ビル","ステータス":"APP_DISPLAY","region":"Hiratsuka","lat":35.328804,"lng":139.348495},{"店舗名":"0秒レモンサワー 仙台ホルモン焼肉酒場 ときわ亭 平塚店","住所":"〒254-0043神奈川県平塚市紅谷町4-6","ステータス":"APP_DISPLAY","region":"Hiratsuka","lat":35.328957,"lng":139.348953},{"店舗名":"信じて混ぜれば美味しいときわのビビンバ 平塚店","住所":"〒254-0043神奈川県平塚市紅谷町4-6","ステータス":"APP_DISPLAY","region":"Hiratsuka","lat":35.328957,"lng":139.348953},{"店舗名":"韓国旨辛カルビクッパの大魔王 平塚店","住所":"〒254-0043神奈川県平塚市紅谷町4-6","ステータス":"APP_DISPLAY","region":"Hiratsuka","lat":35.328957,"lng":139.348953},{"店舗名":"神戸ご当地グルメ すじたま丼みやび 平塚店","住所":"〒254-0043神奈川県平塚市紅谷町4-6","ステータス":"APP_DISPLAY","region":"Hiratsuka","lat":35.328957,"lng":139.348953},{"店舗名":"ガリバタ丼専門店 ごはん泥棒 平塚店","住所":"〒254-0043神奈川県平塚市紅谷町4-6","ステータス":"APP_DISPLAY","region":"Hiratsuka","lat":35.328957,"lng":139.348953},{"店舗名":"二郎系入門編！ときじ郎ラーメン 平塚店","住所":"〒254-0043神奈川県平塚市紅谷町4-6平塚ムネカタビル","ステータス":"APP_DISPLAY","region":"Hiratsuka","lat":35.328957,"lng":139.348953},{"店舗名":"仙台ときわ亭発 飲める和牛すき焼き丼 平塚店","住所":"〒254-0043神奈川県平塚市紅谷町4-6平塚ムネカタビル","ステータス":"APP_DISPLAY","region":"Hiratsuka","lat":35.328957,"lng":139.348953},{"店舗名":"手羽先酒場幸の羽","住所":"〒254-0044 神奈川県平塚市錦町","ステータス":"APP_DISPLAY","region":"Hiratsuka","lat":35.327579,"lng":139.343231},{"店舗名":"カレー専門店 キャラウェイ","住所":"〒254-0044 神奈川県平塚市錦町","ステータス":"RECEIPT","region":"Hiratsuka","lat":35.327579,"lng":139.343231},{"店舗名":"カレー専門店 キャラウェイ","住所":"〒254-0044 神奈川県平塚市錦町１－１６","ステータス":"APP_DISPLAY","region":"Hiratsuka","lat":35.327747,"lng":139.345398},{"店舗名":"クラシックスタイルバーガー おん","住所":"〒254-0044 神奈川県平塚市錦町１５−１","ステータス":"APP_DISPLAY","region":"Hiratsuka","lat":35.328384,"lng":139.343246},{"店舗名":"戦国焼鳥 信長","住所":"〒254-0045","ステータス":"APP_DISPLAY","region":"Hiratsuka","lat":35.330502,"lng":139.341797},{"店舗名":"【もっちり玄米と低脂質チキン】とりげん食堂 見附町店","住所":"〒254-0045 神奈川県平塚市見附町３−１７","ステータス":"APP_DISPLAY","region":"Hiratsuka","lat":35.330166,"lng":139.344864},{"店舗名":"大海丼丸","住所":"〒254-0045 神奈川県平塚市見附町３２−１２","ステータス":"APP_DISPLAY","region":"Hiratsuka","lat":35.328487,"lng":139.340912},{"店舗名":"デニーズ 平塚見附店","住所":"〒254-0045 神奈川県平塚市見附町４６−１１","ステータス":"APP_DISPLAY","region":"Hiratsuka","lat":35.331539,"lng":139.339828},{"店舗名":"彩","住所":"〒254-0045 神奈川県平塚市見附町５−１","ステータス":"APP_DISPLAY","region":"Hiratsuka","lat":35.330639,"lng":139.344711},{"店舗名":"MY SAIGON","住所":"〒254-0045 神奈川県平塚市見附町５－７－１０４","ステータス":"APP_DISPLAY","region":"Hiratsuka","lat":35.330715,"lng":139.344147},{"店舗名":"シェフミヤド","住所":"〒254-0046 神奈川県平塚市立野町","ステータス":"APP_DISPLAY","region":"Hiratsuka","lat":35.334053,"lng":139.341476},{"店舗名":"ドミノ・ピザ 平塚追分店","住所":"〒254-0046 神奈川県平塚市立野町４２−１１","ステータス":"APP_DISPLAY","region":"Hiratsuka","lat":35.336052,"lng":139.338242},{"店舗名":"スタミナ丼 活家 平塚店","住所":"〒254-0051 神奈川県平塚市豊原町２１−１３","ステータス":"PENDING","region":"Hiratsuka","lat":35.334671,"lng":139.334991},{"店舗名":"宅配とんかつ かさねや 平塚店","住所":"〒254-0051 神奈川県平塚市豊原町２１−１３","ステータス":"APP_DISPLAY","region":"Hiratsuka","lat":35.334671,"lng":139.334991},{"店舗名":"焼きかつ丼 勝吉 平塚店","住所":"〒254-0051 神奈川県平塚市豊原町２１−１３","ステータス":"APP_DISPLAY","region":"Hiratsuka","lat":35.334671,"lng":139.334991},{"店舗名":"かつ丼 とん吉 平塚店","住所":"〒254-0051 神奈川県平塚市豊原町２１−１３","ステータス":"APP_DISPLAY","region":"Hiratsuka","lat":35.334671,"lng":139.334991},{"店舗名":"台湾カフェ 時香茶 平塚店","住所":"〒254-0051 神奈川県平塚市豊原町２１−１３","ステータス":"APP_DISPLAY","region":"Hiratsuka","lat":35.334671,"lng":139.334991},{"店舗名":"かつ丼屋 のぶお 平塚店","住所":"〒254-0051 神奈川県平塚市豊原町２１−１３","ステータス":"APP_DISPLAY","region":"Hiratsuka","lat":35.334671,"lng":139.334991},{"店舗名":"出前つけ麺専門店 三田製麺所 平塚店","住所":"〒254-0051 神奈川県平塚市豊原町２１−１３","ステータス":"APP_DISPLAY","region":"Hiratsuka","lat":35.334671,"lng":139.334991},{"店舗名":"韓国カルビ丼とスンドゥブ 洞山 平塚店","住所":"〒254-0051 神奈川県平塚市豊原町２１−１３","ステータス":"APP_DISPLAY","region":"Hiratsuka","lat":35.334671,"lng":139.334991},{"店舗名":"どんぶり 神宮軒 平塚店","住所":"〒254-0051 神奈川県平塚市豊原町２１−１３","ステータス":"APP_DISPLAY","region":"Hiratsuka","lat":35.334671,"lng":139.334991},{"店舗名":"お粥 煮え花 平塚店","住所":"〒254-0051 神奈川県平塚市豊原町２１−１３","ステータス":"APP_DISPLAY","region":"Hiratsuka","lat":35.334671,"lng":139.334991},{"店舗名":"元祖金沢チャンピオンカレーデリバリー 平塚店","住所":"〒254-0051 神奈川県平塚市豊原町２１−１３","ステータス":"APP_DISPLAY","region":"Hiratsuka","lat":35.334671,"lng":139.334991},{"店舗名":"さぬきうどん・どんぶり 博好 平塚店","住所":"〒254-0051 神奈川県平塚市豊原町２１−１３","ステータス":"APP_DISPLAY","region":"Hiratsuka","lat":35.334671,"lng":139.334991},{"店舗名":"出前家系ラーメン 吉祥寺 武蔵家 平塚店","住所":"〒254-0051 神奈川県平塚市豊原町２１−１３","ステータス":"APP_DISPLAY","region":"Hiratsuka","lat":35.334671,"lng":139.334991},{"店舗名":"本格もつ鍋 竹名屋総本店 平塚店","住所":"〒254-0051 神奈川県平塚市豊原町２１−１３","ステータス":"APP_DISPLAY","region":"Hiratsuka","lat":35.334671,"lng":139.334991},{"店舗名":"十勝帯広豚丼 三代目ぶた広 平塚店","住所":"〒254-0051 神奈川県平塚市豊原町２１−１３","ステータス":"APP_DISPLAY","region":"Hiratsuka","lat":35.334671,"lng":139.334991},{"店舗名":"うなぎの照本 平塚店","住所":"〒254-0051 神奈川県平塚市豊原町２１−１３","ステータス":"RECEIPT","region":"Hiratsuka","lat":35.334671,"lng":139.334991},{"店舗名":"鶏弁 とり日和 平塚店","住所":"〒254-0051 神奈川県平塚市豊原町２１−１３ 平塚ＮＣハイツ","ステータス":"APP_DISPLAY","region":"Hiratsuka","lat":35.334671,"lng":139.334991},{"店舗名":"旨辛スタミナ鉄板焼き 天神軒 平塚店","住所":"〒254-0051 神奈川県平塚市豊原町２１−１３ 平塚ＮＣハイツ","ステータス":"APP_DISPLAY","region":"Hiratsuka","lat":35.334671,"lng":139.334991},{"店舗名":"韓国クッパとビビンバ 全州 平塚店","住所":"〒254-0051 神奈川県平塚市豊原町２１−１３ 平塚ＮＣハイツ","ステータス":"APP_DISPLAY","region":"Hiratsuka","lat":35.334671,"lng":139.334991},{"店舗名":"うどんと肉 角立 平塚店","住所":"〒254-0051 神奈川県平塚市豊原町２１−１３ 平塚ＮＣハイツ","ステータス":"APP_DISPLAY","region":"Hiratsuka","lat":35.334671,"lng":139.334991},{"店舗名":"ぶた玉丼とうどん ぶた玉家 平塚店","住所":"〒254-0051 神奈川県平塚市豊原町２１−１３ 平塚ＮＣハイツ","ステータス":"APP_DISPLAY","region":"Hiratsuka","lat":35.334671,"lng":139.334991},{"店舗名":"肉汁つけうどん 六三四 平塚店","住所":"〒254-0051 神奈川県平塚市豊原町２１−１３ 平塚ＮＣハイツ","ステータス":"APP_DISPLAY","region":"Hiratsuka","lat":35.334671,"lng":139.334991},{"店舗名":"伝説のすた丼屋 平塚店","住所":"〒254-0051 神奈川県平塚市豊原町２１−１３ 平塚ＮＣハイツ 102","ステータス":"APP_DISPLAY","region":"Hiratsuka","lat":35.334671,"lng":139.334991},{"店舗名":"とりめし かえで食堂 平塚店","住所":"〒254-0051 神奈川県平塚市豊原町２１−１３ 平塚ＮＣハイツ 102","ステータス":"APP_DISPLAY","region":"Hiratsuka","lat":35.334671,"lng":139.334991},{"店舗名":"背徳めし食堂 平塚店","住所":"〒254-0051 神奈川県平塚市豊原町２１−１３ 平塚ＮＣハイツ 102","ステータス":"APP_DISPLAY","region":"Hiratsuka","lat":35.334671,"lng":139.334991},{"店舗名":"熟成厚切りとんてき 三元道 平塚店","住所":"〒254-0051 神奈川県平塚市豊原町２１−１３ 平塚ＮＣハイツ 102","ステータス":"APP_DISPLAY","region":"Hiratsuka","lat":35.334671,"lng":139.334991},{"店舗名":"鶏天豚天 通天道 平塚店","住所":"〒254-0051 神奈川県平塚市豊原町２１−１３ 平塚ＮＣハイツ 102","ステータス":"APP_DISPLAY","region":"Hiratsuka","lat":35.334671,"lng":139.334991},{"店舗名":"のり弁 浅草屋 平塚店","住所":"〒254-0051 神奈川県平塚市豊原町２１−１３ 平塚ＮＣハイツ 102","ステータス":"APP_DISPLAY","region":"Hiratsuka","lat":35.334671,"lng":139.334991},{"店舗名":"【中華料理】おそうざいの GEKIRIN osouzainoGEKIRIN","住所":"〒254-0052 神奈川県平塚市平塚２丁目","ステータス":"APP_DISPLAY","region":"Hiratsuka","lat":35.329636,"lng":139.338394},{"店舗名":"たまはん 飯処","住所":"〒254-0052 神奈川県平塚市平塚５丁目１−１９","ステータス":"APP_DISPLAY","region":"Hiratsuka","lat":35.330505,"lng":139.334457},{"店舗名":"ひらつか食堂 Hiratsuka Syokudo","住所":"〒254-0053 神奈川県平塚市桜ケ丘４−４５","ステータス":"APP_DISPLAY","region":"Hiratsuka","lat":35.329914,"lng":139.326889},{"店舗名":"デニーズ 平塚中里店","住所":"〒254-0054 神奈川県平塚市中里５３−１５","ステータス":"APP_DISPLAY","region":"Hiratsuka","lat":35.332882,"lng":139.325882},{"店舗名":"albi...","住所":"〒254-0061 神奈川県平塚市御殿４丁目２−２６ 1","ステータス":"APP_DISPLAY","region":"Hiratsuka","lat":35.351315,"lng":139.325607},{"店舗名":"笑勝亭","住所":"〒254-0073 神奈川県平塚市西八幡１丁目１−２７","ステータス":"APP_DISPLAY","region":"Hiratsuka","lat":35.338165,"lng":139.350983},{"店舗名":"うなぎの心","住所":"〒254-0073 神奈川県平塚市西八幡２丁目１０−１","ステータス":"APP_DISPLAY","region":"Hiratsuka","lat":35.341816,"lng":139.352386},{"店舗名":"焼きたてのかるび 平塚西八幡店","住所":"〒254-0073 神奈川県平塚市西八幡２丁目１７−３６","ステータス":"APP_DISPLAY","region":"Hiratsuka","lat":35.343674,"lng":139.353058},{"店舗名":"台湾料理 佳佳紅","住所":"〒254-0073 神奈川県平塚市西八幡３丁目","ステータス":"APP_DISPLAY","region":"Hiratsuka","lat":35.345783,"lng":139.351501},{"店舗名":"味楽苑","住所":"〒254-0075","ステータス":"APP_DISPLAY","region":"Hiratsuka","lat":35.342587,"lng":139.335403},{"店舗名":"小僧寿し 平塚中原店","住所":"〒254-0075 神奈川県平塚市中原２丁目２４−１９","ステータス":"APP_DISPLAY","region":"Hiratsuka","lat":35.347614,"lng":139.332611},{"店舗名":"元祖 からあげの中津家 平塚中原店","住所":"〒254-0075 神奈川県平塚市中原２丁目２４−１９ カサフェリース","ステータス":"APP_DISPLAY","region":"Hiratsuka","lat":35.347614,"lng":139.332611},{"店舗名":"かつ丼と天丼の、かつてん 平塚中原店","住所":"〒254-0075 神奈川県平塚市中原２丁目２４−１９ カサフェリース","ステータス":"APP_DISPLAY","region":"Hiratsuka","lat":35.347614,"lng":139.332611},{"店舗名":"やきとり ちゃらんぽらん","住所":"〒254-0077 神奈川県平塚市東中原１－２－２９","ステータス":"APP_DISPLAY","region":"Hiratsuka","lat":35.351597,"lng":139.339554},{"店舗名":"台湾料理興福順 東中原店","住所":"〒254-0077 神奈川県平塚市東中原２丁目２−５６","ステータス":"APP_DISPLAY","region":"Hiratsuka","lat":35.35165,"lng":139.336945},{"店舗名":"台湾料理 龍翔 Taiwan Food Ryusyo","住所":"〒254-0087 神奈川県平塚市豊田本郷１５４２","ステータス":"APP_DISPLAY","region":"Hiratsuka","lat":35.359745,"lng":139.325027},{"店舗名":"デニーズ 平塚海岸店","住所":"〒254-0803 神奈川県平塚市千石河岸１２−１２","ステータス":"APP_DISPLAY","region":"Hiratsuka","lat":35.317169,"lng":139.362396},{"店舗名":"【 町中華をお届け！ 】 龍公亭【平塚 夕陽ケ丘】","住所":"〒254-0806 神奈川県平塚市夕陽ケ丘４４−３","ステータス":"APP_DISPLAY","region":"Hiratsuka","lat":35.325253,"lng":139.357224},{"店舗名":"3rd place café","住所":"〒254-0807 神奈川県平塚市代官町","ステータス":"APP_DISPLAY","region":"Hiratsuka","lat":35.326794,"lng":139.356018},{"店舗名":"Rosé","住所":"〒254-0807 神奈川県平塚市代官町１０−１４ ネオシティ湘南平塚 1F","ステータス":"APP_DISPLAY","region":"Hiratsuka","lat":35.326214,"lng":139.352234},{"店舗名":"焼き処 えん","住所":"〒254-0807 神奈川県平塚市代官町１−１２","ステータス":"APP_DISPLAY","region":"Hiratsuka","lat":35.327721,"lng":139.352493},{"店舗名":"インド・ネパール料理 ヒマールキッチンＯＳＣ 湘南シティ店","住所":"〒254-0807 神奈川県平塚市代官町３３−１","ステータス":"APP_DISPLAY","region":"Hiratsuka","lat":35.328758,"lng":139.356796},{"店舗名":"バーガーキングOSC湘南シティ店","住所":"〒254-0807 神奈川県平塚市代官町３３−１","ステータス":"APP_DISPLAY","region":"Hiratsuka","lat":35.328758,"lng":139.356796},{"店舗名":"ケンタッキーフライドチキン ＯＳＣ湘南店","住所":"〒254-0807 神奈川県平塚市代官町３３−１","ステータス":"APP_DISPLAY","region":"Hiratsuka","lat":35.328758,"lng":139.356796},{"店舗名":"ヒマールキッチン平塚店 HIMAL KITCHEN Hiratsuka OSC","住所":"〒254-0807 神奈川県平塚市代官町３３−１","ステータス":"RECEIPT","region":"Hiratsuka","lat":35.328758,"lng":139.356796},{"店舗名":"SOL NACIENTE","住所":"〒254-0807 神奈川県平塚市代官町８−１５","ステータス":"APP_DISPLAY","region":"Hiratsuka","lat":35.326363,"lng":139.353439},{"店舗名":"オーシマドーナツ 湘南平塚店","住所":"〒254-0807神奈川県平塚市代官町３３−１","ステータス":"APP_DISPLAY","region":"Hiratsuka","lat":35.328758,"lng":139.356796},{"店舗名":"和食ダイニングT.A.M.A","住所":"〒254-0811 神奈川県平塚市八重咲町１−２","ステータス":"APP_DISPLAY","region":"Hiratsuka","lat":35.327293,"lng":139.351242},{"店舗名":"アジアンダイニングマラティ","住所":"〒254-0811 神奈川県平塚市八重咲町２５-２７","ステータス":"APP_DISPLAY","region":"Hiratsuka","lat":35.325989,"lng":139.351486},{"店舗名":"matcha door","住所":"〒254-0811 神奈川県平塚市八重咲町２６−１９","ステータス":"RECEIPT","region":"Hiratsuka","lat":35.3246,"lng":139.350922},{"店舗名":"食事処とんかつ かさはら","住所":"〒254-0811 神奈川県平塚市八重咲町２−８ エクセル・ブルービル","ステータス":"APP_DISPLAY","region":"Hiratsuka","lat":35.32711,"lng":139.350433},{"店舗名":"麺酒房 風神","住所":"〒254-0811 神奈川県平塚市八重咲町７−２３","ステータス":"APP_DISPLAY","region":"Hiratsuka","lat":35.326645,"lng":139.347809},{"店舗名":"LITUS by the sea","住所":"〒254-0814","ステータス":"APP_DISPLAY","region":"Hiratsuka","lat":35.317841,"lng":139.345718},{"店舗名":"海鮮丼　光湘","住所":"〒254-0814 神奈川県平塚市龍城ケ丘","ステータス":"APP_DISPLAY","region":"Hiratsuka","lat":35.317841,"lng":139.345718},{"店舗名":"ポークたまごおにぎり810平塚シーテラス店","住所":"〒254-0814 神奈川県平塚市龍城ケ丘","ステータス":"RECEIPT","region":"Hiratsuka","lat":35.317841,"lng":139.345718},{"店舗名":"コスミックバーガー","住所":"〒254-0814 神奈川県平塚市龍城ケ丘","ステータス":"APP_DISPLAY","region":"Hiratsuka","lat":35.317841,"lng":139.345718},{"店舗名":"たこ焼 あほや","住所":"〒254-0814 神奈川県平塚市龍城ケ丘１９−１","ステータス":"APP_DISPLAY","region":"Hiratsuka","lat":35.315536,"lng":139.347595},{"店舗名":"カラフルイート","住所":"〒254-0814 神奈川県平塚市龍城ケ丘１９−１","ステータス":"APP_DISPLAY","region":"Hiratsuka","lat":35.315536,"lng":139.347595},{"店舗名":"ポークたまごおにぎり810平塚シーテラス店","住所":"〒254-0814 神奈川県平塚市龍城ケ丘１９−１５","ステータス":"APP_DISPLAY","region":"Hiratsuka","lat":35.315536,"lng":139.347595},{"店舗名":"元祖 唐揚げ三平 平塚店 GansokaraageSanpei","住所":"〒254-0822 神奈川県平塚市菫平","ステータス":"APP_DISPLAY","region":"Hiratsuka","lat":35.318188,"lng":139.341324},{"店舗名":"てるベーグルワークス","住所":"〒254-0822 神奈川県平塚市菫平8-30","ステータス":"APP_DISPLAY","region":"Hiratsuka","lat":35.318989,"lng":139.339783},{"店舗名":"アンセプス","住所":"〒254-0824 神奈川県平塚市花水台３２−３","ステータス":"APP_DISPLAY","region":"Hiratsuka","lat":35.318123,"lng":139.33931},{"店舗名":"one's cafe","住所":"〒254-0824 神奈川県平塚市花水台３２−５","ステータス":"APP_DISPLAY","region":"Hiratsuka","lat":35.317951,"lng":139.339355},{"店舗名":"NEWROSE","住所":"〒254-0825 神奈川県平塚市撫子原４−１７","ステータス":"APP_DISPLAY","region":"Hiratsuka","lat":35.317787,"lng":139.330429},{"店舗名":"磯っぺ","住所":"〒254-0826 神奈川県平塚市唐ケ原５４−２","ステータス":"APP_DISPLAY","region":"Hiratsuka","lat":35.314754,"lng":139.331238},{"店舗名":"団らん旭","住所":"〒254-0902 神奈川県平塚市徳延１０４−１","ステータス":"APP_DISPLAY","region":"Hiratsuka","lat":35.340881,"lng":139.316391},{"店舗名":"サンミッシェルTokunobu【タコス】","住所":"〒254-0902 神奈川県平塚市徳延４７０−６","ステータス":"APP_DISPLAY","region":"Hiratsuka","lat":35.33757,"lng":139.319107},{"店舗名":"大磯港","住所":"〒254-0903 神奈川県平塚市河内１丁目１４−６","ステータス":"APP_DISPLAY","region":"Hiratsuka","lat":35.335732,"lng":139.311707},{"店舗名":"築地銀だこ 平塚河内ドライブイン店","住所":"〒254-0903 神奈川県平塚市河内１丁目３５−７","ステータス":"APP_DISPLAY","region":"Hiratsuka","lat":35.337482,"lng":139.309387},{"店舗名":"吉野家 マックスバリュ平塚河内店","住所":"〒254-0903 神奈川県平塚市河内２丁目１８－５５","ステータス":"APP_DISPLAY","region":"Hiratsuka","lat":35.343311,"lng":139.310944},{"店舗名":"HAPPY","住所":"〒254-0903 神奈川県平塚市河内３２０−３","ステータス":"APP_DISPLAY","region":"Hiratsuka","lat":35.33638,"lng":139.309586},{"店舗名":"おやつ屋 カエル堂","住所":"〒254-0903 神奈川県平塚市河内３４６−３","ステータス":"APP_DISPLAY","region":"Hiratsuka","lat":35.335907,"lng":139.310715},{"店舗名":"焼肉天国","住所":"〒254-0903 神奈川県平塚市河内３５１−１","ステータス":"APP_DISPLAY","region":"Hiratsuka","lat":35.335907,"lng":139.310715},{"店舗名":"向陽飯店　平塚店","住所":"〒254-0903 神奈川県平塚市河内３５６−３","ステータス":"APP_DISPLAY","region":"Hiratsuka","lat":35.335445,"lng":139.310669},{"店舗名":"自家製うどん かぶら","住所":"〒254-0904 神奈川県平塚市根坂間368-1","ステータス":"RECEIPT","region":"Hiratsuka","lat":35.338753,"lng":139.303802},{"店舗名":"六六堂パン制作所","住所":"〒254-0905 神奈川県平塚市日向岡1-10-7","ステータス":"APP_DISPLAY","region":"Hiratsuka","lat":35.338047,"lng":139.298904},{"店舗名":"韓国料理 クァンジャンシジャン Kwan Jean Sigean Korean Restaurant","住所":"〒254-0911 神奈川県平塚市山下２丁目１９－２２","ステータス":"APP_DISPLAY","region":"Hiratsuka","lat":35.326904,"lng":139.321518},{"店舗名":"夢造りパン工房 平塚店","住所":"〒259-1201 神奈川県平塚市南金目６８９−３","ステータス":"APP_DISPLAY","region":"Hiratsuka","lat":35.358219,"lng":139.278488},{"店舗名":"台湾料理 天成源","住所":"〒259-1205 神奈川県平塚市土屋１２７２−１","ステータス":"APP_DISPLAY","region":"Hiratsuka","lat":35.342869,"lng":139.25502},{"店舗名":"【本場沖縄のタコライス】THE TACORICE HOUSE 平塚市土屋店","住所":"〒259-1205 神奈川県平塚市土屋２４１","ステータス":"APP_DISPLAY","region":"Hiratsuka","lat":35.35321,"lng":139.259689},{"店舗名":"【とろける角煮】東京角煮総本店 平塚市土屋店","住所":"〒259-1205 神奈川県平塚市土屋２４１","ステータス":"APP_DISPLAY","region":"Hiratsuka","lat":35.35321,"lng":139.259689},{"店舗名":"湘南クレープ","住所":"〒259-1206","ステータス":"APP_DISPLAY","region":"Hiratsuka","lat":35.37109,"lng":139.285858},{"店舗名":"PHO CO NGAN","住所":"〒259-1206 神奈川県平塚市真田","ステータス":"RECEIPT","region":"Hiratsuka","lat":35.37109,"lng":139.285858},{"店舗名":"やま屋","住所":"〒259-1206 神奈川県平塚市真田４丁目１１−１８","ステータス":"APP_DISPLAY","region":"Hiratsuka","lat":35.368008,"lng":139.274277},{"店舗名":"Aloha Pink アロハピンク","住所":"〒259-1206 神奈川県平塚市真田４丁目３９−３","ステータス":"APP_DISPLAY","region":"Hiratsuka","lat":35.371349,"lng":139.27449},{"店舗名":"ニューカトマンズキッチン","住所":"〒259-1206 神奈川県平塚市真田４丁目３９−３","ステータス":"APP_DISPLAY","region":"Hiratsuka","lat":35.371349,"lng":139.27449},{"店舗名":"ニューカトマンズキッチン","住所":"〒259-1206 神奈川県平塚市真田４丁目６－２３","ステータス":"APP_DISPLAY","region":"Hiratsuka","lat":35.368164,"lng":139.276657},{"店舗名":"New Kathmandu Kitchen","住所":"〒259-1206 神奈川県平塚市真田４丁目６−２３","ステータス":"APP_DISPLAY","region":"Hiratsuka","lat":35.368164,"lng":139.276657},{"店舗名":"中華料理 木蘭","住所":"〒259-1219 神奈川県平塚市広川６７","ステータス":"APP_DISPLAY","region":"Hiratsuka","lat":35.353493,"lng":139.30278},{"店舗名":"焼いも・穂乃香 ジ アウトレット湘南平塚","住所":"神奈川県 平塚市大神8-1-1(2216区画) THE OUTLETS SHONAN HIRATSUKA 2階","ステータス":"APP_DISPLAY","region":"Hiratsuka","lat":35.39262,"lng":139.365082},{"店舗名":"やらずの雨","住所":"神奈川県平塚市明石町27-2","ステータス":"APP_DISPLAY","region":"Hiratsuka","lat":35.331192,"lng":139.34581}]