[{"店舗名":"はっぴぃ食堂","住所":"〒036-8002","ステータス":"RECEIPT","region":"Hirosaki","lat":40.601437,"lng":140.484055},{"店舗名":"GHIMIRE's CURRY NEPALI RESTAURANT","住所":"〒036-8002 青森県弘前市大字駅前１丁目１−１","ステータス":"RECEIPT","region":"Hirosaki","lat":40.599762,"lng":140.483917},{"店舗名":"豚専門店 いろとん　虹のマート店","住所":"〒036-8003","ステータス":"RECEIPT","region":"Hirosaki","lat":40.598228,"lng":140.482071},{"店舗名":"ナチュラルキャンディ ＆ 鶏笑弘前店","住所":"〒036-8003 青森県弘前市駅前町１７−１２","ステータス":"RECEIPT","region":"Hirosaki","lat":40.599384,"lng":140.483246},{"店舗名":"ロイヤルインドカレーハウス","住所":"〒036-8003 青森県弘前市駅前町９−２０","ステータス":"RECEIPT","region":"Hirosaki","lat":40.597374,"lng":140.481659},{"店舗名":"山忠 大町","住所":"〒036-8004","ステータス":"RECEIPT","region":"Hirosaki","lat":40.596367,"lng":140.483658},{"店舗名":"churros","住所":"〒036-8013","ステータス":"RECEIPT","region":"Hirosaki","lat":40.599968,"lng":140.476639},{"店舗名":"プルナ かだれ横丁店","住所":"〒036-8035","ステータス":"RECEIPT","region":"Hirosaki","lat":40.604572,"lng":140.472534},{"店舗名":"ラ・フール","住所":"〒036-8035","ステータス":"RECEIPT","region":"Hirosaki","lat":40.604572,"lng":140.472534},{"店舗名":"THE CAMPERS NEST","住所":"〒036-8035 青森県弘前市百石町６","ステータス":"RECEIPT","region":"Hirosaki","lat":40.603596,"lng":140.472214},{"店舗名":"情熱食堂 弘前店","住所":"〒036-8041 青森県弘前市大字俵元1丁目7-1","ステータス":"RECEIPT","region":"Hirosaki","lat":40.606182,"lng":140.485077},{"店舗名":"自家製うどん たいら","住所":"〒036-8053 青森県弘前市大字和泉1丁目16-3","ステータス":"RECEIPT","region":"Hirosaki","lat":40.608772,"lng":140.489838},{"店舗名":"七輪焼肉弁当 蓮桜　和泉本店","住所":"〒036-8053 青森県弘前市和泉１丁目１−５","ステータス":"RECEIPT","region":"Hirosaki","lat":40.608536,"lng":140.49115},{"店舗名":"みっきー","住所":"〒036-8062","ステータス":"RECEIPT","region":"Hirosaki","lat":40.619194,"lng":140.482468},{"店舗名":"炭火焼肉 粋匠苑","住所":"〒036-8084","ステータス":"RECEIPT","region":"Hirosaki","lat":40.595024,"lng":140.509659},{"店舗名":"中華飯店 幡龍 弘前城東店","住所":"〒036-8084 青森県弘前市高田３丁目１−４","ステータス":"RECEIPT","region":"Hirosaki","lat":40.597004,"lng":140.504196},{"店舗名":"横浜家系ラーメン 壱角家 弘前店","住所":"〒036-8085","ステータス":"RECEIPT","region":"Hirosaki","lat":40.607059,"lng":140.500549},{"店舗名":"Boo豚 ブートン","住所":"〒036-8085 青森県弘前市大字末広２丁目２−８","ステータス":"RECEIPT","region":"Hirosaki","lat":40.60194,"lng":140.500641},{"店舗名":"お好み焼き かちかち山","住所":"〒036-8086","ステータス":"RECEIPT","region":"Hirosaki","lat":40.607243,"lng":140.505173},{"店舗名":"謝浸蕎麦店（ラーメン謝）","住所":"〒036-8087","ステータス":"RECEIPT","region":"Hirosaki","lat":40.605259,"lng":140.511597},{"店舗名":"つけ蕎麦 白神","住所":"〒036-8087 青森県弘前市早稲田２丁目７−６","ステータス":"RECEIPT","region":"Hirosaki","lat":40.603813,"lng":140.512161},{"店舗名":"インドレストラン　タンドール","住所":"〒036-8091 青森県弘前市高崎２丁目13−２","ステータス":"RECEIPT","region":"Hirosaki","lat":40.607227,"lng":140.495041},{"店舗名":"麺屋 幡 弘前店","住所":"〒036-8091 青森県弘前市高崎２丁目13−２","ステータス":"RECEIPT","region":"Hirosaki","lat":40.607227,"lng":140.495041},{"店舗名":"豚専門店 いろとん","住所":"〒036-8093","ステータス":"RECEIPT","region":"Hirosaki","lat":40.600136,"lng":140.488205},{"店舗名":"とんかつ 喜多八","住所":"〒036-8094","ステータス":"RECEIPT","region":"Hirosaki","lat":40.598244,"lng":140.4935},{"店舗名":"じょっぱりぎょうざ春来","住所":"〒036-8095 青森県弘前市城東４丁目６−２","ステータス":"RECEIPT","region":"Hirosaki","lat":40.594334,"lng":140.492737},{"店舗名":"田さ恋いむら・武道館店","住所":"〒036-8101 青森県弘前市大字豊田２丁目３","ステータス":"RECEIPT","region":"Hirosaki","lat":40.592819,"lng":140.501648},{"店舗名":"さんま煮干しそば 高倉","住所":"〒036-8101 青森県弘前市大字豊田３丁目１−１","ステータス":"RECEIPT","region":"Hirosaki","lat":40.596138,"lng":140.500946},{"店舗名":"焼肉昌苑","住所":"〒036-8111 青森県弘前市門外１丁目２２−６","ステータス":"RECEIPT","region":"Hirosaki","lat":40.582249,"lng":140.497925},{"店舗名":"じょいふる","住所":"〒036-8153 青森県弘前市三岳町５−１","ステータス":"RECEIPT","region":"Hirosaki","lat":40.578205,"lng":140.476837},{"店舗名":"インドレストラン ナンカレーハウス","住所":"〒036-8174 青森県弘前市大字富野町１１−４","ステータス":"RECEIPT","region":"Hirosaki","lat":40.587227,"lng":140.47554},{"店舗名":"ホルモン家もつべぇ","住所":"〒036-8182","ステータス":"RECEIPT","region":"Hirosaki","lat":40.599236,"lng":140.474854},{"店舗名":"SOUPCURRY MAGARI","住所":"〒036-8182","ステータス":"RECEIPT","region":"Hirosaki","lat":40.599236,"lng":140.474854},{"店舗名":"SOUPCURRY MAGARI","住所":"〒036-8182 青森県弘前市大字土手町２１－３","ステータス":"RECEIPT","region":"Hirosaki","lat":40.603062,"lng":140.471283},{"店舗名":"踊ろうサンダーバード　弘前店","住所":"〒036-8182 青森県弘前市大字土手町３８","ステータス":"RECEIPT","region":"Hirosaki","lat":40.601933,"lng":140.47287},{"店舗名":"BAR THE GYO","住所":"〒036-8182 青森県弘前市大字土手町4","ステータス":"RECEIPT","region":"Hirosaki","lat":40.602383,"lng":140.47142},{"店舗名":"StayJuicy","住所":"〒036-8183 青森県弘前市品川町１０１","ステータス":"RECEIPT","region":"Hirosaki","lat":40.593628,"lng":140.478806},{"店舗名":"Bakeshop C'est Mimi","住所":"〒036-8186","ステータス":"RECEIPT","region":"Hirosaki","lat":40.596294,"lng":140.474609},{"店舗名":"炭火焼 鳥よし","住所":"〒036-8192 青森県弘前市大字鍛冶町2-2","ステータス":"RECEIPT","region":"Hirosaki","lat":40.601933,"lng":140.470306},{"店舗名":"Pizza Bar NAPOLI","住所":"〒036-8193 青森県弘前市新鍛冶町９９","ステータス":"RECEIPT","region":"Hirosaki","lat":40.599697,"lng":140.470612},{"店舗名":"Wine Diner & Bar Vinvino","住所":"〒036-8197 青森県弘前市桶屋町","ステータス":"RECEIPT","region":"Hirosaki","lat":40.598923,"lng":140.469284},{"店舗名":"力丸食堂","住所":"〒036-8203","ステータス":"RECEIPT","region":"Hirosaki","lat":40.600758,"lng":140.466415},{"店舗名":"黒毛和牛と銀シャリ 肉の匠","住所":"〒036-8203","ステータス":"RECEIPT","region":"Hirosaki","lat":40.600758,"lng":140.466415},{"店舗名":"俺の餃子","住所":"〒036-8203","ステータス":"RECEIPT","region":"Hirosaki","lat":40.600758,"lng":140.466415},{"店舗名":"ダイニング海の灯","住所":"〒036-8203 青森県弘前市本町９５ 丸二ビル","ステータス":"RECEIPT","region":"Hirosaki","lat":40.600887,"lng":140.468521},{"店舗名":"旨い屋　umaiya","住所":"〒036-8214","ステータス":"RECEIPT","region":"Hirosaki","lat":40.595486,"lng":140.463837},{"店舗名":"旨い屋","住所":"〒036-8214 青森県弘前市新寺町５５−３４","ステータス":"RECEIPT","region":"Hirosaki","lat":40.594696,"lng":140.462402},{"店舗名":"ふわとろ亭","住所":"〒036-8232","ステータス":"RECEIPT","region":"Hirosaki","lat":40.579468,"lng":140.470566},{"店舗名":"音楽食堂オトノキ","住所":"〒036-8255 青森県弘前市大字若葉１丁目５−５","ステータス":"RECEIPT","region":"Hirosaki","lat":40.585663,"lng":140.452606},{"店舗名":"七輪焼肉弁当 蓮桜 石渡店","住所":"〒036-8316","ステータス":"RECEIPT","region":"Hirosaki","lat":40.634743,"lng":140.448746},{"店舗名":"たんじろう","住所":"〒036-8317 青森県弘前市大字外瀬２丁目９−２","ステータス":"RECEIPT","region":"Hirosaki","lat":40.62767,"lng":140.467209}]