[{"店舗名":"インドカレー ブランチ 日立店","住所":"〒316-0004","ステータス":"RECEIPT","region":"Hitachi","lat":36.552109,"lng":140.637283},{"店舗名":"インドカレー ブランチ 日立店","住所":"〒316-0004 茨城県日立市東多賀町５丁目１０−１２","ステータス":"RECEIPT","region":"Hitachi","lat":36.548088,"lng":140.629745},{"店舗名":"インドカレー ブランチ 日立店","住所":"〒316-0004 茨城県日立市東多賀町５丁目１０−１２","ステータス":"RECEIPT","region":"Hitachi","lat":36.548088,"lng":140.629745},{"店舗名":"このみ","住所":"〒316-0015 茨城県日立市金沢町２丁目５−１６","ステータス":"RECEIPT","region":"Hitachi","lat":36.546349,"lng":140.621429},{"店舗名":"たわわの木 tawawanoki","住所":"〒316-0033 茨城県日立市中成沢町１丁目１７−１","ステータス":"RECEIPT","region":"Hitachi","lat":36.576565,"lng":140.643997},{"店舗名":"en cafe(エンカフェ)","住所":"〒317-0052 茨城県日立市東滑川町１丁目３１−１","ステータス":"RECEIPT","region":"Hitachi","lat":36.606373,"lng":140.673294},{"店舗名":"まぜめん91 mazemen91","住所":"〒317-0064 茨城県日立市神峰町","ステータス":"RECEIPT","region":"Hitachi","lat":36.597168,"lng":140.653137},{"店舗名":"金海","住所":"〒317-0064 茨城県日立市神峰町","ステータス":"RECEIPT","region":"Hitachi","lat":36.597168,"lng":140.653137},{"店舗名":"アイ エヌ キッチン 日立店 （I-N kitchen）","住所":"〒317-0073 茨城県日立市幸町１丁目１２−１","ステータス":"RECEIPT","region":"Hitachi","lat":36.591976,"lng":140.6577},{"店舗名":"GURUNAVI FOODHALL WYE ヒタチエ","住所":"〒317-0073 茨城県日立市幸町１丁目１６−１","ステータス":"RECEIPT","region":"Hitachi","lat":36.591763,"lng":140.658936},{"店舗名":"一平鮨ひたち南ドライブイン店","住所":"〒319-1234 茨城県日立市大和田町","ステータス":"RECEIPT","region":"Hitachi","lat":36.507507,"lng":140.582062},{"店舗名":"KEY’S CAFÉ ひたち南ドライブイン店","住所":"〒319-1234 茨城県日立市大和田町","ステータス":"RECEIPT","region":"Hitachi","lat":36.507507,"lng":140.582062},{"店舗名":"ASIAN DINING PAPAYA","住所":"〒319-1414","ステータス":"RECEIPT","region":"Hitachi","lat":36.635757,"lng":140.676132},{"店舗名":"DINING.BAR SANMU","住所":"〒319-1414 茨城県日立市日高町","ステータス":"RECEIPT","region":"Hitachi","lat":36.635757,"lng":140.676132},{"店舗名":"アジアンダイニング　パパヤ","住所":"〒319-1414 茨城県日立市日高町１丁目１−１２","ステータス":"RECEIPT","region":"Hitachi","lat":36.636562,"lng":140.675735}]