[{"店舗名":"このんこぴあ","住所":"〒395-0001 長野県飯田市座光寺４５９８−１","ステータス":"RECEIPT","region":"Iida","lat":35.530373,"lng":137.861389},{"店舗名":"インド・ネパール料理アンナプルナ座光寺店","住所":"〒395-0001 長野県飯田市座光寺5397-4","ステータス":"RECEIPT","region":"Iida","lat":35.524368,"lng":137.863159},{"店舗名":"居酒屋　星（あかり）","住所":"〒395-0004 長野県飯田市上郷黒田４３５−１","ステータス":"RECEIPT","region":"Iida","lat":35.517971,"lng":137.841965},{"店舗名":"焼き鳥とよ","住所":"〒395-0016","ステータス":"RECEIPT","region":"Iida","lat":35.516972,"lng":137.827805},{"店舗名":"HAYAKAWA(一口餃子）","住所":"〒395-0021 長野県飯田市仲ノ町","ステータス":"RECEIPT","region":"Iida","lat":35.5158,"lng":137.83046},{"店舗名":"ラムしゃぶ　あずまし屋","住所":"〒395-0031 長野県飯田市銀座５丁目 三条ビル １階","ステータス":"RECEIPT","region":"Iida","lat":35.513603,"lng":137.825851},{"店舗名":"かぶき屋","住所":"〒395-0041長野県飯田市中央通り２-７","ステータス":"RECEIPT","region":"Iida","lat":35.517262,"lng":137.825653},{"店舗名":"calf crepe cafe","住所":"〒395-0151","ステータス":"RECEIPT","region":"Iida","lat":35.51453,"lng":137.781418},{"店舗名":"小鈴","住所":"〒395-0151 長野県飯田市北方３８７２−１８","ステータス":"RECEIPT","region":"Iida","lat":35.500832,"lng":137.7901},{"店舗名":"みんなのナンハウス","住所":"〒395-0157 長野県飯田市大瀬木９２０−１","ステータス":"RECEIPT","region":"Iida","lat":35.494953,"lng":137.785889},{"店舗名":"ANNAPURNA アップロード店","住所":"〒395-0804 長野県飯田市鼎名古熊２０３５","ステータス":"RECEIPT","region":"Iida","lat":35.497608,"lng":137.828094},{"店舗名":"お持ち帰りからあげ専門店　フクスケ","住所":"〒395-0805 長野県飯田市鼎４１０","ステータス":"RECEIPT","region":"Iida","lat":35.502113,"lng":137.814102},{"店舗名":"居酒屋たかの","住所":"〒395-0823 長野県飯田市松尾明７６５８−１","ステータス":"RECEIPT","region":"Iida","lat":35.49155,"lng":137.849472}]