[{"店舗名":"新天地　富山店","住所":"〒934-0023 富山県射水市海王町１５","ステータス":"RECEIPT","region":"Imizu","lat":36.782852,"lng":137.104187},{"店舗名":"台湾料理長城","住所":"〒939-0305 富山県射水市鷲塚１８１−１０","ステータス":"RECEIPT","region":"Imizu","lat":36.719582,"lng":137.12471},{"店舗名":"テキサスハンズ 射水小杉店","住所":"〒939-0341 富山県射水市三ケ２７５５−１","ステータス":"RECEIPT","region":"Imizu","lat":36.715321,"lng":137.091904},{"店舗名":"ホットスプーン 小杉店","住所":"〒939-0351 富山県射水市戸破","ステータス":"RECEIPT","region":"Imizu","lat":36.721684,"lng":137.110657},{"店舗名":"おむすび ぐぐ屋","住所":"〒939-0351 富山県射水市戸破１３８２-５","ステータス":"RECEIPT","region":"Imizu","lat":36.712742,"lng":137.101425},{"店舗名":"まごころ弁当 射水店","住所":"〒939-0363 富山県射水市中太閤山２丁目","ステータス":"RECEIPT","region":"Imizu","lat":36.703568,"lng":137.093094}]