[{"店舗名":"博多とよ唐亭 糸島高田店","住所":"〒819-1102","ステータス":"RECEIPT","region":"Itoshima","lat":33.566631,"lng":130.236572},{"店舗名":"焼肉 炙り乃","住所":"〒819-1102 福岡県糸島市高田","ステータス":"RECEIPT","region":"Itoshima","lat":33.566631,"lng":130.236572},{"店舗名":"鉄板焼き•お好み焼き 鉄板本舗 無限ハンバーグ","住所":"〒819-1102 福岡県糸島市高田５丁目２４−１８","ステータス":"RECEIPT","region":"Itoshima","lat":33.571125,"lng":130.238297},{"店舗名":"糸島からあげ大地 糸島本店","住所":"〒819-1104 福岡県糸島市波多江６３１−１","ステータス":"RECEIPT","region":"Itoshima","lat":33.556583,"lng":130.228027},{"店舗名":"鶏笑　糸島店","住所":"〒819-1105 福岡県糸島市潤","ステータス":"RECEIPT","region":"Itoshima","lat":33.568481,"lng":130.21434},{"店舗名":"玉家のキムチエ房糸島本店","住所":"〒819-1107 福岡県糸島市波多江駅北２丁目１０−２９","ステータス":"RECEIPT","region":"Itoshima","lat":33.564407,"lng":130.222687},{"店舗名":"サフラン 本番インド ネパール料理","住所":"〒819-1107 福岡県糸島市波多江駅北３丁目１−１ マルエイ壱番館","ステータス":"RECEIPT","region":"Itoshima","lat":33.565113,"lng":130.224884},{"店舗名":"cafe suzu.","住所":"〒819-1108  福岡県糸島市波多江駅南１丁目２０−８","ステータス":"RECEIPT","region":"Itoshima","lat":33.564247,"lng":130.231552},{"店舗名":"CAKE HOUSE Tomita (ケーキハウス トミタ)","住所":"〒819-1108 福岡県糸島市波多江駅南２丁目１−１０","ステータス":"RECEIPT","region":"Itoshima","lat":33.56139,"lng":130.226974},{"店舗名":"鮨処　味善","住所":"〒819-1112 福岡県糸島市浦志１丁目３−２５","ステータス":"RECEIPT","region":"Itoshima","lat":33.560051,"lng":130.209839},{"店舗名":"Ito Momo Nepal Cafe & Curry House","住所":"〒819-1116 福岡県糸島市前原中央２丁目３−２","ステータス":"RECEIPT","region":"Itoshima","lat":33.558571,"lng":130.198441},{"店舗名":"糸島食ぱんや","住所":"〒819-1116 福岡県糸島市前原中央３丁目２０−２４","ステータス":"RECEIPT","region":"Itoshima","lat":33.560009,"lng":130.200027},{"店舗名":"博多とよ唐亭 前原店","住所":"〒819-1117","ステータス":"RECEIPT","region":"Itoshima","lat":33.557095,"lng":130.195267},{"店舗名":"二三家食堂 糸島屋","住所":"〒819-1117 福岡県糸島市前原西１丁目１５−１８","ステータス":"RECEIPT","region":"Itoshima","lat":33.556305,"lng":130.192993},{"店舗名":"藤次郎　TOJIRO","住所":"〒819-1119 福岡県糸島市前原東１丁目４−１１","ステータス":"RECEIPT","region":"Itoshima","lat":33.560104,"lng":130.204758},{"店舗名":"アロハ日和","住所":"〒819-1137 福岡県糸島市南風台８丁目３−１","ステータス":"RECEIPT","region":"Itoshima","lat":33.550446,"lng":130.19371},{"店舗名":"うどん和助 糸島店　udonwasukeitoshimaten","住所":"〒819-1148","ステータス":"RECEIPT","region":"Itoshima","lat":33.547855,"lng":130.174881},{"店舗名":"【ジェラートとケーキのお店】フランス菓子果摘","住所":"〒819-1331 福岡県糸島市志摩久家２１−４","ステータス":"RECEIPT","region":"Itoshima","lat":33.561852,"lng":130.156189},{"店舗名":"カフェka_noa-カノア-","住所":"〒819-1335","ステータス":"RECEIPT","region":"Itoshima","lat":33.581432,"lng":130.110794},{"店舗名":"OotDog","住所":"〒819-1335 福岡県糸島市志摩芥屋６１６−１","ステータス":"RECEIPT","region":"Itoshima","lat":33.581432,"lng":130.110794},{"店舗名":"伊都のからあげ","住所":"〒819-1561 福岡県糸島市曽根８４２−１","ステータス":"RECEIPT","region":"Itoshima","lat":33.537766,"lng":130.232956}]