[{"店舗名":"ちゅら","住所":"〒598-0001","ステータス":"RECEIPT","region":"Izumisano","lat":34.413322,"lng":135.336823},{"店舗名":"【カラダが喜ぶオムライスCafe】Egg House～泉佐野店～","住所":"〒598-0001 大阪府泉佐野市上瓦屋","ステータス":"APP_DISPLAY","region":"Izumisano","lat":34.413322,"lng":135.336823},{"店舗名":"【チキンステーキ弁当】Master Of Chicken～泉佐野店～","住所":"〒598-0001 大阪府泉佐野市上瓦屋","ステータス":"APP_DISPLAY","region":"Izumisano","lat":34.413322,"lng":135.336823},{"店舗名":"【アサイー＆グリークヨーグルト】Crunchy Treasure（クランチー・トレジャー）～泉佐野店～","住所":"〒598-0001 大阪府泉佐野市上瓦屋","ステータス":"APP_DISPLAY","region":"Izumisano","lat":34.413322,"lng":135.336823},{"店舗名":"Cafe's 9999Quatro Nueve","住所":"〒598-0001 大阪府泉佐野市上瓦屋","ステータス":"RECEIPT","region":"Izumisano","lat":34.413322,"lng":135.336823},{"店舗名":"INDIAN ASIAN RESTAURANT AND BAR MILAN  熊取店","住所":"〒598-0001 大阪府泉佐野市上瓦屋２０１－1","ステータス":"APP_DISPLAY","region":"Izumisano","lat":34.410076,"lng":135.337891},{"店舗名":"【出汁の親子丼】鶏ヶ屋(TORIGAYA)～泉佐野店～","住所":"〒598-0001 大阪府泉佐野市上瓦屋３４６−１","ステータス":"APP_DISPLAY","region":"Izumisano","lat":34.413914,"lng":135.338867},{"店舗名":"ガッツリスタミナ丼!!野郎の道!!～泉佐野店～","住所":"〒598-0001 大阪府泉佐野市上瓦屋３４６−１","ステータス":"APP_DISPLAY","region":"Izumisano","lat":34.413914,"lng":135.338867},{"店舗名":"【タレ香る十勝豚丼】豚龍BUTARYU～泉佐野店～","住所":"〒598-0001 大阪府泉佐野市上瓦屋３４６−１","ステータス":"APP_DISPLAY","region":"Izumisano","lat":34.413914,"lng":135.338867},{"店舗名":"(宅配専門店)ゴーゴーカレー 泉佐野上瓦屋店","住所":"〒598-0001 大阪府泉佐野市上瓦屋３４６−１","ステータス":"APP_DISPLAY","region":"Izumisano","lat":34.413914,"lng":135.338867},{"店舗名":"【フルーツたっぷりアサイーボウル】ワイキキ・ボウルズ 泉佐野上瓦屋店","住所":"〒598-0001 大阪府泉佐野市上瓦屋３４６−１","ステータス":"RECEIPT","region":"Izumisano","lat":34.413914,"lng":135.338867},{"店舗名":"【本格麻辣×自家製春雨】白虎麻辣湯 泉佐野上瓦屋店","住所":"〒598-0001 大阪府泉佐野市上瓦屋３４６−１","ステータス":"RECEIPT","region":"Izumisano","lat":34.413914,"lng":135.338867},{"店舗名":"【出汁の旨みとたっぷり具材】雑炊の気分 泉佐野上瓦屋店","住所":"〒598-0001 大阪府泉佐野市上瓦屋３４６−１","ステータス":"RECEIPT","region":"Izumisano","lat":34.413914,"lng":135.338867},{"店舗名":"【3/4日分の野菜！ゴロゴロ野菜のごちそうスープ】ベジブロ 泉佐野上瓦屋店","住所":"〒598-0001 大阪府泉佐野市上瓦屋３４６−１","ステータス":"RECEIPT","region":"Izumisano","lat":34.413914,"lng":135.338867},{"店舗名":"【アサイー&グリークヨーグルト】GREEKSPOON 泉佐野上瓦屋店","住所":"〒598-0001 大阪府泉佐野市上瓦屋３４６−１","ステータス":"RECEIPT","region":"Izumisano","lat":34.413914,"lng":135.338867},{"店舗名":"【とろじゅわフレンチトースト】CafeBonheur 泉佐野上瓦屋店","住所":"〒598-0001 大阪府泉佐野市上瓦屋３４６−１","ステータス":"RECEIPT","region":"Izumisano","lat":34.413914,"lng":135.338867},{"店舗名":"【1日分の野菜】野菜食人ビビンバ 泉佐野上瓦屋店","住所":"〒598-0001 大阪府泉佐野市上瓦屋３４６−１","ステータス":"RECEIPT","region":"Izumisano","lat":34.413914,"lng":135.338867},{"店舗名":"元祖台湾まぜそば麺屋はなびエクスプレス 泉佐野上瓦屋店","住所":"〒598-0001 大阪府泉佐野市上瓦屋３４６−１","ステータス":"RECEIPT","region":"Izumisano","lat":34.413914,"lng":135.338867},{"店舗名":"SHIKHAR","住所":"〒598-0002 大阪府泉佐野市中庄１４３６−１","ステータス":"APP_DISPLAY","region":"Izumisano","lat":34.410957,"lng":135.328247},{"店舗名":"自家製麺 そば心","住所":"〒598-0003","ステータス":"APP_DISPLAY","region":"Izumisano","lat":34.39782,"lng":135.325546},{"店舗名":"Twelve Bowl 泉佐野店","住所":"〒598-0003 大阪府泉佐野市俵屋４２７−１ ソシア菊 テナント1号室","ステータス":"APP_DISPLAY","region":"Izumisano","lat":34.39782,"lng":135.325546},{"店舗名":"たこ焼き 雅","住所":"〒598-0007","ステータス":"APP_DISPLAY","region":"Izumisano","lat":34.409752,"lng":135.324158},{"店舗名":"ポー・タイ","住所":"〒598-0007","ステータス":"RECEIPT","region":"Izumisano","lat":34.409752,"lng":135.324158},{"店舗名":"BAR DETOROITO","住所":"〒598-0007 大阪府泉佐野市上町","ステータス":"RECEIPT","region":"Izumisano","lat":34.409752,"lng":135.324158},{"店舗名":"kiot +84","住所":"〒598-0007 大阪府泉佐野市上町","ステータス":"RECEIPT","region":"Izumisano","lat":34.409752,"lng":135.324158},{"店舗名":"American Diner LIT","住所":"〒598-0007 大阪府泉佐野市上町","ステータス":"APP_DISPLAY","region":"Izumisano","lat":34.409752,"lng":135.324158},{"店舗名":"【メガ盛り‼】1キロ弁当工房肉MAX!!大盛りからあげお弁当 上町1丁目店","住所":"〒598-0007 大阪府泉佐野市上町１丁目１０−１５","ステータス":"RECEIPT","region":"Izumisano","lat":34.410099,"lng":135.324982},{"店舗名":"FreshPokeWorks 上町1丁目店","住所":"〒598-0007 大阪府泉佐野市上町１丁目１０−１５","ステータス":"RECEIPT","region":"Izumisano","lat":34.410099,"lng":135.324982},{"店舗名":"【サクッと爆上げ!!爆盛鶏唐丼】唐揚げ商店鳥一ミート 上町1丁目店","住所":"〒598-0007 大阪府泉佐野市上町１丁目１０−１５","ステータス":"RECEIPT","region":"Izumisano","lat":34.410099,"lng":135.324982},{"店舗名":"lron stable cafe","住所":"〒598-0007 大阪府泉佐野市上町１丁目１０−１５","ステータス":"RECEIPT","region":"Izumisano","lat":34.410099,"lng":135.324982},{"店舗名":"四川料理 蘭梅","住所":"〒598-0007 大阪府泉佐野市上町１丁目８−２６","ステータス":"APP_DISPLAY","region":"Izumisano","lat":34.409084,"lng":135.32431},{"店舗名":"kiot +84","住所":"〒598-0007 大阪府泉佐野市上町２丁目７−１１","ステータス":"APP_DISPLAY","region":"Izumisano","lat":34.411137,"lng":135.321823},{"店舗名":"とんかつの和吉 泉佐野東口駅前店","住所":"〒598-0007 大阪府泉佐野市上町３丁目１０−１１","ステータス":"APP_DISPLAY","region":"Izumisano","lat":34.410576,"lng":135.31749},{"店舗名":"大衆鰻 うな銀 泉佐野東口駅前店","住所":"〒598-0007 大阪府泉佐野市上町３丁目１０−１１ 泉佐野ビル 1階","ステータス":"APP_DISPLAY","region":"Izumisano","lat":34.410576,"lng":135.31749},{"店舗名":"山内農場 泉佐野東口駅前店","住所":"〒598-0007 大阪府泉佐野市上町３丁目１０−１１ 泉佐野ビル 1階","ステータス":"APP_DISPLAY","region":"Izumisano","lat":34.410576,"lng":135.31749},{"店舗名":"カルビ丼・赤チゲ グンチャン 泉佐野東口駅前店","住所":"〒598-0007 大阪府泉佐野市上町３丁目１０−１１ 泉佐野ビル 1階","ステータス":"APP_DISPLAY","region":"Izumisano","lat":34.410576,"lng":135.31749},{"店舗名":"【ティラミス専門店】ティラミッシモ泉佐野駅店","住所":"〒598-0007 大阪府泉佐野市上町３丁目１１−４５","ステータス":"APP_DISPLAY","region":"Izumisano","lat":34.410988,"lng":135.316833},{"店舗名":"焼肉ホルモン肉タレ屋　日の出湯跡地","住所":"〒598-0007 大阪府泉佐野市上町３丁目１−１６","ステータス":"APP_DISPLAY","region":"Izumisano","lat":34.409512,"lng":135.319687},{"店舗名":"居酒屋　呑・花月","住所":"〒598-0007 大阪府泉佐野市上町３丁目４−２７","ステータス":"APP_DISPLAY","region":"Izumisano","lat":34.409962,"lng":135.319275},{"店舗名":"Eazy Market","住所":"〒598-0007 大阪府泉佐野市上町３丁目６−３８","ステータス":"RECEIPT","region":"Izumisano","lat":34.411133,"lng":135.318817},{"店舗名":"吉野家 26号線泉佐野店","住所":"〒598-0012 大阪府泉佐野市高松東２丁目６５２９","ステータス":"APP_DISPLAY","region":"Izumisano","lat":34.40448,"lng":135.315277},{"店舗名":"【ティラミス専門店】ティラミッシモ本店","住所":"〒598-0013 大阪府泉佐野市中町２丁目２−３３","ステータス":"APP_DISPLAY","region":"Izumisano","lat":34.401657,"lng":135.31517},{"店舗名":"中華料理　台菜館","住所":"〒598-0021 大阪府泉佐野市日根野２４９６−１","ステータス":"APP_DISPLAY","region":"Izumisano","lat":34.393414,"lng":135.334},{"店舗名":"たこ焼き 東ちゃん","住所":"〒598-0031 大阪府泉佐野市東羽倉崎町６−１２","ステータス":"APP_DISPLAY","region":"Izumisano","lat":34.399612,"lng":135.304886},{"店舗名":"イクテイ マラサダ ドーナツ","住所":"〒598-0033 大阪府泉佐野市南中安松","ステータス":"APP_DISPLAY","region":"Izumisano","lat":34.392979,"lng":135.307953},{"店舗名":"ウェンディーズ・ファーストキッチン 26泉佐野安松店","住所":"〒598-0033 大阪府泉佐野市南中安松６６１−１","ステータス":"APP_DISPLAY","region":"Izumisano","lat":34.393326,"lng":135.304733},{"店舗名":"麺屋・國丸。泉佐野店","住所":"〒598-0035 大阪府泉佐野市南中樫井２８６−２","ステータス":"APP_DISPLAY","region":"Izumisano","lat":34.384304,"lng":135.296722},{"店舗名":"ピザ・カリオン　泉佐野店","住所":"〒598-0036 大阪府泉佐野市南中岡本","ステータス":"APP_DISPLAY","region":"Izumisano","lat":34.387505,"lng":135.300537},{"店舗名":"旬菜旬魚はこぶね","住所":"〒598-0037 大阪府泉佐野市羽倉崎上町２丁目３４５１−１","ステータス":"RECEIPT","region":"Izumisano","lat":34.396595,"lng":135.301483},{"店舗名":"3代目KOROKKE","住所":"〒598-0044 大阪府泉佐野市笠松２丁目１−１６","ステータス":"RECEIPT","region":"Izumisano","lat":34.408146,"lng":135.307648},{"店舗名":"NAMASUTE SURYA","住所":"〒598-0046","ステータス":"APP_DISPLAY","region":"Izumisano","lat":34.401173,"lng":135.299698},{"店舗名":"Amin Bon","住所":"〒598-0046 大阪府泉佐野市羽倉崎１丁目１-３３","ステータス":"RECEIPT","region":"Izumisano","lat":34.400108,"lng":135.298325},{"店舗名":"ドミノ・ピザ りんくう羽倉崎店","住所":"〒598-0046 大阪府泉佐野市羽倉崎１丁目６−１","ステータス":"APP_DISPLAY","region":"Izumisano","lat":34.402954,"lng":135.301376},{"店舗名":"CRAZY SPICEりんくうシークル店","住所":"〒598-0047 大阪府泉佐野市りんくう往来南３","ステータス":"APP_DISPLAY","region":"Izumisano","lat":34.406223,"lng":135.295151},{"店舗名":"大起水産 回転寿司 りんくうシークル店","住所":"〒598-0047 大阪府泉佐野市りんくう往来南３","ステータス":"APP_DISPLAY","region":"Izumisano","lat":34.406223,"lng":135.295151},{"店舗名":"地元農産物加工のお店 いずみさん","住所":"〒598-0054","ステータス":"APP_DISPLAY","region":"Izumisano","lat":34.412617,"lng":135.316879},{"店舗名":"DACKWEED","住所":"〒598-0054 大阪府泉佐野市栄町５−１","ステータス":"RECEIPT","region":"Izumisano","lat":34.411781,"lng":135.316574},{"店舗名":"純喫酒コパープル","住所":"〒598-0055 大阪府泉佐野市若宮町５−１６","ステータス":"APP_DISPLAY","region":"Izumisano","lat":34.411797,"lng":135.315628},{"店舗名":"Surya’s Kitchen すーさんのインドカレー＆ラーメンとんとん亭","住所":"〒598-0062","ステータス":"APP_DISPLAY","region":"Izumisano","lat":34.4193,"lng":135.329575},{"店舗名":"ガビガビ食堂 Gabigabi syokudou","住所":"〒598-0062 大阪府泉佐野市下瓦屋","ステータス":"APP_DISPLAY","region":"Izumisano","lat":34.4193,"lng":135.329575},{"店舗名":"すーさんのインド料理NAMASTE SURYA 湊店","住所":"〒598-0063","ステータス":"APP_DISPLAY","region":"Izumisano","lat":34.415649,"lng":135.324081},{"店舗名":"浪花屋","住所":"〒598-0071 大阪府泉佐野市鶴原１９６８−１","ステータス":"APP_DISPLAY","region":"Izumisano","lat":34.427216,"lng":135.340591},{"店舗名":"泉州キムチ アチム","住所":"〒598-0071 大阪府泉佐野市鶴原８１９−１","ステータス":"RECEIPT","region":"Izumisano","lat":34.415298,"lng":135.345322}]