[{"店舗名":"アッサアッサ亭","住所":"〒571-0002 大阪府門真市岸和田３丁目","ステータス":"APP_DISPLAY","region":"Kadoma","lat":34.726173,"lng":135.619644},{"店舗名":"ラーメンまこと屋門真岸和田店","住所":"〒571-0002 大阪府門真市岸和田３丁目３１ アズトップステーション","ステータス":"APP_DISPLAY","region":"Kadoma","lat":34.726654,"lng":135.618103},{"店舗名":"きょんきょん","住所":"〒571-0007","ステータス":"RECEIPT","region":"Kadoma","lat":34.73867,"lng":135.620163},{"店舗名":"アージュ","住所":"〒571-0007 大阪府門真市北岸和田１丁目１５−２６","ステータス":"APP_DISPLAY","region":"Kadoma","lat":34.737659,"lng":135.617889},{"店舗名":"アルシー","住所":"〒571-0008","ステータス":"RECEIPT","region":"Kadoma","lat":34.722057,"lng":135.619888},{"店舗名":"アルシー東江端店","住所":"〒571-0008 大阪府門真市東江端町１１−１","ステータス":"APP_DISPLAY","region":"Kadoma","lat":34.72163,"lng":135.618744},{"店舗名":"le pain","住所":"〒571-0009","ステータス":"APP_DISPLAY","region":"Kadoma","lat":34.728146,"lng":135.615128},{"店舗名":"【こだわる豆腐惣菜のお店】福万佐豆腐店","住所":"〒571-0009 大阪府門真市下馬伏町","ステータス":"APP_DISPLAY","region":"Kadoma","lat":34.728146,"lng":135.615128},{"店舗名":"【豆腐屋さんが作るこだわりスイーツのお店】福万佐豆腐店","住所":"〒571-0009 大阪府門真市下馬伏町","ステータス":"APP_DISPLAY","region":"Kadoma","lat":34.728146,"lng":135.615128},{"店舗名":"ベトナム料理MIỀN TÂY QUÁN","住所":"〒571-0009 大阪府門真市下馬伏町１０－２０","ステータス":"APP_DISPLAY","region":"Kadoma","lat":34.726719,"lng":135.61319},{"店舗名":"BARN CAFE","住所":"〒571-0009 大阪府門真市下馬伏町１−１６","ステータス":"APP_DISPLAY","region":"Kadoma","lat":34.727512,"lng":135.61235},{"店舗名":"大阪ふくちぁんラーメン　門真店","住所":"〒571-0009 大阪府門真市下馬伏町２６−１５","ステータス":"APP_DISPLAY","region":"Kadoma","lat":34.728962,"lng":135.617462},{"店舗名":"福万佐豆腐店","住所":"〒571-0009 大阪府門真市下馬伏町２６−３","ステータス":"APP_DISPLAY","region":"Kadoma","lat":34.730034,"lng":135.617233},{"店舗名":"お好みハウスファミリー","住所":"〒571-0011 大阪府門真市脇田町１６−３０","ステータス":"APP_DISPLAY","region":"Kadoma","lat":34.726028,"lng":135.6138},{"店舗名":"おにぎり専門店 むすびや","住所":"〒571-0011 大阪府門真市脇田町１７−１","ステータス":"RECEIPT","region":"Kadoma","lat":34.726295,"lng":135.613693},{"店舗名":"ウッディ","住所":"〒571-0014","ステータス":"APP_DISPLAY","region":"Kadoma","lat":34.724567,"lng":135.60643},{"店舗名":"希繋","住所":"〒571-0014 大阪府門真市千石西町１−３４","ステータス":"APP_DISPLAY","region":"Kadoma","lat":34.726952,"lng":135.607056},{"店舗名":"WANJU","住所":"〒571-0016 大阪府門真市島頭","ステータス":"APP_DISPLAY","region":"Kadoma","lat":34.73568,"lng":135.609589},{"店舗名":"炉ばた焼どんと","住所":"〒571-0016 大阪府門真市島頭１丁目２−２８","ステータス":"APP_DISPLAY","region":"Kadoma","lat":34.737324,"lng":135.61084},{"店舗名":"インド ネパール レストラン SOPHIAMAHAL","住所":"〒571-0016 大阪府門真市島頭４丁目１７−２５","ステータス":"APP_DISPLAY","region":"Kadoma","lat":34.729626,"lng":135.608475},{"店舗名":"INDIAN RESTAURANT MANNA","住所":"〒571-0021 大阪府門真市舟田町１２−２６","ステータス":"APP_DISPLAY","region":"Kadoma","lat":34.731575,"lng":135.600159},{"店舗名":"MANNA","住所":"〒571-0021 大阪府門真市舟田町１２−２６","ステータス":"RECEIPT","region":"Kadoma","lat":34.731575,"lng":135.600159},{"店舗名":"来夢来人","住所":"〒571-0021 大阪府門真市舟田町４５−２４","ステータス":"APP_DISPLAY","region":"Kadoma","lat":34.734886,"lng":135.603638},{"店舗名":"てんほう","住所":"〒571-0024 大阪府門真市野口８３３","ステータス":"APP_DISPLAY","region":"Kadoma","lat":34.728088,"lng":135.605225},{"店舗名":"潤い","住所":"〒571-0024 大阪府門真市野口８３３","ステータス":"APP_DISPLAY","region":"Kadoma","lat":34.728088,"lng":135.605225},{"店舗名":"CAFE ハレトクモリ","住所":"〒571-0030","ステータス":"RECEIPT","region":"Kadoma","lat":34.738415,"lng":135.592087},{"店舗名":"大分からあげと鉄板焼　古川橋応援団　勝男","住所":"〒571-0030","ステータス":"APP_DISPLAY","region":"Kadoma","lat":34.738415,"lng":135.592087},{"店舗名":"紫山","住所":"〒571-0030","ステータス":"APP_DISPLAY","region":"Kadoma","lat":34.738415,"lng":135.592087},{"店舗名":"RAJ GANESHA","住所":"〒571-0030 大阪府門真市末広町","ステータス":"APP_DISPLAY","region":"Kadoma","lat":34.738415,"lng":135.592087},{"店舗名":"炭火工房 鳥庵ばん吉","住所":"〒571-0030 大阪府門真市末広町３６−１８","ステータス":"APP_DISPLAY","region":"Kadoma","lat":34.737617,"lng":135.589859},{"店舗名":"楽食居酒屋 なごみ 古川橋店","住所":"〒571-0030 大阪府門真市末広町４０−１８","ステータス":"APP_DISPLAY","region":"Kadoma","lat":34.738297,"lng":135.590607},{"店舗名":"らーめん 桐麺 門真店","住所":"〒571-0030 大阪府門真市末広町４０−５ アドラブール古川橋 1,101","ステータス":"APP_DISPLAY","region":"Kadoma","lat":34.738129,"lng":135.59108},{"店舗名":"KAKAZANそよら古川橋駅前店","住所":"〒571-0030 大阪府門真市末広町４１−２","ステータス":"APP_DISPLAY","region":"Kadoma","lat":34.738552,"lng":135.591568},{"店舗名":"バーガーキング そよら古川橋駅前店","住所":"〒571-0030 大阪府門真市末広町４１−２","ステータス":"APP_DISPLAY","region":"Kadoma","lat":34.738552,"lng":135.591568},{"店舗名":"PAJERO","住所":"〒571-0030 大阪府門真市末広町４３−１４","ステータス":"APP_DISPLAY","region":"Kadoma","lat":34.738834,"lng":135.592331},{"店舗名":"PHO 88 ベトナム料理","住所":"〒571-0033 大阪府門真市一番町２４−１５","ステータス":"APP_DISPLAY","region":"Kadoma","lat":34.728111,"lng":135.592377},{"店舗名":"ケンタッキーフライドチキン 古川橋店","住所":"〒571-0038 大阪府門真市柳田町５−１４","ステータス":"APP_DISPLAY","region":"Kadoma","lat":34.734009,"lng":135.593246},{"店舗名":"元祖浪速のたこ焼き 八ぽん 古川橋店","住所":"〒571-0039 大阪府門真市速見町９−１６","ステータス":"APP_DISPLAY","region":"Kadoma","lat":34.734581,"lng":135.593613},{"店舗名":"うどんそば あそこ","住所":"〒571-0039 大阪府門真市速見町９−１７","ステータス":"APP_DISPLAY","region":"Kadoma","lat":34.734497,"lng":135.593597},{"店舗名":"すしバリュー","住所":"〒571-0041","ステータス":"APP_DISPLAY","region":"Kadoma","lat":34.736198,"lng":135.587585},{"店舗名":"Diamond Star","住所":"〒571-0041 大阪府門真市柳町１３−５","ステータス":"APP_DISPLAY","region":"Kadoma","lat":34.736435,"lng":135.588959},{"店舗名":"純喫茶とスイーツPARLOURラルゴ　ららぽーと門真店","住所":"〒571-0044 大阪府門真市松生町１−１１","ステータス":"APP_DISPLAY","region":"Kadoma","lat":34.733517,"lng":135.582626},{"店舗名":"K’s cafe","住所":"〒571-0045 大阪府門真市殿島町６−４","ステータス":"APP_DISPLAY","region":"Kadoma","lat":34.732746,"lng":135.580093},{"店舗名":"焼立のパン　トリーゴ","住所":"〒571-0046","ステータス":"APP_DISPLAY","region":"Kadoma","lat":34.7351,"lng":135.578369},{"店舗名":"ふらっとよる","住所":"〒571-0047","ステータス":"APP_DISPLAY","region":"Kadoma","lat":34.735577,"lng":135.580917},{"店舗名":"クック エプロン","住所":"〒571-0047 大阪府門真市栄町１１−１４","ステータス":"RECEIPT","region":"Kadoma","lat":34.736107,"lng":135.579971},{"店舗名":"クック エプロン","住所":"〒571-0047 大阪府門真市栄町１１−１４","ステータス":"RECEIPT","region":"Kadoma","lat":34.736107,"lng":135.579971},{"店舗名":"クック エプロン","住所":"〒571-0047 大阪府門真市栄町１１−１４","ステータス":"APP_DISPLAY","region":"Kadoma","lat":34.736107,"lng":135.579971},{"店舗名":"美らカフェジャンゴリ","住所":"〒571-0048","ステータス":"APP_DISPLAY","region":"Kadoma","lat":34.735954,"lng":135.584015},{"店舗名":"Jungle Gorilla","住所":"〒571-0048","ステータス":"APP_DISPLAY","region":"Kadoma","lat":34.735954,"lng":135.584015},{"店舗名":"クレメンテ","住所":"〒571-0048","ステータス":"APP_DISPLAY","region":"Kadoma","lat":34.735954,"lng":135.584015},{"店舗名":"COROCORO","住所":"〒571-0048","ステータス":"APP_DISPLAY","region":"Kadoma","lat":34.735954,"lng":135.584015},{"店舗名":"旬扇","住所":"〒571-0048 大阪府門真市新橋町３０−２６","ステータス":"APP_DISPLAY","region":"Kadoma","lat":34.73531,"lng":135.584213},{"店舗名":"ジャンボ酒場 門真市駅前店","住所":"〒571-0048 大阪府門真市新橋町５−１","ステータス":"APP_DISPLAY","region":"Kadoma","lat":34.737251,"lng":135.583939},{"店舗名":"肉バルDENNER-ROIN","住所":"〒571-0048 大阪府門真市新橋町８−２５ 市","ステータス":"APP_DISPLAY","region":"Kadoma","lat":34.737164,"lng":135.585159},{"店舗名":"大阪王将 大日ベアーズ店","住所":"〒571-0051 大阪府門真市向島町３−３３","ステータス":"APP_DISPLAY","region":"Kadoma","lat":34.746387,"lng":135.580292},{"店舗名":"ステーキのどん　門真店","住所":"〒571-0051 大阪府門真市向島町３５−１","ステータス":"APP_DISPLAY","region":"Kadoma","lat":34.746445,"lng":135.582001},{"店舗名":"よろずや健築相談所","住所":"〒571-0052 大阪府門真市月出町７−２３","ステータス":"RECEIPT","region":"Kadoma","lat":34.746964,"lng":135.586395},{"店舗名":"ガブ呑みバール　Bar Luna","住所":"〒571-0053 大阪府門真市泉町１−１","ステータス":"APP_DISPLAY","region":"Kadoma","lat":34.742409,"lng":135.586044},{"店舗名":"INDRENI","住所":"〒571-0053 大阪府門真市泉町７−１８","ステータス":"APP_DISPLAY","region":"Kadoma","lat":34.74197,"lng":135.582352},{"店舗名":"お弁当 味処とき","住所":"〒571-0054 大阪府門真市浜町","ステータス":"RECEIPT","region":"Kadoma","lat":34.744808,"lng":135.587311},{"店舗名":"ハレル食堂","住所":"〒571-0055 大阪府門真市中町１０−１９","ステータス":"APP_DISPLAY","region":"Kadoma","lat":34.742416,"lng":135.588577},{"店舗名":"肉めし食堂 TAK TABLE","住所":"〒571-0055 大阪府門真市中町８−１９","ステータス":"APP_DISPLAY","region":"Kadoma","lat":34.742554,"lng":135.587311},{"店舗名":"肉丼ラボ　ゴンさん","住所":"〒571-0055 大阪府門真市中町８−１９","ステータス":"RECEIPT","region":"Kadoma","lat":34.742554,"lng":135.587311},{"店舗名":"レカリ","住所":"〒571-0057 大阪府門真市元町５−１２","ステータス":"APP_DISPLAY","region":"Kadoma","lat":34.738331,"lng":135.580368},{"店舗名":"ボールパーク　MANRUI","住所":"〒571-0058","ステータス":"APP_DISPLAY","region":"Kadoma","lat":34.740292,"lng":135.579025},{"店舗名":"遊夜家","住所":"〒571-0058","ステータス":"APP_DISPLAY","region":"Kadoma","lat":34.740292,"lng":135.579025},{"店舗名":"セルフバーMANRUI","住所":"〒571-0058","ステータス":"APP_DISPLAY","region":"Kadoma","lat":34.740292,"lng":135.579025},{"店舗名":"夢一夜バール　白蘭","住所":"〒571-0058","ステータス":"APP_DISPLAY","region":"Kadoma","lat":34.740292,"lng":135.579025},{"店舗名":"薬膳　de CAFE あん庵","住所":"〒571-0058 大阪府門真市小路町","ステータス":"APP_DISPLAY","region":"Kadoma","lat":34.740292,"lng":135.579025},{"店舗名":"来味","住所":"〒571-0059","ステータス":"APP_DISPLAY","region":"Kadoma","lat":34.742725,"lng":135.57962},{"店舗名":"レーヴマルシェ","住所":"〒571-0062","ステータス":"APP_DISPLAY","region":"Kadoma","lat":34.745014,"lng":135.605194},{"店舗名":"かつ久","住所":"〒571-0062 大阪府門真市宮野町２−２","ステータス":"RECEIPT","region":"Kadoma","lat":34.743515,"lng":135.602722},{"店舗名":"大阪カレー","住所":"〒571-0062 大阪府門真市宮野町２−２","ステータス":"RECEIPT","region":"Kadoma","lat":34.743515,"lng":135.602722},{"店舗名":"金の鳥から大和田店","住所":"〒571-0062 大阪府門真市宮野町２−２","ステータス":"APP_DISPLAY","region":"Kadoma","lat":34.743515,"lng":135.602722},{"店舗名":"中華居酒屋 輝","住所":"〒571-0062 大阪府門真市宮野町４−５","ステータス":"APP_DISPLAY","region":"Kadoma","lat":34.743938,"lng":135.603699},{"店舗名":"Tacoo!! TOKYO【究極のタコライス】 門真店","住所":"〒571-0063 大阪府門真市常称寺町１５−９","ステータス":"RECEIPT","region":"Kadoma","lat":34.744305,"lng":135.601074},{"店舗名":"からだ喜ぶ！東京カオマンガイ 門真店","住所":"〒571-0063 大阪府門真市常称寺町１５−９","ステータス":"RECEIPT","region":"Kadoma","lat":34.744305,"lng":135.601074},{"店舗名":"やみつきガパオ食堂 門真店","住所":"〒571-0063 大阪府門真市常称寺町１５−９","ステータス":"RECEIPT","region":"Kadoma","lat":34.744305,"lng":135.601074},{"店舗名":"東京チキンオーバーライス【Tokyo Chicken 】 門真店","住所":"〒571-0063 大阪府門真市常称寺町１５−９","ステータス":"RECEIPT","region":"Kadoma","lat":34.744305,"lng":135.601074},{"店舗名":"【和冷麺】虎徹 ー KOTETSU ー 門真店","住所":"〒571-0063 大阪府門真市常称寺町１５−９","ステータス":"APP_DISPLAY","region":"Kadoma","lat":34.744305,"lng":135.601074},{"店舗名":"Tacoo!! TOKYO【究極のタコライス】 門真店","住所":"〒571-0063 大阪府門真市常称寺町１５−９","ステータス":"APP_DISPLAY","region":"Kadoma","lat":34.744305,"lng":135.601074},{"店舗名":"からだ喜ぶ！東京カオマンガイ 門真店","住所":"〒571-0063 大阪府門真市常称寺町１５−９","ステータス":"APP_DISPLAY","region":"Kadoma","lat":34.744305,"lng":135.601074},{"店舗名":"やみつきガパオ食堂 門真店","住所":"〒571-0063 大阪府門真市常称寺町１５−９","ステータス":"APP_DISPLAY","region":"Kadoma","lat":34.744305,"lng":135.601074},{"店舗名":"東京チキンオーバーライス【Tokyo Chicken 】 門真店","住所":"〒571-0063 大阪府門真市常称寺町１５−９","ステータス":"RECEIPT","region":"Kadoma","lat":34.744305,"lng":135.601074},{"店舗名":"16穀米の美活カオマンガイ 門真店","住所":"〒571-0063 大阪府門真市常称寺町１５−９","ステータス":"APP_DISPLAY","region":"Kadoma","lat":34.744305,"lng":135.601074},{"店舗名":"【B級グルメ】今治の焼豚玉子飯 今治食堂 門真店","住所":"〒571-0063 大阪府門真市常称寺町１５−９","ステータス":"RECEIPT","region":"Kadoma","lat":34.744305,"lng":135.601074},{"店舗名":"魯肉食堂 (ルーローショクドウ) 門真店","住所":"〒571-0063 大阪府門真市常称寺町１５−９","ステータス":"APP_DISPLAY","region":"Kadoma","lat":34.744305,"lng":135.601074},{"店舗名":"炙り豚丼 香ばし屋 門真店","住所":"〒571-0063 大阪府門真市常称寺町１５−９","ステータス":"RECEIPT","region":"Kadoma","lat":34.744305,"lng":135.601074},{"店舗名":"クリスピーチキンアンドトマト 大和田店 CRISPY CHICKEN n' TOMATO OWADA","住所":"〒571-0063 大阪府門真市常称寺町１９−２５","ステータス":"APP_DISPLAY","region":"Kadoma","lat":34.743343,"lng":135.601974},{"店舗名":"油そば・まぜそば ロマン 大和田店","住所":"〒571-0063 大阪府門真市常称寺町１９−２５","ステータス":"APP_DISPLAY","region":"Kadoma","lat":34.743343,"lng":135.601974},{"店舗名":"菓匠将満","住所":"〒571-0066","ステータス":"APP_DISPLAY","region":"Kadoma","lat":34.741276,"lng":135.590332},{"店舗名":"やきとり味頂。","住所":"〒571-0066","ステータス":"APP_DISPLAY","region":"Kadoma","lat":34.741276,"lng":135.590332},{"店舗名":"奥のほそ道","住所":"〒571-0066","ステータス":"RECEIPT","region":"Kadoma","lat":34.741276,"lng":135.590332},{"店舗名":"Tamariba","住所":"〒571-0066","ステータス":"APP_DISPLAY","region":"Kadoma","lat":34.741276,"lng":135.590332},{"店舗名":"鶏焼肉かっちゃん","住所":"〒571-0066","ステータス":"RECEIPT","region":"Kadoma","lat":34.741276,"lng":135.590332},{"店舗名":"米粉クレープのお店 わらわら","住所":"〒571-0066 大阪府門真市幸福町１０−１３","ステータス":"APP_DISPLAY","region":"Kadoma","lat":34.741234,"lng":135.590302},{"店舗名":"李食堂","住所":"〒571-0066 大阪府門真市幸福町２０−１４","ステータス":"APP_DISPLAY","region":"Kadoma","lat":34.742214,"lng":135.589249},{"店舗名":"鳥政","住所":"〒571-0066 大阪府門真市幸福町２７−１１","ステータス":"RECEIPT","region":"Kadoma","lat":34.74242,"lng":135.592026},{"店舗名":"アサイーと、まいにち","住所":"〒571-0066 大阪府門真市幸福町古川橋エンビィハイツ 103","ステータス":"APP_DISPLAY","region":"Kadoma","lat":34.741276,"lng":135.590332},{"店舗名":"【アサイー&グリーク】THE BOWL　門真店","住所":"〒571-0067 大阪府門真市石原町３１−５","ステータス":"APP_DISPLAY","region":"Kadoma","lat":34.746632,"lng":135.591034},{"店舗名":"【二郎系ラーメン】田田田 デデデ 門真店","住所":"〒571-0067 大阪府門真市石原町３１−５","ステータス":"APP_DISPLAY","region":"Kadoma","lat":34.746632,"lng":135.591034},{"店舗名":"【二郎系・背徳めし】ニクとヤサイとコメ　門真店","住所":"〒571-0067 大阪府門真市石原町３１−５","ステータス":"APP_DISPLAY","region":"Kadoma","lat":34.746632,"lng":135.591034},{"店舗名":"【二郎系インスパイア】汁なし二郎！！ 　門真店","住所":"〒571-0067 大阪府門真市石原町３１−５","ステータス":"APP_DISPLAY","region":"Kadoma","lat":34.746632,"lng":135.591034},{"店舗名":"上海麻辣湯 門真店","住所":"〒571-0067 大阪府門真市石原町３１−５","ステータス":"APP_DISPLAY","region":"Kadoma","lat":34.746632,"lng":135.591034},{"店舗名":"究極のチャーシュー丼 豚太郎 門真店","住所":"〒571-0067 大阪府門真市石原町３１−５","ステータス":"APP_DISPLAY","region":"Kadoma","lat":34.746632,"lng":135.591034},{"店舗名":"至高の唐揚げ丼鳥まる　門真店","住所":"〒571-0067 大阪府門真市石原町３１−５","ステータス":"APP_DISPLAY","region":"Kadoma","lat":34.746632,"lng":135.591034},{"店舗名":"【本格麻辣×自家製春雨】白虎麻辣湯 門真石原店","住所":"〒571-0067 大阪府門真市石原町３１−５","ステータス":"RECEIPT","region":"Kadoma","lat":34.746632,"lng":135.591034},{"店舗名":"【もっちり玄米と低脂質チキン】とりげん食堂 門真石原店","住所":"〒571-0067 大阪府門真市石原町３１−５","ステータス":"RECEIPT","region":"Kadoma","lat":34.746632,"lng":135.591034},{"店舗名":"【出汁の旨みとたっぷり具材】雑炊の気分 門真石原店","住所":"〒571-0067 大阪府門真市石原町３１−５","ステータス":"RECEIPT","region":"Kadoma","lat":34.746632,"lng":135.591034},{"店舗名":"【3/4日分の野菜！ゴロゴロ野菜のごちそうスープ】ベジブロ 門真石原店","住所":"〒571-0067 大阪府門真市石原町３１−５","ステータス":"RECEIPT","region":"Kadoma","lat":34.746632,"lng":135.591034},{"店舗名":"【クリームたっぷり生ドーナツ】FuWaDonuts 門真石原店","住所":"〒571-0067 大阪府門真市石原町３１−５","ステータス":"RECEIPT","region":"Kadoma","lat":34.746632,"lng":135.591034},{"店舗名":"夜パフェZiZi 門真石原店","住所":"〒571-0067 大阪府門真市石原町３１−５","ステータス":"RECEIPT","region":"Kadoma","lat":34.746632,"lng":135.591034},{"店舗名":"【玄米×発酵×ねばとろ丼】ねばとろみのり 門真石原店","住所":"〒571-0067 大阪府門真市石原町３１−５","ステータス":"RECEIPT","region":"Kadoma","lat":34.746632,"lng":135.591034},{"店舗名":"究極のソーセージエッグ丼 門真石原店","住所":"〒571-0067 大阪府門真市石原町３１−５","ステータス":"RECEIPT","region":"Kadoma","lat":34.746632,"lng":135.591034},{"店舗名":"【参鶏湯と鶏雑炊】-鶏々- 門真石原店","住所":"〒571-0067 大阪府門真市石原町３１−５","ステータス":"RECEIPT","region":"Kadoma","lat":34.746632,"lng":135.591034},{"店舗名":"【とろじゅわフレンチトースト】CafeBonheur 門真石原店","住所":"〒571-0067 大阪府門真市石原町３１−５","ステータス":"RECEIPT","region":"Kadoma","lat":34.746632,"lng":135.591034},{"店舗名":"(宅配専門店)ゴーゴーカレー 門真石原店","住所":"〒571-0067 大阪府門真市石原町３１−５","ステータス":"APP_DISPLAY","region":"Kadoma","lat":34.746632,"lng":135.591034},{"店舗名":"まごころ食堂","住所":"〒571-0068 大阪府門真市大倉町","ステータス":"APP_DISPLAY","region":"Kadoma","lat":34.744854,"lng":135.593307},{"店舗名":"はなれ寺カフェ","住所":"〒571-0068 大阪府門真市大倉町２１−１８","ステータス":"APP_DISPLAY","region":"Kadoma","lat":34.746056,"lng":135.592575},{"店舗名":"Amour","住所":"〒571-0070","ステータス":"APP_DISPLAY","region":"Kadoma","lat":34.741116,"lng":135.607147},{"店舗名":"K-3","住所":"〒571-0070 大阪府門真市上野口町５４−２７","ステータス":"APP_DISPLAY","region":"Kadoma","lat":34.737961,"lng":135.605728},{"店舗名":"誓’s KITCHEN","住所":"〒571-0070 大阪府門真市上野口町５４−２７","ステータス":"RECEIPT","region":"Kadoma","lat":34.737961,"lng":135.605728},{"店舗名":"肉めしあらさこ門真店","住所":"〒571-0070 大阪府門真市上野口町５９−２０","ステータス":"APP_DISPLAY","region":"Kadoma","lat":34.736992,"lng":135.606125},{"店舗名":"秋田男鹿食堂 立飲み処 3号店","住所":"〒571-0071 大阪府門真市上島町１２−１","ステータス":"APP_DISPLAY","region":"Kadoma","lat":34.74321,"lng":135.61087},{"店舗名":"お好み焼き　焼きそば　鉄板焼　もず","住所":"〒571-0071 大阪府門真市上島町４５−１４","ステータス":"APP_DISPLAY","region":"Kadoma","lat":34.746647,"lng":135.610519},{"店舗名":"釈迦力　雄　門真店","住所":"〒571-0073 大阪府門真市北巣本町３１−１０","ステータス":"APP_DISPLAY","region":"Kadoma","lat":34.741142,"lng":135.618698},{"店舗名":"八嶋","住所":"〒571-0075 大阪府門真市下島町４−１","ステータス":"APP_DISPLAY","region":"Kadoma","lat":34.742107,"lng":135.611069},{"店舗名":"アイスるクレープGrow","住所":"〒571-0076","ステータス":"APP_DISPLAY","region":"Kadoma","lat":34.737263,"lng":135.602722},{"店舗名":"アイスるクレープ Grow","住所":"〒571-0076 大阪府門真市大池町","ステータス":"RECEIPT","region":"Kadoma","lat":34.737263,"lng":135.602722},{"店舗名":"母の味　アゲイン","住所":"〒571-0078","ステータス":"APP_DISPLAY","region":"Kadoma","lat":34.740757,"lng":135.59964},{"店舗名":"SaiBarnRestaurant","住所":"〒571-0079","ステータス":"RECEIPT","region":"Kadoma","lat":34.740837,"lng":135.603241},{"店舗名":"麺に始まり麺に終わる","住所":"〒571-0079","ステータス":"APP_DISPLAY","region":"Kadoma","lat":34.740837,"lng":135.603241},{"店舗名":"Sai Bar n Restaurant","住所":"〒571-0079 大阪府門真市野里町","ステータス":"RECEIPT","region":"Kadoma","lat":34.740837,"lng":135.603241},{"店舗名":"PASHUPATI NEPALI MART","住所":"〒571-0079 大阪府門真市野里町","ステータス":"APP_DISPLAY","region":"Kadoma","lat":34.740837,"lng":135.603241},{"店舗名":"インドネパール料理さくら野里店","住所":"〒571-0079 大阪府門真市野里町１１-３","ステータス":"RECEIPT","region":"Kadoma","lat":34.742172,"lng":135.604172},{"店舗名":"鮨 よし田 大和田店","住所":"〒571-0079 大阪府門真市野里町１−２９","ステータス":"APP_DISPLAY","region":"Kadoma","lat":34.742668,"lng":135.603058},{"店舗名":"鮨 おくうら 大和田店","住所":"〒571-0079 大阪府門真市野里町１−２９ エル大和田 1階","ステータス":"APP_DISPLAY","region":"Kadoma","lat":34.742668,"lng":135.603058},{"店舗名":"まぐろ丼と海鮮丼 近衛 大和田店","住所":"〒571-0079 大阪府門真市野里町１−２９ エル大和田 1階","ステータス":"APP_DISPLAY","region":"Kadoma","lat":34.742668,"lng":135.603058},{"店舗名":"大盛海鮮天丼マウンテン 大和田店","住所":"〒571-0079 大阪府門真市野里町１−２９ エル大和田 1階","ステータス":"APP_DISPLAY","region":"Kadoma","lat":34.742668,"lng":135.603058},{"店舗名":"鮨 酒 肴 杉玉 大和田店","住所":"〒571-0079 大阪府門真市野里町１−２９ エル大和田 1階","ステータス":"APP_DISPLAY","region":"Kadoma","lat":34.742668,"lng":135.603058},{"店舗名":"居酒屋Galva","住所":"〒571-0079 大阪府門真市野里町１５−１７","ステータス":"APP_DISPLAY","region":"Kadoma","lat":34.740776,"lng":135.602509},{"店舗名":"居酒屋 Galva","住所":"〒571-0079 大阪府門真市野里町１５−１７","ステータス":"RECEIPT","region":"Kadoma","lat":34.740776,"lng":135.602509},{"店舗名":"PASHUPATI","住所":"〒571-0079 大阪府門真市野里町１６−６","ステータス":"APP_DISPLAY","region":"Kadoma","lat":34.741524,"lng":135.602005},{"店舗名":"焼肉あげまん","住所":"〒571-0079 大阪府門真市野里町１６−６","ステータス":"APP_DISPLAY","region":"Kadoma","lat":34.741524,"lng":135.602005},{"店舗名":"Sai Bar n Restaurant","住所":"〒571-0079 大阪府門真市野里町21-3","ステータス":"APP_DISPLAY","region":"Kadoma","lat":34.740982,"lng":135.602951},{"店舗名":"PASHUPATI NEPALI MART&RESTAURANT","住所":"〒571-0079 大阪府門真市野里町２１−３","ステータス":"RECEIPT","region":"Kadoma","lat":34.740982,"lng":135.602951},{"店舗名":"じゃんぼ総本店 大和田店","住所":"〒571-0079 大阪府門真市野里町９−１８","ステータス":"APP_DISPLAY","region":"Kadoma","lat":34.741669,"lng":135.602814},{"店舗名":"トスカーニパスタ 門真大和田店","住所":"〒571-0079 大阪府門真市野里町９−２５","ステータス":"APP_DISPLAY","region":"Kadoma","lat":34.741585,"lng":135.602112},{"店舗名":"チキン・ウイングストリート 門真大和田店","住所":"〒571-0079 大阪府門真市野里町９−２５","ステータス":"APP_DISPLAY","region":"Kadoma","lat":34.741585,"lng":135.602112},{"店舗名":"ピザハット 門真大和田店","住所":"〒571-0079 大阪府門真市野里町９−２５ グランドハイツ １Ｆ","ステータス":"APP_DISPLAY","region":"Kadoma","lat":34.741585,"lng":135.602112},{"店舗名":"ほっかほっか亭 門真江端店","住所":"大阪府門真市東江端町11番1号","ステータス":"APP_DISPLAY","region":"Kadoma","lat":34.72163,"lng":135.618744},{"店舗名":"ほっかほっか亭 門真北島東店","住所":"大阪府門真市北島東町5-2","ステータス":"APP_DISPLAY","region":"Kadoma","lat":34.726311,"lng":135.604706},{"店舗名":"ほっかほっか亭 大和田店","住所":"大阪府門真市常盤町6-13","ステータス":"APP_DISPLAY","region":"Kadoma","lat":34.741768,"lng":135.601303},{"店舗名":"ほっかほっか亭 門真城垣店","住所":"大阪府門真市城垣町2-25　レジデンス赤井","ステータス":"APP_DISPLAY","region":"Kadoma","lat":34.741554,"lng":135.614365},{"店舗名":"ほっかほっか亭 門真市駅前店","住所":"大阪府門真市新橋町12-22","ステータス":"APP_DISPLAY","region":"Kadoma","lat":34.736763,"lng":135.584244}]