[{"店舗名":"(宅配専門店)ゴーゴーカレー 大治店","住所":"〒490-1134 愛知県海部郡大治町東條砂島９","ステータス":"APP_DISPLAY","region":"Kaifu District","lat":35.172077,"lng":136.826584},{"店舗名":"中華食彩　錦琳","住所":"〒490-1137 愛知県海部郡大治町堀之内大堀１９５−２","ステータス":"RECEIPT","region":"Kaifu District","lat":35.172371,"lng":136.823486},{"店舗名":"中華食彩 錦琳","住所":"〒490-1137 愛知県海部郡大治町堀之内大堀１９５−２","ステータス":"RECEIPT","region":"Kaifu District","lat":35.172371,"lng":136.823486},{"店舗名":"心音","住所":"〒490-1141 愛知県海部郡大治町馬島西深田５３","ステータス":"RECEIPT","region":"Kaifu District","lat":35.171654,"lng":136.818771},{"店舗名":"鉄板ハンバーグDiningニシエヒガシエ","住所":"〒490-1142 愛知県海部郡大治町三本木屋形２０３","ステータス":"RECEIPT","region":"Kaifu District","lat":35.168674,"lng":136.821259},{"店舗名":"ベトナム料理 NHẬU HÀ THÀNH ハータイン","住所":"〒497-0054 愛知県海部郡蟹江町錦２丁目","ステータス":"RECEIPT","region":"Kaifu District","lat":35.135715,"lng":136.778885},{"店舗名":"かつや 愛知蟹江店","住所":"〒497-0055 愛知県海部郡蟹江町源氏4-19","ステータス":"PENDING","region":"Kaifu District","lat":35.133698,"lng":136.781326},{"店舗名":"インドカレーTULSI","住所":"〒497-0055 愛知県海部郡蟹江町源氏４丁目","ステータス":"RECEIPT","region":"Kaifu District","lat":35.132835,"lng":136.781357},{"店舗名":"タイ料理 パンナラーイ","住所":"〒497-0058","ステータス":"RECEIPT","region":"Kaifu District","lat":35.124573,"lng":136.766327},{"店舗名":"豚ラーメン サブロー","住所":"〒497-0058 愛知県海部郡蟹江町富吉4丁目126","ステータス":"RECEIPT","region":"Kaifu District","lat":35.122383,"lng":136.77002},{"店舗名":"二郎系めし 肉ベジ　蟹江店","住所":"〒497-0058 愛知県海部郡蟹江町富吉４丁目１２６","ステータス":"RECEIPT","region":"Kaifu District","lat":35.122383,"lng":136.77002},{"店舗名":"二郎系ラーメン 麺バカ一代　蟹江店","住所":"〒497-0058愛知県海部郡蟹江町富吉４丁目１２６","ステータス":"RECEIPT","region":"Kaifu District","lat":35.122383,"lng":136.77002}]