[{"店舗名":"いないいないBAR","住所":"〒597-0001","ステータス":"APP_DISPLAY","region":"Kaizuka","lat":34.446381,"lng":135.356308},{"店舗名":"いないいないBAR","住所":"〒597-0001","ステータス":"RECEIPT","region":"Kaizuka","lat":34.446381,"lng":135.356308},{"店舗名":"インド・ネパール料理ルンビニINDIANNEPALIRESTAURANTLUMBINI","住所":"〒597-0001 大阪府貝塚市近木町７−１４","ステータス":"APP_DISPLAY","region":"Kaizuka","lat":34.44603,"lng":135.356827},{"店舗名":"沖縄食堂 はえばる屋","住所":"〒597-0011 大阪府貝塚市北町２０−９","ステータス":"APP_DISPLAY","region":"Kaizuka","lat":34.44989,"lng":135.356918},{"店舗名":"COFFEE ROASTER OGAWA-YA","住所":"〒597-0014 大阪府貝塚市津田南町１７−７","ステータス":"APP_DISPLAY","region":"Kaizuka","lat":34.453392,"lng":135.359879},{"店舗名":"かっぱ寿司 貝塚店","住所":"〒597-0021 大阪府貝塚市小瀬","ステータス":"APP_DISPLAY","region":"Kaizuka","lat":34.450615,"lng":135.368576},{"店舗名":"タコス&タコライス てぃーだ","住所":"〒597-0021 大阪府貝塚市小瀬１丁目６−２１","ステータス":"APP_DISPLAY","region":"Kaizuka","lat":34.448902,"lng":135.367172},{"店舗名":"ラーメン男塾 貝塚小瀬店","住所":"〒597-0021 大阪府貝塚市小瀬３７０−６","ステータス":"APP_DISPLAY","region":"Kaizuka","lat":34.449024,"lng":135.372574},{"店舗名":"大阪ふくちぁんラーメン　貝塚店","住所":"〒597-0023 大阪府貝塚市福田１１２−１","ステータス":"APP_DISPLAY","region":"Kaizuka","lat":34.442711,"lng":135.365997},{"店舗名":"ラーメンまこと屋貝塚店","住所":"〒597-0031 大阪府貝塚市永吉１丁目66−１","ステータス":"APP_DISPLAY","region":"Kaizuka","lat":34.449703,"lng":135.37471},{"店舗名":"KOKOLEKA","住所":"〒597-0033","ステータス":"APP_DISPLAY","region":"Kaizuka","lat":34.440166,"lng":135.372711},{"店舗名":"TOY","住所":"〒597-0033  大阪府貝塚市半田３丁目１−４","ステータス":"APP_DISPLAY","region":"Kaizuka","lat":34.440708,"lng":135.370041},{"店舗名":"きびじゅにあ","住所":"〒597-0042","ステータス":"RECEIPT","region":"Kaizuka","lat":34.419247,"lng":135.376404},{"店舗名":"Bar@home","住所":"〒597-0043 大阪府貝塚市橋本３０５−２","ステータス":"APP_DISPLAY","region":"Kaizuka","lat":34.423397,"lng":135.363037},{"店舗名":"焼肉　ふじ","住所":"〒597-0043 大阪府貝塚市橋本５４","ステータス":"APP_DISPLAY","region":"Kaizuka","lat":34.42712,"lng":135.35936},{"店舗名":"mamecafé","住所":"〒597-0046","ステータス":"APP_DISPLAY","region":"Kaizuka","lat":34.416607,"lng":135.387665},{"店舗名":"トスカーニパスタ 貝塚店","住所":"〒597-0051 大阪府貝塚市王子５０８−１","ステータス":"APP_DISPLAY","region":"Kaizuka","lat":34.425766,"lng":135.35231},{"店舗名":"チキン・ウイングストリート 貝塚店","住所":"〒597-0051 大阪府貝塚市王子５０８−１","ステータス":"APP_DISPLAY","region":"Kaizuka","lat":34.425766,"lng":135.35231},{"店舗名":"ピザハット 貝塚店","住所":"〒597-0051 大阪府貝塚市王子５０８−１ 共立マンション貝塚第一１０１","ステータス":"APP_DISPLAY","region":"Kaizuka","lat":34.425766,"lng":135.35231},{"店舗名":"吉野家 臨海二色の浜店","住所":"〒597-0062 大阪府貝塚市澤８７７−１","ステータス":"APP_DISPLAY","region":"Kaizuka","lat":34.436722,"lng":135.338593},{"店舗名":"MIGHTY","住所":"〒597-0071 大阪府貝塚市加神１丁目４−２６","ステータス":"RECEIPT","region":"Kaizuka","lat":34.441643,"lng":135.355148},{"店舗名":"黒風","住所":"〒597-0073 大阪府貝塚市脇浜1丁目9-5","ステータス":"APP_DISPLAY","region":"Kaizuka","lat":34.442192,"lng":135.351196},{"店舗名":"Haleiwa Cafe","住所":"〒597-0082 大阪府貝塚市石才１５９−１","ステータス":"APP_DISPLAY","region":"Kaizuka","lat":34.435402,"lng":135.360367},{"店舗名":"吉野家 26号線貝塚店","住所":"〒597-0082 大阪府貝塚市石才２２９−１","ステータス":"APP_DISPLAY","region":"Kaizuka","lat":34.434746,"lng":135.359451},{"店舗名":"karaoke&shotbar Newt","住所":"〒597-0083 大阪府貝塚市海塚１丁目-４-２０","ステータス":"RECEIPT","region":"Kaizuka","lat":34.446362,"lng":135.35939},{"店舗名":"びー玉","住所":"〒597-0083 大阪府貝塚市海塚１丁目４−２０","ステータス":"APP_DISPLAY","region":"Kaizuka","lat":34.446362,"lng":135.35939},{"店舗名":"dining bar 国境","住所":"〒597-0105 大阪府貝塚市三ツ松４８９−１","ステータス":"APP_DISPLAY","region":"Kaizuka","lat":34.411339,"lng":135.384003},{"店舗名":"ほっかほっか亭 貝塚市役所前店","住所":"大阪府貝塚市加神1-7-1","ステータス":"APP_DISPLAY","region":"Kaizuka","lat":34.440605,"lng":135.355957}]