[{"店舗名":"ラフィネ","住所":"〒576-0013 大阪府交野市南星台１丁目１８−１２","ステータス":"APP_DISPLAY","region":"Katano","lat":34.760849,"lng":135.672516},{"店舗名":"丸鶏家","住所":"〒576-0016","ステータス":"APP_DISPLAY","region":"Katano","lat":34.768608,"lng":135.669647},{"店舗名":"ソレイユカフェ&星田ワッフル","住所":"〒576-0016","ステータス":"APP_DISPLAY","region":"Katano","lat":34.768608,"lng":135.669647},{"店舗名":"パティスリー　ウグイスヤ","住所":"〒576-0022","ステータス":"APP_DISPLAY","region":"Katano","lat":34.772095,"lng":135.676407},{"店舗名":"居酒屋 湊","住所":"〒576-0031 大阪府交野市森南１丁目５−４","ステータス":"APP_DISPLAY","region":"Katano","lat":34.77647,"lng":135.68515},{"店舗名":"CURRY＆TACOS lulico","住所":"〒576-0033","ステータス":"APP_DISPLAY","region":"Katano","lat":34.77253,"lng":135.688477},{"店舗名":"ハーブとガレット","住所":"〒576-0041 大阪府交野市私部西２丁目１７−１ エスポワール交野","ステータス":"APP_DISPLAY","region":"Katano","lat":34.783764,"lng":135.675186},{"店舗名":"ほっかほっか亭 幾野店","住所":"〒576-0051 大阪府交野市倉治３丁目５−８","ステータス":"APP_DISPLAY","region":"Katano","lat":34.793781,"lng":135.685043},{"店舗名":"中華料理　美香飯店","住所":"〒576-0052","ステータス":"RECEIPT","region":"Katano","lat":34.786476,"lng":135.682892},{"店舗名":"宇宙図書館knock knock","住所":"〒576-0052 大阪府交野市私部２丁目１２−１１","ステータス":"APP_DISPLAY","region":"Katano","lat":34.786312,"lng":135.677017},{"店舗名":"中華料理 美香飯店","住所":"〒576-0052 大阪府交野市私部３丁目１５−９","ステータス":"APP_DISPLAY","region":"Katano","lat":34.787819,"lng":135.675583},{"店舗名":"串カツ結々","住所":"〒576-0052 大阪府交野市私部５丁目２６−１１","ステータス":"APP_DISPLAY","region":"Katano","lat":34.791401,"lng":135.684845},{"店舗名":"エスカフェ","住所":"〒576-0052 大阪府交野市私部６丁目３５−２","ステータス":"APP_DISPLAY","region":"Katano","lat":34.791595,"lng":135.682739},{"店舗名":"はれらに食堂 カフェ＆レストランバー","住所":"〒576-0053","ステータス":"APP_DISPLAY","region":"Katano","lat":34.79282,"lng":135.676636},{"店舗名":"カフェダイニングN＆R","住所":"〒576-0053","ステータス":"APP_DISPLAY","region":"Katano","lat":34.79282,"lng":135.676636},{"店舗名":"インド・ネパール料理 ISHWAR","住所":"〒576-0054 大阪府交野市幾野６丁目２５−１０","ステータス":"APP_DISPLAY","region":"Katano","lat":34.800594,"lng":135.677719},{"店舗名":"インド料理 キラン","住所":"〒576-0065 大阪府交野市向井田３丁目１００−１","ステータス":"RECEIPT","region":"Katano","lat":34.783936,"lng":135.690796},{"店舗名":"ほっかほっか亭 星田店","住所":"大阪府交野市星田5-29-5","ステータス":"APP_DISPLAY","region":"Katano","lat":34.763805,"lng":135.661713}]