[{"店舗名":"そうめん専門　甚-JIN- 葛飾２号店","住所":"〒120-0002 東京都葛飾区亀有３丁目４９−３","ステータス":"APP_DISPLAY","region":"Katsushika","lat":35.764343,"lng":139.852539},{"店舗名":"リンガーハット アリオ亀有店","住所":"〒120-0002 東京都葛飾区亀有３丁目４９−３","ステータス":"APP_DISPLAY","region":"Katsushika","lat":35.764343,"lng":139.852539},{"店舗名":"サーティワンアイスクリーム アリオ亀有店","住所":"〒120-0002 東京都葛飾区亀有３丁目４９−３","ステータス":"APP_DISPLAY","region":"Katsushika","lat":35.764343,"lng":139.852539},{"店舗名":"栄光軒","住所":"〒120-0003東京都葛飾区龟有五丁目47番4号","ステータス":"APP_DISPLAY","region":"Katsushika","lat":35.743332,"lng":139.847229},{"店舗名":"もつ焼　のんき　あやせ店","住所":"〒124-0001","ステータス":"APP_DISPLAY","region":"Katsushika","lat":35.75423,"lng":139.817108},{"店舗名":"The cook house","住所":"〒124-0001 東京都葛飾区小菅２丁目２３−２３ 染谷ビル","ステータス":"APP_DISPLAY","region":"Katsushika","lat":35.751354,"lng":139.827606},{"店舗名":"PIZZA　OTTO","住所":"〒124-0001 東京都葛飾区小菅３丁目１１−７","ステータス":"APP_DISPLAY","region":"Katsushika","lat":35.756126,"lng":139.825958},{"店舗名":"〈ごはん特盛まで無料〉デミグラスハンバーグの店 デミたま 小菅3丁目店","住所":"〒124-0001 東京都葛飾区小菅３丁目１９−１９","ステータス":"APP_DISPLAY","region":"Katsushika","lat":35.756088,"lng":139.827911},{"店舗名":"北海道らーめん ひむろ 綾瀬店","住所":"〒124-0001 東京都葛飾区小菅４丁目１０−１","ステータス":"APP_DISPLAY","region":"Katsushika","lat":35.761757,"lng":139.824265},{"店舗名":"すき家 綾瀬駅南店","住所":"〒124-0001 東京都葛飾区小菅４丁目１０−２","ステータス":"PENDING","region":"Katsushika","lat":35.761848,"lng":139.824326},{"店舗名":"カフェ・ベローチェ 綾瀬店","住所":"〒124-0001 東京都葛飾区小菅４丁目１１−８ ハイコーポ綾瀬","ステータス":"APP_DISPLAY","region":"Katsushika","lat":35.762054,"lng":139.826141},{"店舗名":"焼き魚とチャーハン。とらい","住所":"〒124-0001 東京都葛飾区小菅４丁目１２−４","ステータス":"APP_DISPLAY","region":"Katsushika","lat":35.762104,"lng":139.826736},{"店舗名":"とらい食堂","住所":"〒124-0001 東京都葛飾区小菅４丁目１２−４ エクセル荒木","ステータス":"APP_DISPLAY","region":"Katsushika","lat":35.762104,"lng":139.826736},{"店舗名":"サムンドラ","住所":"〒124-0001 東京都葛飾区小菅４丁目１４−９","ステータス":"APP_DISPLAY","region":"Katsushika","lat":35.760925,"lng":139.825867},{"店舗名":"Devi Restaurant & Bar(インドとネパール料理)","住所":"〒124-0001 東京都葛飾区小菅４丁目２０−２２","ステータス":"APP_DISPLAY","region":"Katsushika","lat":35.757481,"lng":139.82576},{"店舗名":"極太重厚ブリト― 小菅店","住所":"〒124-0001 東京都葛飾区小菅４丁目２０−２２","ステータス":"APP_DISPLAY","region":"Katsushika","lat":35.757481,"lng":139.82576},{"店舗名":"「のんでみ？コレー杯」あなたの体調管理 小菅店","住所":"〒124-0001 東京都葛飾区小菅４丁目２０−２２","ステータス":"APP_DISPLAY","region":"Katsushika","lat":35.757481,"lng":139.82576},{"店舗名":"油そば 豚魂 小菅店","住所":"〒124-0001 東京都葛飾区小菅４丁目２０−２２","ステータス":"APP_DISPLAY","region":"Katsushika","lat":35.757481,"lng":139.82576},{"店舗名":"【本場沖縄のタコライス】THE TACORICE HOUSE 小菅店","住所":"〒124-0001 東京都葛飾区小菅４丁目２０−２２","ステータス":"APP_DISPLAY","region":"Katsushika","lat":35.757481,"lng":139.82576},{"店舗名":"Devi Restaurant & Bar(インドとネパール料理)","住所":"〒124-0001 東京都葛飾区小菅４丁目２０−２２ 吉田荘","ステータス":"APP_DISPLAY","region":"Katsushika","lat":35.757481,"lng":139.82576},{"店舗名":"丸武商店","住所":"〒124-0001 東京都葛飾区小菅４丁目２１−９","ステータス":"APP_DISPLAY","region":"Katsushika","lat":35.757381,"lng":139.825867},{"店舗名":"茶之恋 台湾タピオカ匠カステラ","住所":"〒124-0001 東京都葛飾区小菅４丁目３−１５","ステータス":"APP_DISPLAY","region":"Katsushika","lat":35.758121,"lng":139.8246},{"店舗名":"カフェ＆レストラン シルビア綾瀬店 Cafe & Restaurant Silvia Ayase","住所":"〒124-0001 東京都葛飾区小菅４丁目９−９ 松岡ビル","ステータス":"APP_DISPLAY","region":"Katsushika","lat":35.761463,"lng":139.825256},{"店舗名":"【本場沖縄のタコライス】THE TACORICE HOUSE 小菅店","住所":"〒124-0001東京都葛飾区小菅4-20-22","ステータス":"APP_DISPLAY","region":"Katsushika","lat":35.757481,"lng":139.82576},{"店舗名":"Petit Bonheur","住所":"〒124-0003 東京都葛飾区お花茶屋１丁目","ステータス":"APP_DISPLAY","region":"Katsushika","lat":35.748901,"lng":139.839142},{"店舗名":"ひまわり お花茶屋店 HIMAWARI OHANAJAYA","住所":"〒124-0003 東京都葛飾区お花茶屋１丁目１２−１０","ステータス":"APP_DISPLAY","region":"Katsushika","lat":35.749874,"lng":139.839783},{"店舗名":"MATILDA","住所":"〒124-0003 東京都葛飾区お花茶屋１丁目１２−１３ ララ・フルール","ステータス":"APP_DISPLAY","region":"Katsushika","lat":35.749748,"lng":139.839523},{"店舗名":"つけ麺中華そば 燦","住所":"〒124-0003 東京都葛飾区お花茶屋１丁目１２−８","ステータス":"APP_DISPLAY","region":"Katsushika","lat":35.750145,"lng":139.839813},{"店舗名":"インドバングラデシュ料理チュイジャル","住所":"〒124-0003 東京都葛飾区お花茶屋１丁目１３−８ 久松寿し","ステータス":"APP_DISPLAY","region":"Katsushika","lat":35.749657,"lng":139.839615},{"店舗名":"タンタンメン金家 お花茶屋店","住所":"〒124-0003 東京都葛飾区お花茶屋１丁目１５−９","ステータス":"APP_DISPLAY","region":"Katsushika","lat":35.748871,"lng":139.839661},{"店舗名":"らあめん花月嵐　お花茶屋店","住所":"〒124-0003 東京都葛飾区お花茶屋１丁目１６−１０","ステータス":"APP_DISPLAY","region":"Katsushika","lat":35.748581,"lng":139.839645},{"店舗名":"焼き鳥居酒屋ブルームーン","住所":"〒124-0003 東京都葛飾区お花茶屋１丁目１７－１３","ステータス":"APP_DISPLAY","region":"Katsushika","lat":35.748127,"lng":139.839355},{"店舗名":"端木麺莊(手打ちビャンビャン麺)","住所":"〒124-0003 東京都葛飾区お花茶屋１丁目１８−３","ステータス":"APP_DISPLAY","region":"Katsushika","lat":35.748142,"lng":139.838608},{"店舗名":"ちよだ鮨 お花茶屋店","住所":"〒124-0003 東京都葛飾区お花茶屋１丁目１９−１","ステータス":"APP_DISPLAY","region":"Katsushika","lat":35.747913,"lng":139.839676},{"店舗名":"とんかつの和吉 お花茶屋駅前店","住所":"〒124-0003 東京都葛飾区お花茶屋１丁目１９−１","ステータス":"APP_DISPLAY","region":"Katsushika","lat":35.747913,"lng":139.839676},{"店舗名":"大衆鰻 うな銀 お花茶屋駅前店","住所":"〒124-0003 東京都葛飾区お花茶屋１丁目１９−１","ステータス":"APP_DISPLAY","region":"Katsushika","lat":35.747913,"lng":139.839676},{"店舗名":"カミナリステーキ お花茶屋駅前店","住所":"〒124-0003 東京都葛飾区お花茶屋１丁目１９−１","ステータス":"APP_DISPLAY","region":"Katsushika","lat":35.747913,"lng":139.839676},{"店舗名":"目利きの銀次 お花茶屋駅前店","住所":"〒124-0003 東京都葛飾区お花茶屋１丁目１９−１","ステータス":"APP_DISPLAY","region":"Katsushika","lat":35.747913,"lng":139.839676},{"店舗名":"ワインバルohanaテラス","住所":"〒124-0003 東京都葛飾区お花茶屋１丁目１９−８","ステータス":"APP_DISPLAY","region":"Katsushika","lat":35.748283,"lng":139.840317},{"店舗名":"赤家 お花茶屋店","住所":"〒124-0003 東京都葛飾区お花茶屋１丁目２０−１２","ステータス":"APP_DISPLAY","region":"Katsushika","lat":35.747654,"lng":139.840881},{"店舗名":"麺屋つる mennyaturu","住所":"〒124-0003 東京都葛飾区お花茶屋１丁目２０−１３","ステータス":"APP_DISPLAY","region":"Katsushika","lat":35.747551,"lng":139.840851},{"店舗名":"インドネパールレストランナマステお花茶屋店","住所":"〒124-0003 東京都葛飾区お花茶屋１丁目２０−２","ステータス":"APP_DISPLAY","region":"Katsushika","lat":35.747719,"lng":139.840698},{"店舗名":"タイエバケバブショップ","住所":"〒124-0003 東京都葛飾区お花茶屋１丁目２３−２ 高橋ビル 1f","ステータス":"APP_DISPLAY","region":"Katsushika","lat":35.748581,"lng":139.839752},{"店舗名":"ポテマル食堂（ハンバーグ&洋食）","住所":"〒124-0003 東京都葛飾区お花茶屋１丁目２６−２","ステータス":"APP_DISPLAY","region":"Katsushika","lat":35.749519,"lng":139.839844},{"店舗名":"ナワブ お花茶屋店","住所":"〒124-0003 東京都葛飾区お花茶屋１丁目６−９ 浅間コーポ","ステータス":"APP_DISPLAY","region":"Katsushika","lat":35.748734,"lng":139.838455},{"店舗名":"からあげ金星 お花茶屋店","住所":"〒124-0003 東京都葛飾区お花茶屋２丁目１５−２","ステータス":"APP_DISPLAY","region":"Katsushika","lat":35.751156,"lng":139.840012},{"店舗名":"バーガーキンボシお花茶屋店","住所":"〒124-0003 東京都葛飾区お花茶屋２丁目１５−２","ステータス":"APP_DISPLAY","region":"Katsushika","lat":35.751156,"lng":139.840012},{"店舗名":"Café Dining 翔","住所":"〒124-0003 東京都葛飾区お花茶屋２丁目１５−５","ステータス":"RECEIPT","region":"Katsushika","lat":35.751553,"lng":139.840057},{"店舗名":"永慶豊 台湾料理","住所":"〒124-0003 東京都葛飾区お花茶屋２丁目４−１８","ステータス":"APP_DISPLAY","region":"Katsushika","lat":35.751808,"lng":139.839981},{"店舗名":"つきじ海賓 葛飾お花茶屋","住所":"〒124-0003 東京都葛飾区お花茶屋３丁目２６−１３","ステータス":"APP_DISPLAY","region":"Katsushika","lat":35.753468,"lng":139.842529},{"店舗名":"丼ぶり 天晴 葛飾お花茶屋","住所":"〒124-0003 東京都葛飾区お花茶屋３丁目２６−１３","ステータス":"APP_DISPLAY","region":"Katsushika","lat":35.753468,"lng":139.842529},{"店舗名":"おすし日和 葛飾お花茶屋","住所":"〒124-0003 東京都葛飾区お花茶屋３丁目２６−１３","ステータス":"APP_DISPLAY","region":"Katsushika","lat":35.753468,"lng":139.842529},{"店舗名":"ななつぼし葛飾お花茶屋店","住所":"〒124-0003 東京都葛飾区お花茶屋３丁目２６−１３","ステータス":"APP_DISPLAY","region":"Katsushika","lat":35.753468,"lng":139.842529},{"店舗名":"YUMEN葛飾お花茶屋店","住所":"〒124-0003 東京都葛飾区お花茶屋３丁目２６−１３","ステータス":"APP_DISPLAY","region":"Katsushika","lat":35.753468,"lng":139.842529},{"店舗名":"まつ乃葛飾お花茶屋店","住所":"〒124-0003 東京都葛飾区お花茶屋３丁目２６−１３","ステータス":"APP_DISPLAY","region":"Katsushika","lat":35.753468,"lng":139.842529},{"店舗名":"こだわりとんかつ 神楽 葛飾お花茶屋","住所":"〒124-0003 東京都葛飾区お花茶屋３丁目２６−１３","ステータス":"APP_DISPLAY","region":"Katsushika","lat":35.753468,"lng":139.842529},{"店舗名":"海のみち葛飾お花茶屋店","住所":"〒124-0003 東京都葛飾区お花茶屋３丁目２６−１３","ステータス":"APP_DISPLAY","region":"Katsushika","lat":35.753468,"lng":139.842529},{"店舗名":"てるてるBouzu","住所":"〒124-0004 東京都葛飾区東堀切３丁目２３−１５","ステータス":"APP_DISPLAY","region":"Katsushika","lat":35.75584,"lng":139.839081},{"店舗名":"カトリモモハウス","住所":"〒124-0004 東京都葛飾区東堀切一丁目２２ー９","ステータス":"APP_DISPLAY","region":"Katsushika","lat":35.748642,"lng":139.836639},{"店舗名":"アジアンカレー&ビリヤニハウス","住所":"〒124-0005 東京都葛飾区宝町２丁目３１−１１","ステータス":"APP_DISPLAY","region":"Katsushika","lat":35.745617,"lng":139.839813},{"店舗名":"ヒマラヤンインドネパールレストラン","住所":"〒124-0005 東京都葛飾区宝町２丁目３１−６","ステータス":"APP_DISPLAY","region":"Katsushika","lat":35.745884,"lng":139.83934},{"店舗名":"小木屋餃子 お花茶屋店","住所":"〒124-0005 東京都葛飾区宝町２丁目３４−２８","ステータス":"APP_DISPLAY","region":"Katsushika","lat":35.745869,"lng":139.839783},{"店舗名":"ベトナム料理カキフォートルク•アン","住所":"〒124-0005 東京都葛飾区宝町２丁目３６−１４","ステータス":"APP_DISPLAY","region":"Katsushika","lat":35.747242,"lng":139.840363},{"店舗名":"【米粉シフォンケーキ専門店】Riz wacca","住所":"〒124-0006 東京都葛飾区堀切２－３５－６","ステータス":"APP_DISPLAY","region":"Katsushika","lat":35.745872,"lng":139.826431},{"店舗名":"RAHA BIRYANI & KEBAB HOUSE","住所":"〒124-0006 東京都葛飾区堀切３丁目１−４","ステータス":"APP_DISPLAY","region":"Katsushika","lat":35.746166,"lng":139.826263},{"店舗名":"アーニング富束","住所":"〒124-0006 東京都葛飾区堀切３丁目２３−１４","ステータス":"RECEIPT","region":"Katsushika","lat":35.746433,"lng":139.832779},{"店舗名":"なかどや","住所":"〒124-0006 東京都葛飾区堀切３丁目２６−１","ステータス":"APP_DISPLAY","region":"Katsushika","lat":35.744545,"lng":139.832108},{"店舗名":"ピザハット 堀切店","住所":"〒124-0006 東京都葛飾区堀切３丁目２６−７","ステータス":"APP_DISPLAY","region":"Katsushika","lat":35.745174,"lng":139.831665},{"店舗名":"チキン・ウイングストリート 堀切店","住所":"〒124-0006 東京都葛飾区堀切３丁目２６−７","ステータス":"APP_DISPLAY","region":"Katsushika","lat":35.745174,"lng":139.831665},{"店舗名":"トスカーニパスタ 堀切店","住所":"〒124-0006 東京都葛飾区堀切３丁目２６−７","ステータス":"APP_DISPLAY","region":"Katsushika","lat":35.745174,"lng":139.831665},{"店舗名":"炭火焼き和牛焼き肉にくまるホルモン館","住所":"〒124-0006 東京都葛飾区堀切３丁目６−５","ステータス":"APP_DISPLAY","region":"Katsushika","lat":35.747311,"lng":139.827606},{"店舗名":"独一処餃子 堀切","住所":"〒124-0006 東京都葛飾区堀切３丁目７−１７","ステータス":"APP_DISPLAY","region":"Katsushika","lat":35.746887,"lng":139.826874},{"店舗名":"ちよだ鮨 堀切菖蒲園店","住所":"〒124-0006 東京都葛飾区堀切３丁目７−６ 花兼ビル","ステータス":"APP_DISPLAY","region":"Katsushika","lat":35.747505,"lng":139.827209},{"店舗名":"ベトナム料理 フォーおいしい 堀切店","住所":"〒124-0006 東京都葛飾区堀切３丁目７−９","ステータス":"APP_DISPLAY","region":"Katsushika","lat":35.747555,"lng":139.827637},{"店舗名":"自転車と紅茶のおみせ ゆいの壁","住所":"〒124-0006 東京都葛飾区堀切３丁目９−７","ステータス":"APP_DISPLAY","region":"Katsushika","lat":35.747566,"lng":139.828827},{"店舗名":"うのや","住所":"〒124-0006 東京都葛飾区堀切４丁目１２−１０","ステータス":"APP_DISPLAY","region":"Katsushika","lat":35.747284,"lng":139.826019},{"店舗名":"UTTScafe","住所":"〒124-0006 東京都葛飾区堀切４丁目１２−９","ステータス":"APP_DISPLAY","region":"Katsushika","lat":35.747345,"lng":139.825882},{"店舗名":"インドレストラン&バーガネーシャ","住所":"〒124-0006 東京都葛飾区堀切４丁目５２−４","ステータス":"APP_DISPLAY","region":"Katsushika","lat":35.747959,"lng":139.826584},{"店舗名":"焼豚ラーメン 三條 葛飾店","住所":"〒124-0006 東京都葛飾区堀切４丁目５７−１４","ステータス":"APP_DISPLAY","region":"Katsushika","lat":35.74844,"lng":139.827164},{"店舗名":"ラーメン大 堀切店","住所":"〒124-0006 東京都葛飾区堀切４丁目５７−１４ 金子ビル","ステータス":"RECEIPT","region":"Katsushika","lat":35.74844,"lng":139.827164},{"店舗名":"中華料理 三河屋","住所":"〒124-0006 東京都葛飾区堀切４丁目５７−１５","ステータス":"APP_DISPLAY","region":"Katsushika","lat":35.748318,"lng":139.827087},{"店舗名":"東城香","住所":"〒124-0006 東京都葛飾区堀切４丁目８−１２","ステータス":"APP_DISPLAY","region":"Katsushika","lat":35.746571,"lng":139.82605},{"店舗名":"崔の醬","住所":"〒124-0006 東京都葛飾区堀切４丁目8ー12","ステータス":"APP_DISPLAY","region":"Katsushika","lat":35.746571,"lng":139.82605},{"店舗名":"和食府","住所":"〒124-0006 東京都葛飾区堀切４丁目8番12号","ステータス":"APP_DISPLAY","region":"Katsushika","lat":35.746571,"lng":139.82605},{"店舗名":"横浜家系ラーメン池田家堀切本店","住所":"〒124-0006 東京都葛飾区堀切５－４－１","ステータス":"APP_DISPLAY","region":"Katsushika","lat":35.748558,"lng":139.827377},{"店舗名":"居酒屋ホロヨイ（酒笑）","住所":"〒124-0006 東京都葛飾区堀切５丁目１０−３","ステータス":"APP_DISPLAY","region":"Katsushika","lat":35.748699,"lng":139.828949},{"店舗名":"新元素 中国物产","住所":"〒124-0006 東京都葛飾区堀切５丁目２３−９","ステータス":"APP_DISPLAY","region":"Katsushika","lat":35.749195,"lng":139.827835},{"店舗名":"インドアジアンダイニングバーサビナ","住所":"〒124-0006 東京都葛飾区堀切５丁目３−１","ステータス":"APP_DISPLAY","region":"Katsushika","lat":35.74831,"lng":139.82724},{"店舗名":"横浜家系ラーメン松壱家 堀切店","住所":"〒124-0006 東京都葛飾区堀切５丁目４−１","ステータス":"APP_DISPLAY","region":"Katsushika","lat":35.748558,"lng":139.827377},{"店舗名":"横浜家系ラーメン極上家 堀切店","住所":"〒124-0006 東京都葛飾区堀切５丁目４−１","ステータス":"APP_DISPLAY","region":"Katsushika","lat":35.748558,"lng":139.827377},{"店舗名":"圧倒的背徳感!炙り豚RUSH! 堀切店","住所":"〒124-0006 東京都葛飾区堀切５丁目４−１","ステータス":"APP_DISPLAY","region":"Katsushika","lat":35.748558,"lng":139.827377},{"店舗名":"ご褒美チャーシュー丼 ぶた丸 堀切店","住所":"〒124-0006 東京都葛飾区堀切５丁目４−１","ステータス":"APP_DISPLAY","region":"Katsushika","lat":35.748558,"lng":139.827377},{"店舗名":"THE GOLDENつけ麺　ゴル麺。堀切店","住所":"〒124-0006 東京都葛飾区堀切５丁目４−１","ステータス":"APP_DISPLAY","region":"Katsushika","lat":35.748558,"lng":139.827377},{"店舗名":"food stock cafe","住所":"〒124-0006 東京都葛飾区堀切５丁目４−１","ステータス":"RECEIPT","region":"Katsushika","lat":35.748558,"lng":139.827377},{"店舗名":"J's Kitchen 堀切","住所":"〒124-0006 東京都葛飾区堀切５丁目５０−９","ステータス":"APP_DISPLAY","region":"Katsushika","lat":35.751144,"lng":139.828461},{"店舗名":"ハンバーグ亭 沢村","住所":"〒124-0006 東京都葛飾区堀切５丁目５０−９","ステータス":"APP_DISPLAY","region":"Katsushika","lat":35.751144,"lng":139.828461},{"店舗名":"豚メシどストライク","住所":"〒124-0006 東京都葛飾区堀切５丁目５０−９","ステータス":"APP_DISPLAY","region":"Katsushika","lat":35.751144,"lng":139.828461},{"店舗名":"葛飾チュロス 堀切店","住所":"〒124-0006 東京都葛飾区堀切５丁目５０−９","ステータス":"APP_DISPLAY","region":"Katsushika","lat":35.751144,"lng":139.828461},{"店舗名":"厳選とろとろ豚 炒飯一華","住所":"〒124-0006 東京都葛飾区堀切５丁目５０−９","ステータス":"APP_DISPLAY","region":"Katsushika","lat":35.751144,"lng":139.828461},{"店舗名":"からあげハンバーグ弁当 米亭","住所":"〒124-0006 東京都葛飾区堀切５丁目５０−９","ステータス":"APP_DISPLAY","region":"Katsushika","lat":35.751144,"lng":139.828461},{"店舗名":"日本のねばとろ和風パスタ 堀切店の宅配","住所":"〒124-0006 東京都葛飾区堀切５丁目５０−９","ステータス":"APP_DISPLAY","region":"Katsushika","lat":35.751144,"lng":139.828461},{"店舗名":"〈ごはん特盛まで無料〉デミグラスハンバーグの店 デミたま 堀切店","住所":"〒124-0006 東京都葛飾区堀切５丁目５０−９","ステータス":"APP_DISPLAY","region":"Katsushika","lat":35.751144,"lng":139.828461},{"店舗名":"チキンと玄米","住所":"〒124-0006 東京都葛飾区堀切５丁目５０−９","ステータス":"APP_DISPLAY","region":"Katsushika","lat":35.751144,"lng":139.828461},{"店舗名":"豚丼屋豚でん返し","住所":"〒124-0006 東京都葛飾区堀切５丁目５０−９","ステータス":"APP_DISPLAY","region":"Katsushika","lat":35.751144,"lng":139.828461},{"店舗名":"語るに落ちたな","住所":"〒124-0006 東京都葛飾区堀切５丁目５０−９","ステータス":"APP_DISPLAY","region":"Katsushika","lat":35.751144,"lng":139.828461},{"店舗名":"グリルエクスプレス ～絶品ハンバーグの旅～ 堀切店","住所":"〒124-0006 東京都葛飾区堀切５丁目５０−９","ステータス":"APP_DISPLAY","region":"Katsushika","lat":35.751144,"lng":139.828461},{"店舗名":"まぜそばたける 堀切店","住所":"〒124-0006 東京都葛飾区堀切５丁目５０−９","ステータス":"APP_DISPLAY","region":"Katsushika","lat":35.751144,"lng":139.828461},{"店舗名":"【ご褒美クレープ】クレープギャラリー 堀切店","住所":"〒124-0006 東京都葛飾区堀切５丁目５０−９","ステータス":"APP_DISPLAY","region":"Katsushika","lat":35.751144,"lng":139.828461},{"店舗名":"【とろける角煮】東京角煮総本店 堀切店","住所":"〒124-0006 東京都葛飾区堀切５丁目５０−９","ステータス":"APP_DISPLAY","region":"Katsushika","lat":35.751144,"lng":139.828461},{"店舗名":"とろとろ半熟卵のオムライス葛飾亭 堀切店","住所":"〒124-0006 東京都葛飾区堀切５丁目５０−９","ステータス":"APP_DISPLAY","region":"Katsushika","lat":35.751144,"lng":139.828461},{"店舗名":"肉野菜炒め スタミナベジ二郎 堀切店","住所":"〒124-0006 東京都葛飾区堀切５丁目５０−９","ステータス":"APP_DISPLAY","region":"Katsushika","lat":35.751144,"lng":139.828461},{"店舗名":"【大盛まで無料！】MEGAナポ食堂 堀切店","住所":"〒124-0006 東京都葛飾区堀切５丁目５０−９","ステータス":"APP_DISPLAY","region":"Katsushika","lat":35.751144,"lng":139.828461},{"店舗名":"欲張り豚汁は主食です。 堀切店","住所":"〒124-0006 東京都葛飾区堀切５丁目５０−９","ステータス":"APP_DISPLAY","region":"Katsushika","lat":35.751144,"lng":139.828461},{"店舗名":"米とハンバーグ 堀切店","住所":"〒124-0006 東京都葛飾区堀切５丁目５０−９","ステータス":"APP_DISPLAY","region":"Katsushika","lat":35.751144,"lng":139.828461},{"店舗名":"二郎系豚ラーメン豚太郎 堀切店","住所":"〒124-0006 東京都葛飾区堀切５丁目５０−９","ステータス":"APP_DISPLAY","region":"Katsushika","lat":35.751144,"lng":139.828461},{"店舗名":"おむらいす工房 堀切店","住所":"〒124-0006 東京都葛飾区堀切５丁目５０−９","ステータス":"APP_DISPLAY","region":"Katsushika","lat":35.751144,"lng":139.828461},{"店舗名":"メシが進む！生姜焼き とん亭KING 堀切店","住所":"〒124-0006 東京都葛飾区堀切５丁目５０−９","ステータス":"APP_DISPLAY","region":"Katsushika","lat":35.751144,"lng":139.828461},{"店舗名":"こだわりの牛焼肉丼 紅葉 堀切店","住所":"〒124-0006 東京都葛飾区堀切５丁目５０−９","ステータス":"APP_DISPLAY","region":"Katsushika","lat":35.751144,"lng":139.828461},{"店舗名":"【韓国フローズンヨーグルトアイスボウル】 Yoppo！堀切店","住所":"〒124-0006 東京都葛飾区堀切５丁目５０−９","ステータス":"APP_DISPLAY","region":"Katsushika","lat":35.751144,"lng":139.828461},{"店舗名":"【丼むすび】 おむすび大将 堀切店","住所":"〒124-0006 東京都葛飾区堀切５丁目５０−９","ステータス":"APP_DISPLAY","region":"Katsushika","lat":35.751144,"lng":139.828461},{"店舗名":"親子丼 鶏茶房 堀切店","住所":"〒124-0006 東京都葛飾区堀切５丁目５０−９","ステータス":"APP_DISPLAY","region":"Katsushika","lat":35.751144,"lng":139.828461},{"店舗名":"韓国ネバトロ丼 堀切店","住所":"〒124-0006 東京都葛飾区堀切５丁目５０−９","ステータス":"APP_DISPLAY","region":"Katsushika","lat":35.751144,"lng":139.828461},{"店舗名":"出前まぜそば専門店 井上製麺所 堀切店","住所":"〒124-0006 東京都葛飾区堀切５丁目５０−９","ステータス":"APP_DISPLAY","region":"Katsushika","lat":35.751144,"lng":139.828461},{"店舗名":"出前つけ麺専門店 井上製麺所 堀切店","住所":"〒124-0006 東京都葛飾区堀切５丁目５０−９","ステータス":"APP_DISPLAY","region":"Katsushika","lat":35.751144,"lng":139.828461},{"店舗名":"すたみなどんぶり がーりっ君 堀切店","住所":"〒124-0006 東京都葛飾区堀切５丁目５０−９","ステータス":"APP_DISPLAY","region":"Katsushika","lat":35.751144,"lng":139.828461},{"店舗名":"豚でもない網焼き豚丼 堀切店","住所":"〒124-0006 東京都葛飾区堀切５丁目５０−９","ステータス":"APP_DISPLAY","region":"Katsushika","lat":35.751144,"lng":139.828461},{"店舗名":"バターが決め手の豚ちゃん丼 PORK軒 堀切店","住所":"〒124-0006 東京都葛飾区堀切５丁目５０−９","ステータス":"APP_DISPLAY","region":"Katsushika","lat":35.751144,"lng":139.828461},{"店舗名":"街のおむらいす屋さん good！！ 堀切店","住所":"〒124-0006 東京都葛飾区堀切５丁目５０−９","ステータス":"APP_DISPLAY","region":"Katsushika","lat":35.751144,"lng":139.828461},{"店舗名":"十勝帯広豚丼 ぶたどん物語 堀切店","住所":"〒124-0006 東京都葛飾区堀切５丁目５０−９","ステータス":"APP_DISPLAY","region":"Katsushika","lat":35.751144,"lng":139.828461},{"店舗名":"香り立つ回鍋肉 豚香房 堀切店","住所":"〒124-0006 東京都葛飾区堀切５丁目５０−９","ステータス":"APP_DISPLAY","region":"Katsushika","lat":35.751144,"lng":139.828461},{"店舗名":"二郎系背脂丼ぶり 肉山亭 堀切店","住所":"〒124-0006 東京都葛飾区堀切５丁目５０−９","ステータス":"APP_DISPLAY","region":"Katsushika","lat":35.751144,"lng":139.828461},{"店舗名":"美腸美活ねばとろばくだん丼 堀切店","住所":"〒124-0006 東京都葛飾区堀切５丁目５０−９","ステータス":"APP_DISPLAY","region":"Katsushika","lat":35.751144,"lng":139.828461},{"店舗名":"〈ごはん特盛まで無料〉デミグラスハンバーグの店 デミたま 堀切店","住所":"〒124-0006 東京都葛飾区堀切５丁目５０−９","ステータス":"APP_DISPLAY","region":"Katsushika","lat":35.751144,"lng":139.828461},{"店舗名":"肉野菜炒め ベジ郎 堀切店","住所":"〒124-0006 東京都葛飾区堀切５丁目５０−９","ステータス":"APP_DISPLAY","region":"Katsushika","lat":35.751144,"lng":139.828461},{"店舗名":"黒糖タピオカ スワロウティー 堀切店","住所":"〒124-0006 東京都葛飾区堀切５丁目５０−９","ステータス":"APP_DISPLAY","region":"Katsushika","lat":35.751144,"lng":139.828461},{"店舗名":"豚でもない生姜焼きっ！！ 堀切店","住所":"〒124-0006 東京都葛飾区堀切５丁目５０−９","ステータス":"APP_DISPLAY","region":"Katsushika","lat":35.751144,"lng":139.828461},{"店舗名":"豚とにんにく背脂 堀切店","住所":"〒124-0006 東京都葛飾区堀切５丁目５０−９","ステータス":"APP_DISPLAY","region":"Katsushika","lat":35.751144,"lng":139.828461},{"店舗名":"【元祖台湾まぜそば麺屋はなび 堀切店】","住所":"〒124-0006 東京都葛飾区堀切５丁目５０−９","ステータス":"APP_DISPLAY","region":"Katsushika","lat":35.751144,"lng":139.828461},{"店舗名":"【ごはん特盛まで無料】超熟とろとろ角煮 豚盛軒 堀切店","住所":"〒124-0006 東京都葛飾区堀切５丁目５０−９","ステータス":"APP_DISPLAY","region":"Katsushika","lat":35.751144,"lng":139.828461},{"店舗名":"豚汁とほかほかご飯 足立食堂 堀切店","住所":"〒124-0006 東京都葛飾区堀切５丁目５０−９","ステータス":"APP_DISPLAY","region":"Katsushika","lat":35.751144,"lng":139.828461},{"店舗名":"自然派ネバとろばくだん食堂 堀切店","住所":"〒124-0006 東京都葛飾区堀切５丁目５０−９","ステータス":"APP_DISPLAY","region":"Katsushika","lat":35.751144,"lng":139.828461},{"店舗名":"カレーの虎 堀切店","住所":"〒124-0006 東京都葛飾区堀切５丁目５０−９","ステータス":"APP_DISPLAY","region":"Katsushika","lat":35.751144,"lng":139.828461},{"店舗名":"大分唐揚げ 中津や 堀切店","住所":"〒124-0006 東京都葛飾区堀切５丁目５０−９","ステータス":"APP_DISPLAY","region":"Katsushika","lat":35.751144,"lng":139.828461},{"店舗名":"おかゆですよ！堀切店","住所":"〒124-0006 東京都葛飾区堀切５丁目５０−９","ステータス":"APP_DISPLAY","region":"Katsushika","lat":35.751144,"lng":139.828461},{"店舗名":"長崎名物味わい角煮 豚亭豊庵 堀切店","住所":"〒124-0006 東京都葛飾区堀切５丁目５０−９","ステータス":"APP_DISPLAY","region":"Katsushika","lat":35.751144,"lng":139.828461},{"店舗名":"【究極の980円】汁なし担々麺と麻婆豆腐の店 孫子の兵法 堀切店","住所":"〒124-0006 東京都葛飾区堀切５丁目５０−９","ステータス":"APP_DISPLAY","region":"Katsushika","lat":35.751144,"lng":139.828461},{"店舗名":"【旨味とスパイス！】マーラータンのお店麻辣熱風堀切5丁目","住所":"〒124-0006 東京都葛飾区堀切５丁目５０−９","ステータス":"APP_DISPLAY","region":"Katsushika","lat":35.751144,"lng":139.828461},{"店舗名":"Patisserie Belle chocolat　堀切店","住所":"〒124-0006 東京都葛飾区堀切５丁目５０−９","ステータス":"APP_DISPLAY","region":"Katsushika","lat":35.751144,"lng":139.828461},{"店舗名":"クレイジーワッフル 堀切店","住所":"〒124-0006 東京都葛飾区堀切５丁目５０−９","ステータス":"APP_DISPLAY","region":"Katsushika","lat":35.751144,"lng":139.828461},{"店舗名":"【ご飯300gまで無料】とんかつ とん彩 堀切店","住所":"〒124-0006 東京都葛飾区堀切５丁目５０−９","ステータス":"APP_DISPLAY","region":"Katsushika","lat":35.751144,"lng":139.828461},{"店舗名":"【美活美腸ヨーグルト】Annyong！Greek Garden 堀切店","住所":"〒124-0006 東京都葛飾区堀切５丁目５０−９","ステータス":"APP_DISPLAY","region":"Katsushika","lat":35.751144,"lng":139.828461},{"店舗名":"【バナナジュース】BANANA LAB 堀切店","住所":"〒124-0006 東京都葛飾区堀切５丁目５０−９","ステータス":"APP_DISPLAY","region":"Katsushika","lat":35.751144,"lng":139.828461},{"店舗名":"飲むアサイーNOMUI 堀切店","住所":"〒124-0006 東京都葛飾区堀切５丁目５０−９","ステータス":"APP_DISPLAY","region":"Katsushika","lat":35.751144,"lng":139.828461},{"店舗名":"和クレープ 宇月 堀切店","住所":"〒124-0006 東京都葛飾区堀切５丁目５０−９","ステータス":"APP_DISPLAY","region":"Katsushika","lat":35.751144,"lng":139.828461},{"店舗名":"ご飯と牛タンと。 堀切店","住所":"〒124-0006 東京都葛飾区堀切５丁目５０−９","ステータス":"APP_DISPLAY","region":"Katsushika","lat":35.751144,"lng":139.828461},{"店舗名":"飲むティラミス NOMU TIRAMISU 堀切店","住所":"〒124-0006 東京都葛飾区堀切５丁目５０−９","ステータス":"APP_DISPLAY","region":"Katsushika","lat":35.751144,"lng":139.828461},{"店舗名":"【タピオカ】OWL TEA 堀切店","住所":"〒124-0006 東京都葛飾区堀切５丁目５０−９","ステータス":"APP_DISPLAY","region":"Katsushika","lat":35.751144,"lng":139.828461},{"店舗名":"禁断のりんご飴 堀切店","住所":"〒124-0006 東京都葛飾区堀切５丁目５０−９","ステータス":"APP_DISPLAY","region":"Katsushika","lat":35.751144,"lng":139.828461},{"店舗名":"ボックスチュロス ～Churros time～ 堀切店","住所":"〒124-0006 東京都葛飾区堀切５丁目５０−９","ステータス":"RECEIPT","region":"Katsushika","lat":35.751144,"lng":139.828461},{"店舗名":"こだわりの熟成牛ハラミ丼 堀切店","住所":"〒124-0006 東京都葛飾区堀切５丁目５０−９","ステータス":"RECEIPT","region":"Katsushika","lat":35.751144,"lng":139.828461},{"店舗名":"【アサイーボウル】ALOHA SPOON Acai bowl cafe 堀切店","住所":"〒124-0006 東京都葛飾区堀切５丁目５０−９","ステータス":"RECEIPT","region":"Katsushika","lat":35.751144,"lng":139.828461},{"店舗名":"福餃子","住所":"〒124-0006 東京都葛飾区堀切５丁目５−１","ステータス":"APP_DISPLAY","region":"Katsushika","lat":35.748711,"lng":139.827484},{"店舗名":"パカパカドリンクとパカパカスイーツ","住所":"〒124-0006 東京都葛飾区堀切６丁目３４－１","ステータス":"APP_DISPLAY","region":"Katsushika","lat":35.753391,"lng":139.827576},{"店舗名":"Fruit Garden Café フルーツガーデンカフェ","住所":"〒124-0006 東京都葛飾区堀切６丁目３４−１","ステータス":"APP_DISPLAY","region":"Katsushika","lat":35.753391,"lng":139.827576},{"店舗名":"馬ゐ家 UMAIYA","住所":"〒124-0006 東京都葛飾区堀切６丁目３４−１","ステータス":"APP_DISPLAY","region":"Katsushika","lat":35.753391,"lng":139.827576},{"店舗名":"華之宴","住所":"〒124-0006 東京都葛飾区堀切６丁目３４−３","ステータス":"APP_DISPLAY","region":"Katsushika","lat":35.75367,"lng":139.827545},{"店舗名":"韓国家庭料理 マロニエ","住所":"〒124-0006 東京都葛飾区堀切７丁目２−３","ステータス":"APP_DISPLAY","region":"Katsushika","lat":35.754738,"lng":139.827698},{"店舗名":"鰻の成瀬 堀切菖蒲園店","住所":"〒124-0006 東京都葛飾区堀切７丁目２−４","ステータス":"APP_DISPLAY","region":"Katsushika","lat":35.754879,"lng":139.827744},{"店舗名":"酒と鰻成瀬 堀切菖蒲園店","住所":"〒124-0006 東京都葛飾区堀切７丁目２−４","ステータス":"APP_DISPLAY","region":"Katsushika","lat":35.754879,"lng":139.827744},{"店舗名":"ダダダダダージーパイ","住所":"〒124-0006 東京都葛飾区堀切７丁目３−１","ステータス":"APP_DISPLAY","region":"Katsushika","lat":35.755062,"lng":139.827805},{"店舗名":"中国巻餅（ビン）大併巻一切","住所":"〒124-0006 東京都葛飾区堀切７丁目３−１","ステータス":"APP_DISPLAY","region":"Katsushika","lat":35.755062,"lng":139.827805},{"店舗名":"茶茶真珠ミルクテイーチャチャシンジュミルクテイー","住所":"〒124-0006 東京都葛飾区堀切７丁目３−１","ステータス":"APP_DISPLAY","region":"Katsushika","lat":35.755062,"lng":139.827805},{"店舗名":"韓国テバチキン&台湾タピオカ","住所":"〒124-0006 東京都葛飾区堀切７丁目３−１","ステータス":"APP_DISPLAY","region":"Katsushika","lat":35.755062,"lng":139.827805},{"店舗名":"あほや 堀切店","住所":"〒124-0006 東京都葛飾区堀切７丁目３−１ コーポラス定菊","ステータス":"APP_DISPLAY","region":"Katsushika","lat":35.755062,"lng":139.827805},{"店舗名":"ミートショップ 栃木屋","住所":"〒124-0006 東京都葛飾区堀切７丁目７−１３","ステータス":"APP_DISPLAY","region":"Katsushika","lat":35.754692,"lng":139.830917},{"店舗名":"焼肉 大門 yakiniku daimon","住所":"〒124-0006 東京都葛飾区堀切７丁目８−１４","ステータス":"APP_DISPLAY","region":"Katsushika","lat":35.754166,"lng":139.830948},{"店舗名":"鑫利華 鴨小弟","住所":"〒124-0011 東京都葛飾区四つ木 5丁目13-2","ステータス":"APP_DISPLAY","region":"Katsushika","lat":35.741905,"lng":139.840225},{"店舗名":"Manmaru まんまる","住所":"〒124-0011 東京都葛飾区四つ木１丁目３０−３","ステータス":"APP_DISPLAY","region":"Katsushika","lat":35.735165,"lng":139.83522},{"店舗名":"パリス ケバブ","住所":"〒124-0011 東京都葛飾区四つ木２丁 30-9","ステータス":"APP_DISPLAY","region":"Katsushika","lat":35.736744,"lng":139.837769},{"店舗名":"油そば 豚魂 四つ木店","住所":"〒124-0011 東京都葛飾区四つ木４丁目２７−１２","ステータス":"APP_DISPLAY","region":"Katsushika","lat":35.738544,"lng":139.837433},{"店舗名":"魚介豚骨まぜそば 漁夫の利 四つ木店","住所":"〒124-0011 東京都葛飾区四つ木４丁目２７−１２","ステータス":"APP_DISPLAY","region":"Katsushika","lat":35.738544,"lng":139.837433},{"店舗名":"アジアンカレーハウス","住所":"〒124-0011 東京都葛飾区四つ木４丁目２７−１２","ステータス":"APP_DISPLAY","region":"Katsushika","lat":35.738544,"lng":139.837433},{"店舗名":"スパイスフュージョンアジアンダイニングアンドバー","住所":"〒124-0012","ステータス":"APP_DISPLAY","region":"Katsushika","lat":35.737209,"lng":139.846832},{"店舗名":"小胖麻辣烫","住所":"〒124-0012 東京都葛飾区立石１丁目","ステータス":"APP_DISPLAY","region":"Katsushika","lat":35.737209,"lng":139.846832},{"店舗名":"青木珈琲","住所":"〒124-0012 東京都葛飾区立石１丁目１５−９","ステータス":"APP_DISPLAY","region":"Katsushika","lat":35.738087,"lng":139.848434},{"店舗名":"鰻福酒場","住所":"〒124-0012 東京都葛飾区立石１丁目１７−４","ステータス":"APP_DISPLAY","region":"Katsushika","lat":35.737587,"lng":139.848633},{"店舗名":"天天向上豚骨麻辣湯","住所":"〒124-0012 東京都葛飾区立石１丁目１−９","ステータス":"APP_DISPLAY","region":"Katsushika","lat":35.736034,"lng":139.841324},{"店舗名":"中華炸串研究所(串カツ)","住所":"〒124-0012 東京都葛飾区立石１丁目１−９","ステータス":"APP_DISPLAY","region":"Katsushika","lat":35.736034,"lng":139.841324},{"店舗名":"目利きの銀次 京成立石駅前店","住所":"〒124-0012 東京都葛飾区立石１丁目１９−７","ステータス":"APP_DISPLAY","region":"Katsushika","lat":35.738075,"lng":139.849304},{"店舗名":"とんかつの和吉 京成立石駅前店","住所":"〒124-0012 東京都葛飾区立石１丁目１９−７ 大柳立石ビル","ステータス":"APP_DISPLAY","region":"Katsushika","lat":35.738075,"lng":139.849304},{"店舗名":"大衆鰻 うな銀 京成立石駅前店","住所":"〒124-0012 東京都葛飾区立石１丁目１９−７ 大柳立石ビル 1階2階","ステータス":"APP_DISPLAY","region":"Katsushika","lat":35.738075,"lng":139.849304},{"店舗名":"焼肉食材店 ふじた","住所":"〒124-0012 東京都葛飾区立石１丁目２０−４","ステータス":"APP_DISPLAY","region":"Katsushika","lat":35.737671,"lng":139.849121},{"店舗名":"豚パオ","住所":"〒124-0012 東京都葛飾区立石１丁目２１−１","ステータス":"APP_DISPLAY","region":"Katsushika","lat":35.737331,"lng":139.849579},{"店舗名":"TAQWA","住所":"〒124-0012 東京都葛飾区立石１丁目２１−２","ステータス":"APP_DISPLAY","region":"Katsushika","lat":35.737465,"lng":139.849548},{"店舗名":"ちよだ鮨 立石店","住所":"〒124-0012 東京都葛飾区立石１丁目２１−４","ステータス":"APP_DISPLAY","region":"Katsushika","lat":35.737755,"lng":139.849472},{"店舗名":"【クレープ専門】Red.Y レディ","住所":"〒124-0012 東京都葛飾区立石１丁目２１−４","ステータス":"APP_DISPLAY","region":"Katsushika","lat":35.737755,"lng":139.849472},{"店舗名":"おはな丼丸 京成立石駅前店","住所":"〒124-0012 東京都葛飾区立石１丁目２２−５","ステータス":"APP_DISPLAY","region":"Katsushika","lat":35.738369,"lng":139.849411},{"店舗名":"浅草ゆきかげ-結-","住所":"〒124-0012 東京都葛飾区立石１丁目９−１６","ステータス":"APP_DISPLAY","region":"Katsushika","lat":35.737583,"lng":139.846268},{"店舗名":"インド ネパール レストラン & バー クーシ INDIAN NEPALI RESTAURANT & BAR KHUSHI","住所":"〒124-0012 東京都葛飾区立石２丁目５−５ パリンダマンション","ステータス":"APP_DISPLAY","region":"Katsushika","lat":35.737984,"lng":139.839935},{"店舗名":"dragon純豆腐(スンドゥブ) 立石店","住所":"〒124-0012 東京都葛飾区立石３丁目１８−４ アミティ立石","ステータス":"APP_DISPLAY","region":"Katsushika","lat":35.7379,"lng":139.844955},{"店舗名":"創作中華料理1988","住所":"〒124-0012 東京都葛飾区立石４丁目２７−１６","ステータス":"APP_DISPLAY","region":"Katsushika","lat":35.739223,"lng":139.848419},{"店舗名":"まる心","住所":"〒124-0012 東京都葛飾区立石４丁目２８−２０","ステータス":"APP_DISPLAY","region":"Katsushika","lat":35.739513,"lng":139.848343},{"店舗名":"寄り道酒場Rocco","住所":"〒124-0012 東京都葛飾区立石４丁目３０−１３ Ｌｅ Ｃｉｅｌ","ステータス":"APP_DISPLAY","region":"Katsushika","lat":35.740532,"lng":139.848831},{"店舗名":"INDIAN RESTAURANT AND BAR GANESHA","住所":"〒124-0012 東京都葛飾区立石５丁目１１−１６","ステータス":"APP_DISPLAY","region":"Katsushika","lat":35.742611,"lng":139.846985},{"店舗名":"クリスピーチキンアンドトマト お花茶屋店 CRISPY CHICKEN n' TOMATO Ohanajaya","住所":"〒124-0012 東京都葛飾区立石５丁目１−２","ステータス":"APP_DISPLAY","region":"Katsushika","lat":35.741669,"lng":139.841324},{"店舗名":"【出汁の旨みとたっぷり具材】雑炊の気分 お花茶屋店","住所":"〒124-0012 東京都葛飾区立石５丁目１−２","ステータス":"APP_DISPLAY","region":"Katsushika","lat":35.741669,"lng":139.841324},{"店舗名":"アジアンキッチン SUN＆MOON","住所":"〒124-0012 東京都葛飾区立石５丁目１−２","ステータス":"APP_DISPLAY","region":"Katsushika","lat":35.741669,"lng":139.841324},{"店舗名":"究極のソーセージエッグ丼 お花茶屋店","住所":"〒124-0012 東京都葛飾区立石５丁目１−２","ステータス":"APP_DISPLAY","region":"Katsushika","lat":35.741669,"lng":139.841324},{"店舗名":"すなお お花茶屋店","住所":"〒124-0012 東京都葛飾区立石５丁目１−２","ステータス":"APP_DISPLAY","region":"Katsushika","lat":35.741669,"lng":139.841324},{"店舗名":"すなお お花茶屋店","住所":"〒124-0012 東京都葛飾区立石５丁目１−２","ステータス":"APP_DISPLAY","region":"Katsushika","lat":35.741669,"lng":139.841324},{"店舗名":"【メガ盛り‼】1キロ弁当工房肉MAX!!大盛りからあげお弁当 お花茶屋店","住所":"〒124-0012 東京都葛飾区立石５丁目１−２","ステータス":"APP_DISPLAY","region":"Katsushika","lat":35.741669,"lng":139.841324},{"店舗名":"【フルーツたっぷりアサイーボウル】ワイキキ・ボウルズ お花茶屋店","住所":"〒124-0012 東京都葛飾区立石５丁目１−２","ステータス":"APP_DISPLAY","region":"Katsushika","lat":35.741669,"lng":139.841324},{"店舗名":"【アサイー&グリークヨーグルト】GREEKSPOON お花茶屋店","住所":"〒124-0012 東京都葛飾区立石５丁目１−２","ステータス":"APP_DISPLAY","region":"Katsushika","lat":35.741669,"lng":139.841324},{"店舗名":"【本格麻辣×自家製春雨】白虎麻辣湯 お花茶屋店","住所":"〒124-0012 東京都葛飾区立石５丁目１−２","ステータス":"APP_DISPLAY","region":"Katsushika","lat":35.741669,"lng":139.841324},{"店舗名":"かっぱ寿司 葛飾立石店","住所":"〒124-0012 東京都葛飾区立石５丁目２−３","ステータス":"APP_DISPLAY","region":"Katsushika","lat":35.742752,"lng":139.842377},{"店舗名":"丼ぶり専門 清水港 バンノウ水産 葛飾立石店","住所":"〒124-0012 東京都葛飾区立石５丁目２−３","ステータス":"APP_DISPLAY","region":"Katsushika","lat":35.742752,"lng":139.842377},{"店舗名":"#かつしか食堂 カキフライとアジフライ 葛飾野菜使用の和食料理人の店 #katsushikashokudou","住所":"〒124-0012 東京都葛飾区立石６丁目１−６ ふみのビル","ステータス":"APP_DISPLAY","region":"Katsushika","lat":35.742439,"lng":139.849152},{"店舗名":"アラーヴァリーインディアンレストラン Aravali indian restauran","住所":"〒124-0012 東京都葛飾区立石６丁目１−８","ステータス":"APP_DISPLAY","region":"Katsushika","lat":35.742393,"lng":139.848831},{"店舗名":"【スパイス料理】ヒロスパ","住所":"〒124-0012 東京都葛飾区立石６丁目１−８","ステータス":"APP_DISPLAY","region":"Katsushika","lat":35.742393,"lng":139.848831},{"店舗名":"みずきや","住所":"〒124-0012 東京都葛飾区立石６丁目２０−８","ステータス":"APP_DISPLAY","region":"Katsushika","lat":35.742779,"lng":139.85173},{"店舗名":"おべんとうキッチン","住所":"〒124-0012 東京都葛飾区立石６丁目２０−８","ステータス":"APP_DISPLAY","region":"Katsushika","lat":35.742779,"lng":139.85173},{"店舗名":"名門餃子酒場","住所":"〒124-0012 東京都葛飾区立石６丁目３１−１０ トーカンマンション青砥","ステータス":"APP_DISPLAY","region":"Katsushika","lat":35.744083,"lng":139.853287},{"店舗名":"スパイスカレーハウスレストラン＆バー Spicy Curry House & Bar","住所":"〒124-0012 東京都葛飾区立石６丁目３１−９ アカリケン","ステータス":"APP_DISPLAY","region":"Katsushika","lat":35.743988,"lng":139.853195},{"店舗名":"エベレストフレーバー　立石店","住所":"〒124-0012 東京都葛飾区立石６丁目３７−７","ステータス":"APP_DISPLAY","region":"Katsushika","lat":35.744293,"lng":139.85434},{"店舗名":"アジアン料理ヒマンス the Real Taste !","住所":"〒124-0012 東京都葛飾区立石６丁目３７−７ ニュー青戸ハイツ","ステータス":"APP_DISPLAY","region":"Katsushika","lat":35.744293,"lng":139.85434},{"店舗名":"カミナリステーキ ユアエルム青戸3番街店","住所":"〒124-0012 東京都葛飾区立石６丁目３９−２","ステータス":"APP_DISPLAY","region":"Katsushika","lat":35.744514,"lng":139.855255},{"店舗名":"千年の宴 ユアエルム青戸3番街店","住所":"〒124-0012 東京都葛飾区立石６丁目３９−２","ステータス":"APP_DISPLAY","region":"Katsushika","lat":35.744514,"lng":139.855255},{"店舗名":"ドミノ・ピザ 立石店","住所":"〒124-0012 東京都葛飾区立石７丁目１１−２２","ステータス":"APP_DISPLAY","region":"Katsushika","lat":35.742397,"lng":139.851318},{"店舗名":"ＡＲＲＯＷＳ","住所":"〒124-0012 東京都葛飾区立石一丁目３－７","ステータス":"APP_DISPLAY","region":"Katsushika","lat":35.736488,"lng":139.843216},{"店舗名":"マルキ ミノルミ","住所":"〒124-0013 東京都葛飾区東立石３丁目２５−９","ステータス":"APP_DISPLAY","region":"Katsushika","lat":35.736622,"lng":139.846741},{"店舗名":"天下泰平酒場 東立石本店","住所":"〒124-0013 東京都葛飾区東立石３丁目２６−１１","ステータス":"APP_DISPLAY","region":"Katsushika","lat":35.736031,"lng":139.847061},{"店舗名":"Boncyclecafe","住所":"〒124-0013 東京都葛飾区東立石３丁目２６−４","ステータス":"APP_DISPLAY","region":"Katsushika","lat":35.735664,"lng":139.846298},{"店舗名":"kentami 酒と魚","住所":"〒124-0013 東京都葛飾区東立石３丁目３７−６ Ｍ・Ｔビル","ステータス":"APP_DISPLAY","region":"Katsushika","lat":35.736748,"lng":139.847748},{"店舗名":"鮒忠立石店","住所":"〒124-0013 東京都葛飾区東立石４－４９－６","ステータス":"APP_DISPLAY","region":"Katsushika","lat":35.737171,"lng":139.849884},{"店舗名":"寿司居酒屋 伝次郎","住所":"〒124-0013 東京都葛飾区東立石４丁目４５−１１ サンフラット立石","ステータス":"APP_DISPLAY","region":"Katsushika","lat":35.737411,"lng":139.85112},{"店舗名":"NEW MIYABI","住所":"〒124-0013 東京都葛飾区東立石４丁目５０−９","ステータス":"APP_DISPLAY","region":"Katsushika","lat":35.736897,"lng":139.84964},{"店舗名":"煮込み　カフェ　ポノオーレ","住所":"〒124-0014","ステータス":"APP_DISPLAY","region":"Katsushika","lat":35.725925,"lng":139.83989},{"店舗名":"リトルエチオピアレストランバー","住所":"〒124-0014 東京都葛飾区東四つ木３丁目２３−６","ステータス":"APP_DISPLAY","region":"Katsushika","lat":35.731098,"lng":139.834946},{"店舗名":"Indian restaurant OM ganesha","住所":"〒124-0014 東京都葛飾区東四つ木３丁目２４−６","ステータス":"APP_DISPLAY","region":"Katsushika","lat":35.731674,"lng":139.835632},{"店舗名":"おおぞら丼丸東四つ木店","住所":"〒124-0014 東京都葛飾区東四つ木３丁目３５−１７","ステータス":"APP_DISPLAY","region":"Katsushika","lat":35.731174,"lng":139.839447},{"店舗名":"カフェめららい","住所":"〒124-0021 東京都葛飾区細田３丁目１３−２１","ステータス":"APP_DISPLAY","region":"Katsushika","lat":35.742573,"lng":139.867233},{"店舗名":"Rabi'skebab","住所":"〒124-0021 東京都葛飾区細田３丁目９−６","ステータス":"APP_DISPLAY","region":"Katsushika","lat":35.743893,"lng":139.866058},{"店舗名":"ピザハット 高砂店","住所":"〒124-0021 東京都葛飾区細田４丁目２２−１５","ステータス":"APP_DISPLAY","region":"Katsushika","lat":35.741528,"lng":139.873749},{"店舗名":"チキン・ウイングストリート 高砂店","住所":"〒124-0021 東京都葛飾区細田４丁目２２−１５","ステータス":"APP_DISPLAY","region":"Katsushika","lat":35.741528,"lng":139.873749},{"店舗名":"トスカーニパスタ 高砂店","住所":"〒124-0021 東京都葛飾区細田４丁目２２−１５","ステータス":"APP_DISPLAY","region":"Katsushika","lat":35.741528,"lng":139.873749},{"店舗名":"寿々喜","住所":"〒124-0021 東京都葛飾区細田４丁目７−１５","ステータス":"APP_DISPLAY","region":"Katsushika","lat":35.742641,"lng":139.871002},{"店舗名":"スパイスオーブン アジアン ダイニング&バー","住所":"〒124-0022 東京都葛飾区奥戸２丁目２０−２１","ステータス":"APP_DISPLAY","region":"Katsushika","lat":35.734264,"lng":139.858307},{"店舗名":"熱盛りchicken bowl アツチキ 立石店","住所":"〒124-0022 東京都葛飾区奥戸２丁目２０−２１ 長島貸店舗","ステータス":"APP_DISPLAY","region":"Katsushika","lat":35.734264,"lng":139.858307},{"店舗名":"ステーキくに 新小岩店","住所":"〒124-0022 東京都葛飾区奥戸４丁目１３−１","ステータス":"APP_DISPLAY","region":"Katsushika","lat":35.726089,"lng":139.866425},{"店舗名":"そば処 かどや","住所":"〒124-0022 東京都葛飾区奥戸４丁目１３−１８","ステータス":"APP_DISPLAY","region":"Katsushika","lat":35.727547,"lng":139.866608},{"店舗名":"【米粉100％のグルテンフリークレープ屋さん】おこめのおくりもの","住所":"〒124-0022 東京都葛飾区奥戸５丁目１−３","ステータス":"APP_DISPLAY","region":"Katsushika","lat":35.731171,"lng":139.863678},{"店舗名":"大丸精肉店","住所":"〒124-0022 東京都葛飾区奥戸６丁目１５−１７","ステータス":"APP_DISPLAY","region":"Katsushika","lat":35.732571,"lng":139.869308},{"店舗名":"大丸精肉店弁当部門","住所":"〒124-0022 東京都葛飾区奥戸６丁目１６−１０","ステータス":"APP_DISPLAY","region":"Katsushika","lat":35.732555,"lng":139.869919},{"店舗名":"【手作りお弁当】旬鮮市場 楓(ふう)","住所":"〒124-0022 東京都葛飾区奥戸６丁目５－１７","ステータス":"APP_DISPLAY","region":"Katsushika","lat":35.731892,"lng":139.868195},{"店舗名":"デニーズ 奥戸店","住所":"〒124-0022 東京都葛飾区奥戸７丁目４−１","ステータス":"APP_DISPLAY","region":"Katsushika","lat":35.734528,"lng":139.86557},{"店舗名":"激盛り豚丼メガトン立石店","住所":"〒124-0022 東京都葛飾区奥戸二丁目20番21号","ステータス":"APP_DISPLAY","region":"Katsushika","lat":35.734264,"lng":139.858307},{"店舗名":"アサイー工房　新小岩店","住所":"〒124-0023","ステータス":"APP_DISPLAY","region":"Katsushika","lat":35.720612,"lng":139.861359},{"店舗名":"脂そばGOTTSU MAZE","住所":"〒124-0023","ステータス":"RECEIPT","region":"Katsushika","lat":35.720612,"lng":139.861359},{"店舗名":"アリランスマイルホットドック新小岩","住所":"〒124-0023 東京都葛飾区東新小岩１丁目１ トラスト新小岩","ステータス":"APP_DISPLAY","region":"Katsushika","lat":35.718166,"lng":139.858627},{"店舗名":"smile hot dog ミルクティー","住所":"〒124-0023 東京都葛飾区東新小岩１丁目１−１","ステータス":"APP_DISPLAY","region":"Katsushika","lat":35.717876,"lng":139.858459},{"店舗名":"cherry blossom curry","住所":"〒124-0023 東京都葛飾区東新小岩１丁目１４−５","ステータス":"APP_DISPLAY","region":"Katsushika","lat":35.720619,"lng":139.859177},{"店舗名":"壺窯 BBQ HOUSE　新小岩店","住所":"〒124-0023 東京都葛飾区東新小岩１丁目１４−５","ステータス":"APP_DISPLAY","region":"Katsushika","lat":35.720619,"lng":139.859177},{"店舗名":"インディアンレストランサクラ SAKURA INDIAN NEPALI RESTAURANT","住所":"〒124-0023 東京都葛飾区東新小岩１丁目１４−５","ステータス":"APP_DISPLAY","region":"Katsushika","lat":35.720619,"lng":139.859177},{"店舗名":"究極のビリヤニ料理　新小岩店","住所":"〒124-0023 東京都葛飾区東新小岩１丁目１４番５号","ステータス":"APP_DISPLAY","region":"Katsushika","lat":35.720619,"lng":139.859177},{"店舗名":"ぷりん屋 ひら松","住所":"〒124-0023 東京都葛飾区東新小岩１丁目１−７ニ興ビル","ステータス":"APP_DISPLAY","region":"Katsushika","lat":35.718426,"lng":139.858627},{"店舗名":"ごっつ 新小岩店","住所":"〒124-0023 東京都葛飾区東新小岩１丁目２−２","ステータス":"APP_DISPLAY","region":"Katsushika","lat":35.718338,"lng":139.857986},{"店舗名":"脂そばGOTTSU MAZE　aburasobaGOTTSU MAZE","住所":"〒124-0023 東京都葛飾区東新小岩１丁目２−２","ステータス":"APP_DISPLAY","region":"Katsushika","lat":35.718338,"lng":139.857986},{"店舗名":"【トルコの本格Kebab】WORLD KITCHEN","住所":"〒124-0023 東京都葛飾区東新小岩１丁目２−２ ダイアパレス新小岩","ステータス":"APP_DISPLAY","region":"Katsushika","lat":35.718338,"lng":139.857986},{"店舗名":"カレーハウス CoCo壱番屋 ＪＲ新小岩駅北口店","住所":"〒124-0023 東京都葛飾区東新小岩１丁目３−１","ステータス":"APP_DISPLAY","region":"Katsushika","lat":35.71851,"lng":139.857819},{"店舗名":"中華物産新小岩北口","住所":"〒124-0023 東京都葛飾区東新小岩１丁目４−４","ステータス":"APP_DISPLAY","region":"Katsushika","lat":35.719105,"lng":139.857254},{"店舗名":"すき家 葛飾東新小岩店","住所":"〒124-0023 東京都葛飾区東新小岩２丁目２−８","ステータス":"PENDING","region":"Katsushika","lat":35.724148,"lng":139.864151},{"店舗名":"吉野家 東新小岩店","住所":"〒124-0023 東京都葛飾区東新小岩３丁目１３−３","ステータス":"APP_DISPLAY","region":"Katsushika","lat":35.723419,"lng":139.862686},{"店舗名":"尚氏私房菜","住所":"〒124-0023 東京都葛飾区東新小岩３丁目１５−１","ステータス":"APP_DISPLAY","region":"Katsushika","lat":35.723976,"lng":139.861298},{"店舗名":"Cheese’n Tokyo","住所":"〒124-0023 東京都葛飾区東新小岩５丁目１−１０","ステータス":"APP_DISPLAY","region":"Katsushika","lat":35.720009,"lng":139.857254},{"店舗名":"ナカガワクレープ 東新小岩本店 Nakagawa Crape","住所":"〒124-0023 東京都葛飾区東新小岩５丁目１６−２０ あかね荘 102","ステータス":"APP_DISPLAY","region":"Katsushika","lat":35.722363,"lng":139.856018},{"店舗名":"セクセクチキン","住所":"〒124-0023 東京都葛飾区東新小岩５丁目７−１","ステータス":"APP_DISPLAY","region":"Katsushika","lat":35.721733,"lng":139.858109},{"店舗名":"トルコBBQレストラン","住所":"〒124-0023 東京都葛飾区東新小岩５丁目７−１ みのりマンション","ステータス":"APP_DISPLAY","region":"Katsushika","lat":35.721733,"lng":139.858109},{"店舗名":"タコス＆ブリトー El Rincon de TADIM Tacos and Burrito","住所":"〒124-0023 東京都葛飾区東新小岩５丁目７−１ みのりマンション","ステータス":"APP_DISPLAY","region":"Katsushika","lat":35.721733,"lng":139.858109},{"店舗名":"ケバブ屋台~TADIM~Kebap Shop","住所":"〒124-0023 東京都葛飾区東新小岩５丁目７−１ みのりマンション","ステータス":"APP_DISPLAY","region":"Katsushika","lat":35.721733,"lng":139.858109},{"店舗名":"彩波 IROHA","住所":"〒124-0023 東京都葛飾区東新小岩５丁目７−６","ステータス":"APP_DISPLAY","region":"Katsushika","lat":35.72237,"lng":139.857986},{"店舗名":"ホルモン焼肉一六八","住所":"〒124-0023 東京都葛飾区東新小岩５丁目７−６ イースト５００","ステータス":"APP_DISPLAY","region":"Katsushika","lat":35.72237,"lng":139.857986},{"店舗名":"ぱくぱく堂","住所":"〒124-0023 東京都葛飾区東新小岩７丁目３０−１７ カノーハイム","ステータス":"APP_DISPLAY","region":"Katsushika","lat":35.723843,"lng":139.857681},{"店舗名":"coffee//bar zeroya","住所":"〒124-0023 東京都葛飾区東新小岩７丁目３２−１０","ステータス":"APP_DISPLAY","region":"Katsushika","lat":35.726585,"lng":139.857346},{"店舗名":"中津しょうゆ からあげ専門店 鶏笑 新小岩店","住所":"〒124-0023 東京都葛飾区東新小岩８丁目３５−１４ 斉藤コーポ","ステータス":"APP_DISPLAY","region":"Katsushika","lat":35.726646,"lng":139.85701},{"店舗名":"中華料理 大上海麻辣湯 新小岩","住所":"〒124-0024","ステータス":"APP_DISPLAY","region":"Katsushika","lat":35.714252,"lng":139.854935},{"店舗名":"優茶YOUCHA 新小岩店","住所":"〒124-0024","ステータス":"RECEIPT","region":"Katsushika","lat":35.714252,"lng":139.854935},{"店舗名":"たこ焼き27","住所":"〒124-0024","ステータス":"RECEIPT","region":"Katsushika","lat":35.714252,"lng":139.854935},{"店舗名":"TONG DOKAN","住所":"〒124-0024","ステータス":"RECEIPT","region":"Katsushika","lat":35.714252,"lng":139.854935},{"店舗名":"【カラダが喜ぶオムライスCafe】Egg House～新小岩店～","住所":"〒124-0024 東京都葛飾区新小岩","ステータス":"APP_DISPLAY","region":"Katsushika","lat":35.714252,"lng":139.854935},{"店舗名":"【チキンステーキ弁当】Master Of Chicken～新小岩店～","住所":"〒124-0024 東京都葛飾区新小岩","ステータス":"APP_DISPLAY","region":"Katsushika","lat":35.714252,"lng":139.854935},{"店舗名":"そうめん専門　甚-JIN-　葛飾店","住所":"〒124-0024 東京都葛飾区新小岩１丁目","ステータス":"APP_DISPLAY","region":"Katsushika","lat":35.714252,"lng":139.854935},{"店舗名":"浪花のたこ焼 新小岩天風","住所":"〒124-0024 東京都葛飾区新小岩１丁目","ステータス":"APP_DISPLAY","region":"Katsushika","lat":35.714252,"lng":139.854935},{"店舗名":"ハッピーオーラ Happy Aura","住所":"〒124-0024 東京都葛飾区新小岩１丁目 50-1","ステータス":"APP_DISPLAY","region":"Katsushika","lat":35.715355,"lng":139.859909},{"店舗名":"マシソヨ","住所":"〒124-0024 東京都葛飾区新小岩１丁目２２番１０号","ステータス":"APP_DISPLAY","region":"Katsushika","lat":35.715,"lng":139.858444},{"店舗名":"PUB TIME","住所":"〒124-0024 東京都葛飾区新小岩１丁目２４−５ 大和商住ビル","ステータス":"APP_DISPLAY","region":"Katsushika","lat":35.715519,"lng":139.857727},{"店舗名":"BHINTUNA DINING","住所":"〒124-0024 東京都葛飾区新小岩１丁目２４−５ 大和商住ビル","ステータス":"APP_DISPLAY","region":"Katsushika","lat":35.715519,"lng":139.857727},{"店舗名":"Bar Zero","住所":"〒124-0024 東京都葛飾区新小岩１丁目２４−６ 2階","ステータス":"APP_DISPLAY","region":"Katsushika","lat":35.715538,"lng":139.857864},{"店舗名":"カラオケBar","住所":"〒124-0024 東京都葛飾区新小岩１丁目２４−９","ステータス":"APP_DISPLAY","region":"Katsushika","lat":35.715214,"lng":139.857895},{"店舗名":"炭焼酒場 鶏あえず","住所":"〒124-0024 東京都葛飾区新小岩１丁目２６−１７","ステータス":"APP_DISPLAY","region":"Katsushika","lat":35.71529,"lng":139.857285},{"店舗名":"どるばこ","住所":"〒124-0024 東京都葛飾区新小岩１丁目２８−７ ワールドビル 1F","ステータス":"APP_DISPLAY","region":"Katsushika","lat":35.715622,"lng":139.857773},{"店舗名":"阿松麻辣烫 炸串","住所":"〒124-0024 東京都葛飾区新小岩１丁目２８−８","ステータス":"APP_DISPLAY","region":"Katsushika","lat":35.715523,"lng":139.857635},{"店舗名":"広島お好み焼き　松亭","住所":"〒124-0024 東京都葛飾区新小岩１丁目２９−１０","ステータス":"APP_DISPLAY","region":"Katsushika","lat":35.715843,"lng":139.857681},{"店舗名":"牛海道","住所":"〒124-0024 東京都葛飾区新小岩1丁目29-5","ステータス":"APP_DISPLAY","region":"Katsushika","lat":35.716072,"lng":139.857941},{"店舗名":"自家製スパイスカレー＆バングラデシュ料理LAILYライリー","住所":"〒124-0024 東京都葛飾区新小岩１丁目２９−５","ステータス":"APP_DISPLAY","region":"Katsushika","lat":35.716072,"lng":139.857941},{"店舗名":"【からあげグランプリ金賞受賞】 とりいちず 新小岩店 Toriichizu Shinkoiwaten","住所":"〒124-0024 東京都葛飾区新小岩１丁目２９−８","ステータス":"APP_DISPLAY","region":"Katsushika","lat":35.715759,"lng":139.857956},{"店舗名":"周黒鴨大夫人 新小岩7号店","住所":"〒124-0024 東京都葛飾区新小岩１丁目２９−８","ステータス":"APP_DISPLAY","region":"Katsushika","lat":35.715759,"lng":139.857956},{"店舗名":"鑫燃麻辣烫刀削麺串焼 Kinnen","住所":"〒124-0024 東京都葛飾区新小岩１丁目３０−１０","ステータス":"APP_DISPLAY","region":"Katsushika","lat":35.715454,"lng":139.858215},{"店舗名":"鑫燃烧烤 麻辣湯","住所":"〒124-0024 東京都葛飾区新小岩１丁目３０−１０","ステータス":"APP_DISPLAY","region":"Katsushika","lat":35.715454,"lng":139.858215},{"店舗名":"鑫燃麻辣烫刀削面烧烤","住所":"〒124-0024 東京都葛飾区新小岩１丁目３０−１０ 新吉本店ビル","ステータス":"APP_DISPLAY","region":"Katsushika","lat":35.715454,"lng":139.858215},{"店舗名":"串屋横丁","住所":"〒124-0024 東京都葛飾区新小岩１丁目３０−１０ 新吉本店ビル","ステータス":"APP_DISPLAY","region":"Katsushika","lat":35.715454,"lng":139.858215},{"店舗名":"焼肉一山","住所":"〒124-0024 東京都葛飾区新小岩１丁目３０−１０ 新吉本店ビル2階","ステータス":"APP_DISPLAY","region":"Katsushika","lat":35.715454,"lng":139.858215},{"店舗名":"陽陽中国物産店","住所":"〒124-0024 東京都葛飾区新小岩１丁目３１−１","ステータス":"APP_DISPLAY","region":"Katsushika","lat":35.715183,"lng":139.858368},{"店舗名":"林家","住所":"〒124-0024 東京都葛飾区新小岩１丁目３２−２","ステータス":"APP_DISPLAY","region":"Katsushika","lat":35.715031,"lng":139.858521},{"店舗名":"山盛りから揚げキング 新小岩店","住所":"〒124-0024 東京都葛飾区新小岩１丁目３７−６","ステータス":"APP_DISPLAY","region":"Katsushika","lat":35.714626,"lng":139.860519},{"店舗名":"東京アサイーボウル新小岩店","住所":"〒124-0024 東京都葛飾区新小岩１丁目３７−６","ステータス":"APP_DISPLAY","region":"Katsushika","lat":35.714626,"lng":139.860519},{"店舗名":"フライドチキン・からあげ専門店 貢食逸品","住所":"〒124-0024 東京都葛飾区新小岩１丁目３７−６","ステータス":"APP_DISPLAY","region":"Katsushika","lat":35.714626,"lng":139.860519},{"店舗名":"春巻専門店 東京はるまき 新小岩店","住所":"〒124-0024 東京都葛飾区新小岩１丁目３７−６","ステータス":"APP_DISPLAY","region":"Katsushika","lat":35.714626,"lng":139.860519},{"店舗名":"ちよだ鮨 ルミエール店","住所":"〒124-0024 東京都葛飾区新小岩１丁目３７−８","ステータス":"APP_DISPLAY","region":"Katsushika","lat":35.714508,"lng":139.860733},{"店舗名":"串カツ田中 新小岩店","住所":"〒124-0024 東京都葛飾区新小岩１丁目３８−５","ステータス":"APP_DISPLAY","region":"Katsushika","lat":35.714828,"lng":139.860123},{"店舗名":"大盛スタミナ肉丼 ニンニク野郎 新小岩店","住所":"〒124-0024 東京都葛飾区新小岩１丁目３８−５ カナヤビル","ステータス":"APP_DISPLAY","region":"Katsushika","lat":35.714828,"lng":139.860123},{"店舗名":"【台湾軽食&タピオカ】TOKI SEVEN TEA&台湾ジーパイ、自家製からあげ、特製フルーツティー 新小岩店","住所":"〒124-0024 東京都葛飾区新小岩１丁目３８−８ 石毛ビル","ステータス":"APP_DISPLAY","region":"Katsushika","lat":35.714779,"lng":139.860428},{"店舗名":"ROCK鶏　自家製台湾ジーパイ・台湾唐揚げ　新小岩","住所":"〒124-0024 東京都葛飾区新小岩１丁目３８−８ 石毛ビル","ステータス":"APP_DISPLAY","region":"Katsushika","lat":35.714779,"lng":139.860428},{"店舗名":"アサイーボウル専門店 ACAI MANIA アサイーマニア","住所":"〒124-0024 東京都葛飾区新小岩１丁目３８−９","ステータス":"APP_DISPLAY","region":"Katsushika","lat":35.714668,"lng":139.860443},{"店舗名":"超濃厚プレミアムバナナジュース専門店 BANANA MANIA バナナマニア","住所":"〒124-0024 東京都葛飾区新小岩１丁目３８−９ 寿楽ビル","ステータス":"APP_DISPLAY","region":"Katsushika","lat":35.714668,"lng":139.860443},{"店舗名":"こいわ軒","住所":"〒124-0024 東京都葛飾区新小岩１丁目４０−１２","ステータス":"APP_DISPLAY","region":"Katsushika","lat":35.714966,"lng":139.859497},{"店舗名":"アカマル屋 新小岩店","住所":"〒124-0024 東京都葛飾区新小岩１丁目４０−７","ステータス":"APP_DISPLAY","region":"Katsushika","lat":35.715435,"lng":139.859711},{"店舗名":"ゴールデンポテト 新小岩店","住所":"〒124-0024 東京都葛飾区新小岩１丁目４０−７","ステータス":"APP_DISPLAY","region":"Katsushika","lat":35.715435,"lng":139.859711},{"店舗名":"炭火焼鳥とりまる 新小岩店","住所":"〒124-0024 東京都葛飾区新小岩１丁目４０−７","ステータス":"APP_DISPLAY","region":"Katsushika","lat":35.715435,"lng":139.859711},{"店舗名":"モンゴルダイニングミシェール","住所":"〒124-0024 東京都葛飾区新小岩１丁目４１−１１ トラットリアフクシマ","ステータス":"APP_DISPLAY","region":"Katsushika","lat":35.715286,"lng":139.859299},{"店舗名":"『肉しみず』新小岩店 niku","住所":"〒124-0024 東京都葛飾区新小岩１丁目４２−１２","ステータス":"APP_DISPLAY","region":"Katsushika","lat":35.715492,"lng":139.858902},{"店舗名":"カマロチキン 新小岩店","住所":"〒124-0024 東京都葛飾区新小岩１丁目４２-８","ステータス":"APP_DISPLAY","region":"Katsushika","lat":35.715858,"lng":139.859253},{"店舗名":"熱中酒場 夢吉 新小岩店","住所":"〒124-0024 東京都葛飾区新小岩１丁目４２−８","ステータス":"APP_DISPLAY","region":"Katsushika","lat":35.715858,"lng":139.859253},{"店舗名":"中華食堂一番館 新小岩店","住所":"〒124-0024 東京都葛飾区新小岩１丁目４２−８ 第49東京ビル","ステータス":"APP_DISPLAY","region":"Katsushika","lat":35.715858,"lng":139.859253},{"店舗名":"クラブ ラフェスタ（フィリピンクラブ）","住所":"〒124-0024 東京都葛飾区新小岩１丁目４３-１","ステータス":"APP_DISPLAY","region":"Katsushika","lat":35.715778,"lng":139.858536},{"店舗名":"貴州火鍋","住所":"〒124-0024 東京都葛飾区新小岩１丁目４３−１","ステータス":"RECEIPT","region":"Katsushika","lat":35.715778,"lng":139.858536},{"店舗名":"吉野家 新小岩駅前店","住所":"〒124-0024 東京都葛飾区新小岩１丁目４３−３","ステータス":"APP_DISPLAY","region":"Katsushika","lat":35.716019,"lng":139.858398},{"店舗名":"屋台屋くろちゃん 新小岩店","住所":"〒124-0024 東京都葛飾区新小岩１丁目４３ー８","ステータス":"APP_DISPLAY","region":"Katsushika","lat":35.716122,"lng":139.858963},{"店舗名":"リンガーハット 新小岩南口店","住所":"〒124-0024 東京都葛飾区新小岩１丁目４３−４","ステータス":"APP_DISPLAY","region":"Katsushika","lat":35.716103,"lng":139.858521},{"店舗名":"香港亭（新小岩店）","住所":"〒124-0024 東京都葛飾区新小岩１丁目４４−２","ステータス":"APP_DISPLAY","region":"Katsushika","lat":35.716579,"lng":139.857941},{"店舗名":"すしみさき 新小岩店","住所":"〒124-0024 東京都葛飾区新小岩１丁目４４−３","ステータス":"APP_DISPLAY","region":"Katsushika","lat":35.71648,"lng":139.858047},{"店舗名":"アンテンドゥ シャポー新小岩店","住所":"〒124-0024 東京都葛飾区新小岩１丁目４５−１","ステータス":"APP_DISPLAY","region":"Katsushika","lat":35.717091,"lng":139.858231},{"店舗名":"キュンちゃん","住所":"〒124-0024 東京都葛飾区新小岩１丁目４８−１６","ステータス":"APP_DISPLAY","region":"Katsushika","lat":35.716114,"lng":139.859756},{"店舗名":"ケンタッキーフライドチキン 新小岩店","住所":"〒124-0024 東京都葛飾区新小岩１丁目４８−５","ステータス":"APP_DISPLAY","region":"Katsushika","lat":35.716267,"lng":139.858917},{"店舗名":"王府餃子酒場 新小岩店","住所":"〒124-0024 東京都葛飾区新小岩１丁目４８−９ 桜ビル","ステータス":"APP_DISPLAY","region":"Katsushika","lat":35.716614,"lng":139.859299},{"店舗名":"0秒レモンサワー 仙台ホルモン焼肉酒場 ときわ亭 新小岩店","住所":"〒124-0024 東京都葛飾区新小岩１丁目４８−９ 桜ビル 2F","ステータス":"APP_DISPLAY","region":"Katsushika","lat":35.716614,"lng":139.859299},{"店舗名":"韓国旨辛カルビクッパの大魔王 新小岩店","住所":"〒124-0024 東京都葛飾区新小岩１丁目４８−９ 桜ビル 2F","ステータス":"APP_DISPLAY","region":"Katsushika","lat":35.716614,"lng":139.859299},{"店舗名":"仙台ときわ亭発 飲める和牛すき焼き丼 新小岩店","住所":"〒124-0024 東京都葛飾区新小岩１丁目４８−９ 桜ビル 2F","ステータス":"APP_DISPLAY","region":"Katsushika","lat":35.716614,"lng":139.859299},{"店舗名":"信じて混ぜれば美味しいときわのビビンバ 新小岩店","住所":"〒124-0024 東京都葛飾区新小岩１丁目４８−９ 桜ビル 2F","ステータス":"APP_DISPLAY","region":"Katsushika","lat":35.716614,"lng":139.859299},{"店舗名":"仙台本家 たんとはらみ、ときどきかるび。新小岩店","住所":"〒124-0024 東京都葛飾区新小岩１丁目４８−９ 桜ビル 2F","ステータス":"APP_DISPLAY","region":"Katsushika","lat":35.716614,"lng":139.859299},{"店舗名":"かっぱ寿司 新小岩ルミエール店","住所":"〒124-0024 東京都葛飾区新小岩１丁目４９−１","ステータス":"APP_DISPLAY","region":"Katsushika","lat":35.715572,"lng":139.85968},{"店舗名":"丼ぶり専門 清水港 バンノウ水産 新小岩ルミエール店","住所":"〒124-0024 東京都葛飾区新小岩１丁目４９−１","ステータス":"APP_DISPLAY","region":"Katsushika","lat":35.715572,"lng":139.85968},{"店舗名":"キッチン　MIYAKE","住所":"〒124-0024 東京都葛飾区新小岩１丁目４９−１２","ステータス":"APP_DISPLAY","region":"Katsushika","lat":35.715809,"lng":139.860107},{"店舗名":"仙台牛タンと鮮魚の居酒屋 燈 新小岩店","住所":"〒124-0024 東京都葛飾区新小岩１丁目４９−３","ステータス":"APP_DISPLAY","region":"Katsushika","lat":35.715759,"lng":139.859467},{"店舗名":"濃厚ローストビーフとハラミ丼「タルビー」 新小岩店 Roast Beef & Harami Tarbii","住所":"〒124-0024 東京都葛飾区新小岩１丁目４９−３ 第94東京ビル 4f","ステータス":"APP_DISPLAY","region":"Katsushika","lat":35.715759,"lng":139.859467},{"店舗名":"【ニンニク&絶品パスタ】漢のペペロンチーノ 新小岩店 Otokono Peperoncino","住所":"〒124-0024 東京都葛飾区新小岩１丁目４９−３ 第94東京ビル 4f","ステータス":"APP_DISPLAY","region":"Katsushika","lat":35.715759,"lng":139.859467},{"店舗名":"自家製麺 啜乱会 Susurankai","住所":"〒124-0024 東京都葛飾区新小岩１丁目５０-１２","ステータス":"APP_DISPLAY","region":"Katsushika","lat":35.715492,"lng":139.860214},{"店舗名":"【創作スパイスカレー】Family Tree","住所":"〒124-0024 東京都葛飾区新小岩１丁目５０−５","ステータス":"APP_DISPLAY","region":"Katsushika","lat":35.715691,"lng":139.860062},{"店舗名":"ラーメンつづき新小岩店","住所":"〒124-0024 東京都葛飾区新小岩１丁目５１−１","ステータス":"APP_DISPLAY","region":"Katsushika","lat":35.714809,"lng":139.860504},{"店舗名":"バンコクオーキッド","住所":"〒124-0024 東京都葛飾区新小岩１丁目５１−１","ステータス":"APP_DISPLAY","region":"Katsushika","lat":35.714809,"lng":139.860504},{"店舗名":"満洲園 新小岩","住所":"〒124-0024 東京都葛飾区新小岩１丁目５１−１３","ステータス":"APP_DISPLAY","region":"Katsushika","lat":35.715405,"lng":139.860886},{"店舗名":"東京バンビ","住所":"〒124-0024 東京都葛飾区新小岩１丁目５１−４","ステータス":"APP_DISPLAY","region":"Katsushika","lat":35.715096,"lng":139.860184},{"店舗名":"麦100%","住所":"〒124-0024 東京都葛飾区新小岩１丁目５２−１ 新小岩芹川第２ビル","ステータス":"APP_DISPLAY","region":"Katsushika","lat":35.714973,"lng":139.860992},{"店舗名":"老媽四川料理（舒氏老媽蹄花）","住所":"〒124-0024 東京都葛飾区新小岩１丁目５２−２","ステータス":"APP_DISPLAY","region":"Katsushika","lat":35.715073,"lng":139.86113},{"店舗名":"タキト","住所":"〒124-0024 東京都葛飾区新小岩１丁目５３−１５","ステータス":"APP_DISPLAY","region":"Katsushika","lat":35.714615,"lng":139.860718},{"店舗名":"Shinkoiwa Halal Food & Kebab","住所":"〒124-0024 東京都葛飾区新小岩１丁目５３−３","ステータス":"APP_DISPLAY","region":"Katsushika","lat":35.714882,"lng":139.86087},{"店舗名":"貴州火鍋","住所":"〒124-0024 東京都葛飾区新小岩１丁目５５−１","ステータス":"APP_DISPLAY","region":"Katsushika","lat":35.714436,"lng":139.861572},{"店舗名":"閩安商店","住所":"〒124-0024 東京都葛飾区新小岩１丁目５６−１","ステータス":"APP_DISPLAY","region":"Katsushika","lat":35.713104,"lng":139.86235},{"店舗名":"韓国料理 和韓内 こぴちゃんの家","住所":"〒124-0024 東京都葛飾区新小岩１丁目５６−１０","ステータス":"APP_DISPLAY","region":"Katsushika","lat":35.713978,"lng":139.862366},{"店舗名":"バインミーゴンゴン 新小岩店","住所":"〒124-0024 東京都葛飾区新小岩１丁目５６−５","ステータス":"APP_DISPLAY","region":"Katsushika","lat":35.71352,"lng":139.861908},{"店舗名":"あげまる","住所":"〒124-0024 東京都葛飾区新小岩１丁目５６−７","ステータス":"APP_DISPLAY","region":"Katsushika","lat":35.713726,"lng":139.862015},{"店舗名":"パイラキッチン","住所":"〒124-0024 東京都葛飾区新小岩２丁目","ステータス":"RECEIPT","region":"Katsushika","lat":35.715977,"lng":139.862183},{"店舗名":"Adibaバングラカリー＆バー新小岩","住所":"〒124-0024 東京都葛飾区新小岩２丁目１０−２","ステータス":"APP_DISPLAY","region":"Katsushika","lat":35.715446,"lng":139.861099},{"店舗名":"聚楽飯店","住所":"〒124-0024 東京都葛飾区新小岩２丁目１−１９","ステータス":"APP_DISPLAY","region":"Katsushika","lat":35.717484,"lng":139.860611},{"店舗名":"聚楽飯店","住所":"〒124-0024 東京都葛飾区新小岩２丁目１−１９","ステータス":"APP_DISPLAY","region":"Katsushika","lat":35.717484,"lng":139.860611},{"店舗名":"【腸活アサイーボウルがおすすめ✨】ベスティーズ東京 Besties Tokyo","住所":"〒124-0024 東京都葛飾区新小岩２丁目１５−１０","ステータス":"APP_DISPLAY","region":"Katsushika","lat":35.715782,"lng":139.862488},{"店舗名":"黒碗","住所":"〒124-0024 東京都葛飾区新小岩２丁目２１−６","ステータス":"APP_DISPLAY","region":"Katsushika","lat":35.717876,"lng":139.862045},{"店舗名":"Patisserie dingo","住所":"〒124-0024 東京都葛飾区新小岩２丁目２６－７","ステータス":"APP_DISPLAY","region":"Katsushika","lat":35.717052,"lng":139.863098},{"店舗名":"クイーンガーデン新小岩QueenGarden","住所":"〒124-0024 東京都葛飾区新小岩２丁目３１−４","ステータス":"APP_DISPLAY","region":"Katsushika","lat":35.715626,"lng":139.863052},{"店舗名":"サムブリディ","住所":"〒124-0024 東京都葛飾区新小岩２丁目３−３","ステータス":"APP_DISPLAY","region":"Katsushika","lat":35.717621,"lng":139.861237},{"店舗名":"Bar Feast","住所":"〒124-0024 東京都葛飾区新小岩２丁目４−２","ステータス":"APP_DISPLAY","region":"Katsushika","lat":35.717323,"lng":139.860687},{"店舗名":"【アサイーボウル】ALOHA SPOON ～Acai bowl cafe～ 新小岩2丁目店","住所":"〒124-0024 東京都葛飾区新小岩２丁目４−２","ステータス":"APP_DISPLAY","region":"Katsushika","lat":35.717323,"lng":139.860687},{"店舗名":"【韓国フローズンヨーグルトアイスボウル】Yoppo！ 新小岩2丁目店","住所":"〒124-0024 東京都葛飾区新小岩２丁目４−２","ステータス":"APP_DISPLAY","region":"Katsushika","lat":35.717323,"lng":139.860687},{"店舗名":"【アサイーとフルーツスムージーボウル】Nutrivive Fruit＆Acai 新小岩2丁目店","住所":"〒124-0024 東京都葛飾区新小岩２丁目４−２","ステータス":"APP_DISPLAY","region":"Katsushika","lat":35.717323,"lng":139.860687},{"店舗名":"好喝麻辣湯(ハオフーマーラータン) 新小岩2丁目店","住所":"〒124-0024 東京都葛飾区新小岩２丁目４−２","ステータス":"APP_DISPLAY","region":"Katsushika","lat":35.717323,"lng":139.860687},{"店舗名":"【ご飯300gまで無料】とんかつ とん彩 新小岩2丁目店","住所":"〒124-0024 東京都葛飾区新小岩２丁目４−２","ステータス":"APP_DISPLAY","region":"Katsushika","lat":35.717323,"lng":139.860687},{"店舗名":"自然派ネバとろばくだん食堂","住所":"〒124-0024 東京都葛飾区新小岩２丁目４−２","ステータス":"APP_DISPLAY","region":"Katsushika","lat":35.717323,"lng":139.860687},{"店舗名":"香麗麻辣湯(シャンリーマーラータン)","住所":"〒124-0024 東京都葛飾区新小岩２丁目４−２","ステータス":"APP_DISPLAY","region":"Katsushika","lat":35.717323,"lng":139.860687},{"店舗名":"OWL TEA","住所":"〒124-0024 東京都葛飾区新小岩２丁目４−２","ステータス":"APP_DISPLAY","region":"Katsushika","lat":35.717323,"lng":139.860687},{"店舗名":"島田のラーメン庄二郎","住所":"〒124-0024 東京都葛飾区新小岩２丁目４−２","ステータス":"APP_DISPLAY","region":"Katsushika","lat":35.717323,"lng":139.860687},{"店舗名":"【旨辛ナッコプセの韓国食堂】モグナッコプセ","住所":"〒124-0024 東京都葛飾区新小岩２丁目４−２","ステータス":"APP_DISPLAY","region":"Katsushika","lat":35.717323,"lng":139.860687},{"店舗名":"ボックスチュロス~churros time","住所":"〒124-0024 東京都葛飾区新小岩２丁目４−２","ステータス":"APP_DISPLAY","region":"Katsushika","lat":35.717323,"lng":139.860687},{"店舗名":"背徳ご褒美クレープ！CREPE FACTORY","住所":"〒124-0024 東京都葛飾区新小岩２丁目４−２","ステータス":"APP_DISPLAY","region":"Katsushika","lat":35.717323,"lng":139.860687},{"店舗名":"アイスクレープ クロッカンテ","住所":"〒124-0024 東京都葛飾区新小岩２丁目４−２","ステータス":"APP_DISPLAY","region":"Katsushika","lat":35.717323,"lng":139.860687},{"店舗名":"とじないカツ丼とカツ茶漬け 勝穂庵(かつほあん)","住所":"〒124-0024 東京都葛飾区新小岩２丁目４−２","ステータス":"APP_DISPLAY","region":"Katsushika","lat":35.717323,"lng":139.860687},{"店舗名":"こだわりの熟成牛ハラミ丼","住所":"〒124-0024 東京都葛飾区新小岩２丁目４−２","ステータス":"APP_DISPLAY","region":"Katsushika","lat":35.717323,"lng":139.860687},{"店舗名":"鶏白湯カレー 鶏のバイブス","住所":"〒124-0024 東京都葛飾区新小岩２丁目４−２","ステータス":"APP_DISPLAY","region":"Katsushika","lat":35.717323,"lng":139.860687},{"店舗名":"Macaron Cherie Tokyo（マカロンシェリー）","住所":"〒124-0024 東京都葛飾区新小岩２丁目５−１４","ステータス":"APP_DISPLAY","region":"Katsushika","lat":35.716713,"lng":139.861008},{"店舗名":"ニュー マリカ","住所":"〒124-0024 東京都葛飾区新小岩２丁目７−４ サンシティ新小岩","ステータス":"APP_DISPLAY","region":"Katsushika","lat":35.716465,"lng":139.859985},{"店舗名":"御猫榴 ロイヤルキャットドリアン","住所":"〒124-0024 東京都葛飾区新小岩２丁目８−１ 第１ＳＴグランパ","ステータス":"APP_DISPLAY","region":"Katsushika","lat":35.716423,"lng":139.860504},{"店舗名":"ロサンゼルス発 新食感フライドチキン専門店 ゴーゴーバード","住所":"〒124-0024 東京都葛飾区新小岩４丁目１０−１","ステータス":"APP_DISPLAY","region":"Katsushika","lat":35.718304,"lng":139.861679},{"店舗名":"エバーグリーン 新小岩店","住所":"〒124-0024 東京都葛飾区新小岩４丁目８−１１ マーチビル","ステータス":"APP_DISPLAY","region":"Katsushika","lat":35.718475,"lng":139.862793},{"店舗名":"麻辣湯 マーラータン 極品辣味","住所":"〒124-0024 東京都葛飾区新小岩一丁目５４番７号","ステータス":"APP_DISPLAY","region":"Katsushika","lat":35.714111,"lng":139.861267},{"店舗名":"貴州火鍋","住所":"〒124-0024 東京都葛飾区新小岩一丁目55番1号112号","ステータス":"APP_DISPLAY","region":"Katsushika","lat":35.714436,"lng":139.861572},{"店舗名":"炎丸酒場新小岩北口店","住所":"〒124-0025","ステータス":"RECEIPT","region":"Katsushika","lat":35.715641,"lng":139.85379},{"店舗名":"らあめん花月嵐　新小岩北口店","住所":"〒124-0025 東京都葛飾区西新小岩１丁目１０−２","ステータス":"APP_DISPLAY","region":"Katsushika","lat":35.717583,"lng":139.857697},{"店舗名":"美味業務スーパー新小岩駅前店","住所":"〒124-0025 東京都葛飾区西新小岩１丁目２−１１","ステータス":"APP_DISPLAY","region":"Katsushika","lat":35.717426,"lng":139.857635},{"店舗名":"美味キッチン新小岩駅前","住所":"〒124-0025 東京都葛飾区西新小岩１丁目２−１１ キクヤビル","ステータス":"APP_DISPLAY","region":"Katsushika","lat":35.717426,"lng":139.857635},{"店舗名":"ドネルケバブ新小岩駅前 Doner Kebab Shinkoiwa","住所":"〒124-0025 東京都葛飾区西新小岩１丁目２−１１ キクヤビル","ステータス":"APP_DISPLAY","region":"Katsushika","lat":35.717426,"lng":139.857635},{"店舗名":"アジアンダイニング居酒屋 タカリ バンチャガル","住所":"〒124-0025 東京都葛飾区西新小岩１丁目２−６ オゾンビル","ステータス":"APP_DISPLAY","region":"Katsushika","lat":35.717312,"lng":139.85704},{"店舗名":"七宝麻辣湯(チーパオマーラータン) 新小岩店","住所":"〒124-0025 東京都葛飾区西新小岩１丁目８−１０","ステータス":"APP_DISPLAY","region":"Katsushika","lat":35.718208,"lng":139.857513},{"店舗名":"アイスは別腹","住所":"〒124-0025 東京都葛飾区西新小岩１丁目８−８","ステータス":"APP_DISPLAY","region":"Katsushika","lat":35.718418,"lng":139.857635},{"店舗名":"チョアチキン新小岩北口店","住所":"〒124-0025 東京都葛飾区西新小岩１丁目９−２","ステータス":"APP_DISPLAY","region":"Katsushika","lat":35.717911,"lng":139.857361},{"店舗名":"沖縄そば もとぶ熟成麺","住所":"〒124-0025 東京都葛飾区西新小岩１丁目９−２ 新小岩北口東食ﾋﾞﾙ","ステータス":"RECEIPT","region":"Katsushika","lat":35.717911,"lng":139.857361},{"店舗名":"おはな丼丸 新小岩北口店","住所":"〒124-0025 東京都葛飾区西新小岩１丁目９−２ 新小岩北口東食ﾋﾞﾙ","ステータス":"APP_DISPLAY","region":"Katsushika","lat":35.717911,"lng":139.857361},{"店舗名":"すき家 新小岩店","住所":"〒124-0025 東京都葛飾区西新小岩１丁目９−７","ステータス":"PENDING","region":"Katsushika","lat":35.718246,"lng":139.857803},{"店舗名":"炭火名匠","住所":"〒124-0025 東京都葛飾区西新小岩１丁目９−７","ステータス":"APP_DISPLAY","region":"Katsushika","lat":35.718246,"lng":139.857803},{"店舗名":"WAN KOIWA DOG caffe 犬小岩 喫茶","住所":"〒124-0025 東京都葛飾区西新小岩４丁目２５−２３","ステータス":"APP_DISPLAY","region":"Katsushika","lat":35.722115,"lng":139.853226},{"店舗名":"ドミノ・ピザ 西新小岩店","住所":"〒124-0025 東京都葛飾区西新小岩５丁目２３−３","ステータス":"APP_DISPLAY","region":"Katsushika","lat":35.725792,"lng":139.850281},{"店舗名":"自家製麺 うどん 五葵（ITSUKI）","住所":"〒125-0002 東京都葛飾区西亀有３丁目２０−１４","ステータス":"APP_DISPLAY","region":"Katsushika","lat":35.76001,"lng":139.840225},{"店舗名":"屋台鉄板 三寸 yataiteppan sanzun","住所":"〒125-0002 東京都葛飾区西亀有３丁目２３−１４ アクシス西亀有 1階","ステータス":"APP_DISPLAY","region":"Katsushika","lat":35.761745,"lng":139.839645},{"店舗名":"アスタマニァーナ","住所":"〒125-0002 東京都葛飾区西亀有３丁目２４−１２","ステータス":"APP_DISPLAY","region":"Katsushika","lat":35.76273,"lng":139.839523},{"店舗名":"神唐亀有店 jinkarakameariten","住所":"〒125-0002 東京都葛飾区西亀有３丁目３９−１３","ステータス":"APP_DISPLAY","region":"Katsushika","lat":35.761845,"lng":139.842056},{"店舗名":"ホルモン焼 豊司","住所":"〒125-0002 東京都葛飾区西亀有３丁目３９−１３","ステータス":"APP_DISPLAY","region":"Katsushika","lat":35.761845,"lng":139.842056},{"店舗名":"みそだれカツ専門店 おぢや","住所":"〒125-0002 東京都葛飾区西亀有４丁目２３−２２ フジコーポ","ステータス":"APP_DISPLAY","region":"Katsushika","lat":35.764626,"lng":139.842361},{"店舗名":"【地元葛飾野菜を使用】カフェサンワイズ","住所":"〒125-0031 東京都葛飾区西水元２丁目１１−１７","ステータス":"APP_DISPLAY","region":"Katsushika","lat":35.785542,"lng":139.850647},{"店舗名":"博多からあげ響 葛飾店","住所":"〒125-0031 東京都葛飾区西水元４丁目１７−２２","ステータス":"APP_DISPLAY","region":"Katsushika","lat":35.791954,"lng":139.850357},{"店舗名":"タクカフェ","住所":"〒125-0031 東京都葛飾区西水元５丁目１３−１４ 鳳自動車","ステータス":"APP_DISPLAY","region":"Katsushika","lat":35.786236,"lng":139.855774},{"店舗名":"パン屋あんどキッチン　朝と昼と夜","住所":"〒125-0032 東京都葛飾区水元","ステータス":"APP_DISPLAY","region":"Katsushika","lat":35.781891,"lng":139.856842},{"店舗名":"もんじゃOHANA水元店","住所":"〒125-0032 東京都葛飾区水元２丁目１−１９","ステータス":"APP_DISPLAY","region":"Katsushika","lat":35.783722,"lng":139.854538},{"店舗名":"かどのタピオカやさん","住所":"〒125-0032 東京都葛飾区水元２丁目１６−１１","ステータス":"APP_DISPLAY","region":"Katsushika","lat":35.786152,"lng":139.858398},{"店舗名":"The Works Bagel(ｻﾞ･ﾜｰｸｽ ﾍﾞｰｸﾞﾙ)","住所":"〒125-0032 東京都葛飾区水元２丁目５−１１","ステータス":"APP_DISPLAY","region":"Katsushika","lat":35.785172,"lng":139.856262},{"店舗名":"食事処高雅こうが","住所":"〒125-0032 東京都葛飾区水元２丁目５−５","ステータス":"APP_DISPLAY","region":"Katsushika","lat":35.785019,"lng":139.855316},{"店舗名":"焼肉南山 金町店","住所":"〒125-0032 東京都葛飾区水元３丁目１−２３ベルデパラッツオ","ステータス":"APP_DISPLAY","region":"Katsushika","lat":35.78043,"lng":139.861023},{"店舗名":"ケーキ屋 Patisserie Le Clair （パティスリー・ル・クレール）金町","住所":"〒125-0032 東京都葛飾区水元３丁目２２−２２","ステータス":"APP_DISPLAY","region":"Katsushika","lat":35.780914,"lng":139.865768},{"店舗名":"【アサイーボウル】ALOHA SPOON ～Acai bowl cafe～ 水元店","住所":"〒125-0032 東京都葛飾区水元３丁目２２−２２","ステータス":"APP_DISPLAY","region":"Katsushika","lat":35.780914,"lng":139.865768},{"店舗名":"pâtisserie ECRIN DOUX","住所":"〒125-0033 東京都葛飾区東水元１丁目１８−２７","ステータス":"APP_DISPLAY","region":"Katsushika","lat":35.775856,"lng":139.869965},{"店舗名":"【フルーツたっぷりアサイーボウル】どんぐり","住所":"〒125-0033 東京都葛飾区東水元１丁目１９−９ どんぐり","ステータス":"APP_DISPLAY","region":"Katsushika","lat":35.776051,"lng":139.871597},{"店舗名":"森のケーキ屋 どんぐり morinocakeyadonguri","住所":"〒125-0033 東京都葛飾区東水元１丁目１９−９ どんぐり","ステータス":"APP_DISPLAY","region":"Katsushika","lat":35.776051,"lng":139.871597},{"店舗名":"【自家製タピオカ】良品黒糖 Black Sugar","住所":"〒125-0033 東京都葛飾区東水元３丁目１−５","ステータス":"APP_DISPLAY","region":"Katsushika","lat":35.781124,"lng":139.866806},{"店舗名":"名物餃子 哈爾濱飯店ハルピン","住所":"〒125-0033 東京都葛飾区東水元３丁目１−５","ステータス":"APP_DISPLAY","region":"Katsushika","lat":35.781124,"lng":139.866806},{"店舗名":"龍鳳飯店 Ryuhouhanten","住所":"〒125-0035 東京都葛飾区南水元１丁目２３−１２","ステータス":"APP_DISPLAY","region":"Katsushika","lat":35.776337,"lng":139.86026},{"店舗名":"スバーアランバ","住所":"〒125-0035 東京都葛飾区南水元１丁目２７−１","ステータス":"APP_DISPLAY","region":"Katsushika","lat":35.774712,"lng":139.860443},{"店舗名":"青山餃子房 金町店","住所":"〒125-0035 東京都葛飾区南水元１丁目２７−１","ステータス":"APP_DISPLAY","region":"Katsushika","lat":35.774712,"lng":139.860443},{"店舗名":"京都北白川 ラーメン魁力屋 葛飾南水元店","住所":"〒125-0035 東京都葛飾区南水元２丁目２１−７","ステータス":"APP_DISPLAY","region":"Katsushika","lat":35.779903,"lng":139.857452},{"店舗名":"すき家 葛飾南水元店","住所":"〒125-0035 東京都葛飾区南水元２丁目３０−５","ステータス":"PENDING","region":"Katsushika","lat":35.779903,"lng":139.858368},{"店舗名":"かぎしっぽ","住所":"〒125-0035 東京都葛飾区南水元４丁目５−２１","ステータス":"APP_DISPLAY","region":"Katsushika","lat":35.778835,"lng":139.861618},{"店舗名":"元祖台湾まぜそば麺屋はなびエクスプレス 葛飾金町店","住所":"〒125-0041 東京都葛飾区東金町","ステータス":"APP_DISPLAY","region":"Katsushika","lat":35.770763,"lng":139.86908},{"店舗名":"ぶんぶく庵","住所":"〒125-0041 東京都葛飾区東金町１丁目","ステータス":"APP_DISPLAY","region":"Katsushika","lat":35.770763,"lng":139.86908},{"店舗名":"HANAMEKI マークイズ葛飾金町店","住所":"〒125-0041 東京都葛飾区東金町１丁目１０−１","ステータス":"APP_DISPLAY","region":"Katsushika","lat":35.770592,"lng":139.866837},{"店舗名":"ガンジス川 MARK IS 葛飾かなまち店","住所":"〒125-0041 東京都葛飾区東金町１丁目１０−１","ステータス":"APP_DISPLAY","region":"Katsushika","lat":35.770592,"lng":139.866837},{"店舗名":"リンガーハット MARK IS 葛飾かなまち店","住所":"〒125-0041 東京都葛飾区東金町１丁目１０−１","ステータス":"APP_DISPLAY","region":"Katsushika","lat":35.770592,"lng":139.866837},{"店舗名":"からあげ縁 MARK IS葛飾かなまち店","住所":"〒125-0041 東京都葛飾区東金町１丁目１０−１","ステータス":"APP_DISPLAY","region":"Katsushika","lat":35.770592,"lng":139.866837},{"店舗名":"サーティワンアイスクリーム MARK IS 葛飾かなまち店","住所":"〒125-0041 東京都葛飾区東金町１丁目１０−１","ステータス":"APP_DISPLAY","region":"Katsushika","lat":35.770592,"lng":139.866837},{"店舗名":"中華料理　菜香菜　金町店","住所":"〒125-0041 東京都葛飾区東金町１丁目１０−１ 321","ステータス":"APP_DISPLAY","region":"Katsushika","lat":35.770592,"lng":139.866837},{"店舗名":"汁なし担担麺専門 キング軒 MARKIS葛飾かなまち店","住所":"〒125-0041 東京都葛飾区東金町１丁目10番1号","ステータス":"APP_DISPLAY","region":"Katsushika","lat":35.770592,"lng":139.866837},{"店舗名":"丸源ラーメン 金町店","住所":"〒125-0041 東京都葛飾区東金町１丁目１１−３","ステータス":"APP_DISPLAY","region":"Katsushika","lat":35.7701,"lng":139.868286},{"店舗名":"禧寶麻辣湯","住所":"〒125-0041 東京都葛飾区東金町１丁目１１−３","ステータス":"APP_DISPLAY","region":"Katsushika","lat":35.7701,"lng":139.868286},{"店舗名":"にんにくモツライス 本店","住所":"〒125-0041 東京都葛飾区東金町１丁目１１−４","ステータス":"APP_DISPLAY","region":"Katsushika","lat":35.770203,"lng":139.868149},{"店舗名":"麺屋 綴","住所":"〒125-0041 東京都葛飾区東金町１丁目１３−１１","ステータス":"APP_DISPLAY","region":"Katsushika","lat":35.771107,"lng":139.868454},{"店舗名":"米粉100％グルテンフリー リ クレープ riz crepe","住所":"〒125-0041 東京都葛飾区東金町１丁目１３−８","ステータス":"APP_DISPLAY","region":"Katsushika","lat":35.771187,"lng":139.868256},{"店舗名":"美香苑 bikouen","住所":"〒125-0041 東京都葛飾区東金町１丁目１４−１１ 内藤ビル","ステータス":"APP_DISPLAY","region":"Katsushika","lat":35.770851,"lng":139.867722},{"店舗名":"麺や KATSU!","住所":"〒125-0041 東京都葛飾区東金町１丁目１６−２","ステータス":"APP_DISPLAY","region":"Katsushika","lat":35.771656,"lng":139.868469},{"店舗名":"インド料理シータラ","住所":"〒125-0041 東京都葛飾区東金町１丁目１７−２","ステータス":"APP_DISPLAY","region":"Katsushika","lat":35.771656,"lng":139.868835},{"店舗名":"下町ら〜めん","住所":"〒125-0041 東京都葛飾区東金町１丁目１７−７ 山二荘 102","ステータス":"APP_DISPLAY","region":"Katsushika","lat":35.772171,"lng":139.869034},{"店舗名":"韓国料理 スジャ食堂 金町店","住所":"〒125-0041 東京都葛飾区東金町１丁目１８−３ ＮＯ３ ｕｂａｎｏＢＵＩＬＤＩＮＧ","ステータス":"APP_DISPLAY","region":"Katsushika","lat":35.771061,"lng":139.868912},{"店舗名":"タイレストラン チョークディー","住所":"〒125-0041 東京都葛飾区東金町１丁目１９−６ アーバンコート","ステータス":"APP_DISPLAY","region":"Katsushika","lat":35.771389,"lng":139.868607},{"店舗名":"ゴウメン マルコ","住所":"〒125-0041 東京都葛飾区東金町１丁目２１−１","ステータス":"APP_DISPLAY","region":"Katsushika","lat":35.769932,"lng":139.869049},{"店舗名":"純喫茶シャレード","住所":"〒125-0041 東京都葛飾区東金町１丁目２１−１","ステータス":"APP_DISPLAY","region":"Katsushika","lat":35.769932,"lng":139.869049},{"店舗名":"背脂の魔術師ツボミ","住所":"〒125-0041 東京都葛飾区東金町１丁目２１−１５","ステータス":"APP_DISPLAY","region":"Katsushika","lat":35.769878,"lng":139.869202},{"店舗名":"スナック舞","住所":"〒125-0041 東京都葛飾区東金町１丁目２１−３","ステータス":"APP_DISPLAY","region":"Katsushika","lat":35.770191,"lng":139.869019},{"店舗名":"金町肉流通センター","住所":"〒125-0041 東京都葛飾区東金町１丁目２２−１０","ステータス":"APP_DISPLAY","region":"Katsushika","lat":35.769875,"lng":139.870071},{"店舗名":"吉野家 金町北口店","住所":"〒125-0041 東京都葛飾区東金町１丁目２２−１１ Actビル","ステータス":"APP_DISPLAY","region":"Katsushika","lat":35.76989,"lng":139.87027},{"店舗名":"串カツ田中 金町店","住所":"〒125-0041 東京都葛飾区東金町１丁目２４−５","ステータス":"APP_DISPLAY","region":"Katsushika","lat":35.770088,"lng":139.869766},{"店舗名":"ケンタッキーフライドチキン 金町店","住所":"〒125-0041 東京都葛飾区東金町１丁目２４−６","ステータス":"APP_DISPLAY","region":"Katsushika","lat":35.769978,"lng":139.869781},{"店舗名":"TMCY","住所":"〒125-0041 東京都葛飾区東金町１丁目３５−１３","ステータス":"APP_DISPLAY","region":"Katsushika","lat":35.772655,"lng":139.871414},{"店舗名":"罪なパフェ Guilty Parfait","住所":"〒125-0041 東京都葛飾区東金町１丁目３５−１３","ステータス":"APP_DISPLAY","region":"Katsushika","lat":35.772655,"lng":139.871414},{"店舗名":"カミナリステーキ 金町北口駅前店","住所":"〒125-0041 東京都葛飾区東金町１丁目４３−１","ステータス":"APP_DISPLAY","region":"Katsushika","lat":35.770096,"lng":139.870895},{"店舗名":"からあげの鉄人 金町北口駅前店","住所":"〒125-0041 東京都葛飾区東金町１丁目４３−１","ステータス":"APP_DISPLAY","region":"Katsushika","lat":35.770096,"lng":139.870895},{"店舗名":"魚民 金町北口駅前店","住所":"〒125-0041 東京都葛飾区東金町１丁目４３−１","ステータス":"APP_DISPLAY","region":"Katsushika","lat":35.770096,"lng":139.870895},{"店舗名":"とんかつの和吉 金町北口駅前店","住所":"〒125-0041 東京都葛飾区東金町１丁目４３−１ 常総金町ビル","ステータス":"APP_DISPLAY","region":"Katsushika","lat":35.770096,"lng":139.870895},{"店舗名":"溶岩ダイニング brave Lava Rock Dining brave","住所":"〒125-0041 東京都葛飾区東金町２丁目１８−１ マルマスビル","ステータス":"APP_DISPLAY","region":"Katsushika","lat":35.771893,"lng":139.868149},{"店舗名":"NICORIDONUT","住所":"〒125-0041 東京都葛飾区東金町２丁目１９−１３","ステータス":"APP_DISPLAY","region":"Katsushika","lat":35.772789,"lng":139.869278},{"店舗名":"カフェ オープンハート","住所":"〒125-0041 東京都葛飾区東金町２丁目２０−９","ステータス":"APP_DISPLAY","region":"Katsushika","lat":35.773232,"lng":139.869644},{"店舗名":"The Craft Salad","住所":"〒125-0041 東京都葛飾区東金町３丁目１７−４","ステータス":"APP_DISPLAY","region":"Katsushika","lat":35.770691,"lng":139.872681},{"店舗名":"甲賀米粉たい焼き 葛飾店","住所":"〒125-0041 東京都葛飾区東金町３丁目１８−１４","ステータス":"APP_DISPLAY","region":"Katsushika","lat":35.770786,"lng":139.873428},{"店舗名":"flatbakery フラットベーカリー","住所":"〒125-0041 東京都葛飾区東金町３丁目３１−８ アイビル","ステータス":"APP_DISPLAY","region":"Katsushika","lat":35.772171,"lng":139.872177},{"店舗名":"スタミナ丼 活家 葛飾店","住所":"〒125-0041 東京都葛飾区東金町３丁目９−３","ステータス":"RECEIPT","region":"Katsushika","lat":35.772026,"lng":139.875229},{"店舗名":"宅配とんかつ かさねや 葛飾店","住所":"〒125-0041 東京都葛飾区東金町３丁目９−３","ステータス":"APP_DISPLAY","region":"Katsushika","lat":35.772026,"lng":139.875229},{"店舗名":"伝説のすた丼屋 葛飾店","住所":"〒125-0041 東京都葛飾区東金町３丁目９−３","ステータス":"APP_DISPLAY","region":"Katsushika","lat":35.772026,"lng":139.875229},{"店舗名":"とりめし かえで食堂 葛飾店","住所":"〒125-0041 東京都葛飾区東金町３丁目９−３","ステータス":"APP_DISPLAY","region":"Katsushika","lat":35.772026,"lng":139.875229},{"店舗名":"鶏弁 とり日和 葛飾店","住所":"〒125-0041 東京都葛飾区東金町３丁目９−３","ステータス":"APP_DISPLAY","region":"Katsushika","lat":35.772026,"lng":139.875229},{"店舗名":"焼きかつ丼 勝吉 葛飾店","住所":"〒125-0041 東京都葛飾区東金町３丁目９−３","ステータス":"APP_DISPLAY","region":"Katsushika","lat":35.772026,"lng":139.875229},{"店舗名":"かつ丼屋 のぶお 葛飾店","住所":"〒125-0041 東京都葛飾区東金町３丁目９−３","ステータス":"APP_DISPLAY","region":"Katsushika","lat":35.772026,"lng":139.875229},{"店舗名":"かつ丼 とん吉 葛飾店","住所":"〒125-0041 東京都葛飾区東金町３丁目９−３","ステータス":"APP_DISPLAY","region":"Katsushika","lat":35.772026,"lng":139.875229},{"店舗名":"台湾カフェ 時香茶 葛飾店","住所":"〒125-0041 東京都葛飾区東金町３丁目９−３","ステータス":"APP_DISPLAY","region":"Katsushika","lat":35.772026,"lng":139.875229},{"店舗名":"出前つけ麺専門店 三田製麺所 葛飾店","住所":"〒125-0041 東京都葛飾区東金町３丁目９−３","ステータス":"APP_DISPLAY","region":"Katsushika","lat":35.772026,"lng":139.875229},{"店舗名":"韓国カルビ丼とスンドゥブ 洞山 葛飾店","住所":"〒125-0041 東京都葛飾区東金町３丁目９−３","ステータス":"APP_DISPLAY","region":"Katsushika","lat":35.772026,"lng":139.875229},{"店舗名":"旨辛スタミナ鉄板焼き 天神軒 葛飾店","住所":"〒125-0041 東京都葛飾区東金町３丁目９−３","ステータス":"APP_DISPLAY","region":"Katsushika","lat":35.772026,"lng":139.875229},{"店舗名":"韓国クッパとビビンバ 全州 葛飾店","住所":"〒125-0041 東京都葛飾区東金町３丁目９−３","ステータス":"APP_DISPLAY","region":"Katsushika","lat":35.772026,"lng":139.875229},{"店舗名":"どんぶり 神宮軒 葛飾店","住所":"〒125-0041 東京都葛飾区東金町３丁目９−３","ステータス":"APP_DISPLAY","region":"Katsushika","lat":35.772026,"lng":139.875229},{"店舗名":"お粥 煮え花 葛飾店","住所":"〒125-0041 東京都葛飾区東金町３丁目９−３","ステータス":"APP_DISPLAY","region":"Katsushika","lat":35.772026,"lng":139.875229},{"店舗名":"うどんと肉 角立 葛飾店","住所":"〒125-0041 東京都葛飾区東金町３丁目９−３","ステータス":"APP_DISPLAY","region":"Katsushika","lat":35.772026,"lng":139.875229},{"店舗名":"元祖金沢チャンピオンカレーデリバリー 葛飾店","住所":"〒125-0041 東京都葛飾区東金町３丁目９−３","ステータス":"APP_DISPLAY","region":"Katsushika","lat":35.772026,"lng":139.875229},{"店舗名":"背徳めし食堂 葛飾店","住所":"〒125-0041 東京都葛飾区東金町３丁目９−３","ステータス":"APP_DISPLAY","region":"Katsushika","lat":35.772026,"lng":139.875229},{"店舗名":"ぶた玉丼とうどん ぶた玉家 葛飾店","住所":"〒125-0041 東京都葛飾区東金町３丁目９−３","ステータス":"APP_DISPLAY","region":"Katsushika","lat":35.772026,"lng":139.875229},{"店舗名":"さぬきうどん・どんぶり 博好 葛飾店","住所":"〒125-0041 東京都葛飾区東金町３丁目９−３","ステータス":"APP_DISPLAY","region":"Katsushika","lat":35.772026,"lng":139.875229},{"店舗名":"鶏天豚天 通天道 葛飾店","住所":"〒125-0041 東京都葛飾区東金町３丁目９−３","ステータス":"APP_DISPLAY","region":"Katsushika","lat":35.772026,"lng":139.875229},{"店舗名":"肉汁つけうどん 六三四 葛飾店","住所":"〒125-0041 東京都葛飾区東金町３丁目９−３","ステータス":"APP_DISPLAY","region":"Katsushika","lat":35.772026,"lng":139.875229},{"店舗名":"熟成厚切りとんてき 三元道 葛飾店","住所":"〒125-0041 東京都葛飾区東金町３丁目９−３","ステータス":"APP_DISPLAY","region":"Katsushika","lat":35.772026,"lng":139.875229},{"店舗名":"出前家系ラーメン 吉祥寺 武蔵家 葛飾店","住所":"〒125-0041 東京都葛飾区東金町３丁目９−３","ステータス":"APP_DISPLAY","region":"Katsushika","lat":35.772026,"lng":139.875229},{"店舗名":"本格もつ鍋 竹名屋総本店 葛飾店","住所":"〒125-0041 東京都葛飾区東金町３丁目９−３","ステータス":"APP_DISPLAY","region":"Katsushika","lat":35.772026,"lng":139.875229},{"店舗名":"十勝帯広豚丼 三代目ぶた広 葛飾店","住所":"〒125-0041 東京都葛飾区東金町３丁目９−３","ステータス":"APP_DISPLAY","region":"Katsushika","lat":35.772026,"lng":139.875229},{"店舗名":"のり弁 浅草屋 葛飾店","住所":"〒125-0041 東京都葛飾区東金町３丁目９−３","ステータス":"APP_DISPLAY","region":"Katsushika","lat":35.772026,"lng":139.875229},{"店舗名":"うなぎの照本 葛飾店","住所":"〒125-0041 東京都葛飾区東金町３丁目９−３","ステータス":"RECEIPT","region":"Katsushika","lat":35.772026,"lng":139.875229},{"店舗名":"ピザハット 金町店","住所":"〒125-0041 東京都葛飾区東金町４丁目２３−９","ステータス":"APP_DISPLAY","region":"Katsushika","lat":35.774807,"lng":139.873413},{"店舗名":"チキン・ウイングストリート 金町店","住所":"〒125-0041 東京都葛飾区東金町４丁目２３−９","ステータス":"APP_DISPLAY","region":"Katsushika","lat":35.774807,"lng":139.873413},{"店舗名":"トスカーニパスタ 金町店","住所":"〒125-0041 東京都葛飾区東金町４丁目２３−９","ステータス":"APP_DISPLAY","region":"Katsushika","lat":35.774807,"lng":139.873413},{"店舗名":"からあげ屋","住所":"〒125-0041 東京都葛飾区東金町４丁目３−１０","ステータス":"APP_DISPLAY","region":"Katsushika","lat":35.772472,"lng":139.87674},{"店舗名":"ユアサクレープ","住所":"〒125-0041 東京都葛飾区東金町５丁目２０−７","ステータス":"APP_DISPLAY","region":"Katsushika","lat":35.778954,"lng":139.876846},{"店舗名":"ドミノ・ピザ 東金町店","住所":"〒125-0041 東京都葛飾区東金町６丁目１２−１","ステータス":"APP_DISPLAY","region":"Katsushika","lat":35.771606,"lng":139.876663},{"店舗名":"菓匠 岩月","住所":"〒125-0041 東京都葛飾区東金町６丁目７−１４ 岩月屋","ステータス":"APP_DISPLAY","region":"Katsushika","lat":35.77121,"lng":139.876633},{"店舗名":"Kitchen Y's","住所":"〒125-0042 東京都葛飾区金町１丁目１９−１３ Y｀sone","ステータス":"APP_DISPLAY","region":"Katsushika","lat":35.764389,"lng":139.867508},{"店舗名":"中華料理店 友心","住所":"〒125-0042 東京都葛飾区金町１丁目２１−３","ステータス":"APP_DISPLAY","region":"Katsushika","lat":35.763134,"lng":139.867538},{"店舗名":"poan","住所":"〒125-0042 東京都葛飾区金町５丁目１３−７","ステータス":"APP_DISPLAY","region":"Katsushika","lat":35.768162,"lng":139.866043},{"店舗名":"てづくりごはん mikiya","住所":"〒125-0042 東京都葛飾区金町５丁目１４−７","ステータス":"APP_DISPLAY","region":"Katsushika","lat":35.768238,"lng":139.866165},{"店舗名":"小仙女麻辣烫","住所":"〒125-0042 東京都葛飾区金町５丁目２３−８","ステータス":"RECEIPT","region":"Katsushika","lat":35.76545,"lng":139.868149},{"店舗名":"韓国農林水産賞シェフのカジュアル韓国料理店アス金町店","住所":"〒125-0042 東京都葛飾区金町５丁目２７−１３","ステータス":"APP_DISPLAY","region":"Katsushika","lat":35.766304,"lng":139.869217},{"店舗名":"TURKA KEBAB金町","住所":"〒125-0042 東京都葛飾区金町５丁目３１−１０ 1階","ステータス":"APP_DISPLAY","region":"Katsushika","lat":35.768692,"lng":139.869019},{"店舗名":"PEPPY","住所":"〒125-0042 東京都葛飾区金町５丁目３５−３ クリーニングニッコー","ステータス":"APP_DISPLAY","region":"Katsushika","lat":35.767418,"lng":139.870361},{"店舗名":"Daisy","住所":"〒125-0042 東京都葛飾区金町５丁目３５−７","ステータス":"APP_DISPLAY","region":"Katsushika","lat":35.767857,"lng":139.870575},{"店舗名":"PRONTO 京成金町駅店","住所":"〒125-0042 東京都葛飾区金町５丁目３７−９","ステータス":"APP_DISPLAY","region":"Katsushika","lat":35.768772,"lng":139.870529},{"店舗名":"ピッツェリア・ダ・タサキ 金町店 （XTS00145514)","住所":"〒125-0042 東京都葛飾区金町６丁目１１−１","ステータス":"APP_DISPLAY","region":"Katsushika","lat":35.768806,"lng":139.872986},{"店舗名":"大戸屋ごはん処 金町駅前店","住所":"〒125-0042 東京都葛飾区金町６丁目２−１","ステータス":"APP_DISPLAY","region":"Katsushika","lat":35.768021,"lng":139.871033},{"店舗名":"肉汁餃子のダンダダン 金町店","住所":"〒125-0042 東京都葛飾区金町６丁目４−１","ステータス":"APP_DISPLAY","region":"Katsushika","lat":35.769032,"lng":139.871368},{"店舗名":"築地銀だこ 金町駅前店","住所":"〒125-0042 東京都葛飾区金町６丁目５−１ ベルトーレ金町","ステータス":"APP_DISPLAY","region":"Katsushika","lat":35.768497,"lng":139.871109},{"店舗名":"アジアンダイニングアンドバーラリグラス ASAIN DaiNiNG&BAR LALIGuRas","住所":"〒125-0042 東京都葛飾区金町６丁目７−１３","ステータス":"APP_DISPLAY","region":"Katsushika","lat":35.768353,"lng":139.873123},{"店舗名":"宅配寿司 白川 金町店","住所":"〒125-0042 東京都葛飾区金町６丁目８−５","ステータス":"APP_DISPLAY","region":"Katsushika","lat":35.768826,"lng":139.872086},{"店舗名":"肉バル カナデリカ Meat Bar Canadelica","住所":"〒125-0042 東京都葛飾区金町６丁目９－９","ステータス":"APP_DISPLAY","region":"Katsushika","lat":35.768726,"lng":139.872955},{"店舗名":"Deli Cafe カナデリカ","住所":"〒125-0042 東京都葛飾区金町６丁目９−９","ステータス":"APP_DISPLAY","region":"Katsushika","lat":35.768726,"lng":139.872955},{"店舗名":"【もっちり玄米と低脂質チキン】とりげん食堂 金町6丁目店","住所":"〒125-0042 東京都葛飾区金町６丁目９−９ 横山ハイツ","ステータス":"APP_DISPLAY","region":"Katsushika","lat":35.768726,"lng":139.872955},{"店舗名":"リンガーハット 葛飾新宿店","住所":"〒125-0051 東京都葛飾区新宿１丁目２３−６","ステータス":"APP_DISPLAY","region":"Katsushika","lat":35.760693,"lng":139.860611},{"店舗名":"わらびもち専門店 甘味処鎌倉 葛飾柴又店","住所":"〒125-0052 東京都葛飾区柴又","ステータス":"RECEIPT","region":"Katsushika","lat":35.755325,"lng":139.871872},{"店舗名":"コーサン Ko-San","住所":"〒125-0052 東京都葛飾区柴又１丁目１２−１２","ステータス":"APP_DISPLAY","region":"Katsushika","lat":35.755318,"lng":139.87149},{"店舗名":"【ヘルシー&高タンパク弁当】鶏あえずタンパク 柴又店","住所":"〒125-0052 東京都葛飾区柴又２丁目１８−８","ステータス":"APP_DISPLAY","region":"Katsushika","lat":35.760082,"lng":139.868698},{"店舗名":"【旨辛&濃厚チーズ&野菜たっぷり】天才のタコライス 柴又店","住所":"〒125-0052 東京都葛飾区柴又２丁目１８−８","ステータス":"APP_DISPLAY","region":"Katsushika","lat":35.760082,"lng":139.868698},{"店舗名":"【理想の自分へ】まめたまのアサイーボウル 柴又店","住所":"〒125-0052 東京都葛飾区柴又２丁目１８−８","ステータス":"APP_DISPLAY","region":"Katsushika","lat":35.760082,"lng":139.868698},{"店舗名":"アサイー&グリークヨーグルト GREEK DAYS 柴又店","住所":"〒125-0052 東京都葛飾区柴又２丁目１８−８","ステータス":"APP_DISPLAY","region":"Katsushika","lat":35.760082,"lng":139.868698},{"店舗名":"ワイルドステーキ&ジム飯 ブロビー 柴又店","住所":"〒125-0052 東京都葛飾区柴又２丁目１８−８","ステータス":"APP_DISPLAY","region":"Katsushika","lat":35.760082,"lng":139.868698},{"店舗名":"肉テロ！肉たらしくてぎゅう 柴又店","住所":"〒125-0052 東京都葛飾区柴又２丁目１８−８","ステータス":"APP_DISPLAY","region":"Katsushika","lat":35.760082,"lng":139.868698},{"店舗名":"肉屋のハンバーグとガーリックライス 柴又店","住所":"〒125-0052 東京都葛飾区柴又２丁目１８−８","ステータス":"APP_DISPLAY","region":"Katsushika","lat":35.760082,"lng":139.868698},{"店舗名":"濃厚ローストビーフとハラミ丼「タルビー」 柴又店","住所":"〒125-0052 東京都葛飾区柴又２丁目１８−８","ステータス":"APP_DISPLAY","region":"Katsushika","lat":35.760082,"lng":139.868698},{"店舗名":"【絶品インドカレー】インドネパールレストラン クーシ","住所":"〒125-0052 東京都葛飾区柴又４丁目１１−６","ステータス":"APP_DISPLAY","region":"Katsushika","lat":35.756233,"lng":139.875931},{"店舗名":"柴又コシジ洋菓子店","住所":"〒125-0052 東京都葛飾区柴又４丁目１５−１５","ステータス":"APP_DISPLAY","region":"Katsushika","lat":35.753201,"lng":139.874908},{"店舗名":"柴又たま屋","住所":"〒125-0052 東京都葛飾区柴又４丁目９−５","ステータス":"APP_DISPLAY","region":"Katsushika","lat":35.756962,"lng":139.875839},{"店舗名":"がっつりオムライス ボムライスステーション 新柴又店","住所":"〒125-0052 東京都葛飾区柴又５丁目","ステータス":"APP_DISPLAY","region":"Katsushika","lat":35.752319,"lng":139.883499},{"店舗名":"【アサイーボウル】ALOHA SPOON ～Acai bowl cafe～ 新柴又店","住所":"〒125-0052 東京都葛飾区柴又５丁目","ステータス":"APP_DISPLAY","region":"Katsushika","lat":35.752319,"lng":139.883499},{"店舗名":"Moromoro モロモロ（庶）居酒屋","住所":"〒125-0052 東京都葛飾区柴又５丁目１−６","ステータス":"APP_DISPLAY","region":"Katsushika","lat":35.750744,"lng":139.879105},{"店舗名":"ボックスチュロス 〜Churros time〜 新柴又店","住所":"〒125-0052 東京都葛飾区柴又５丁目１−６","ステータス":"APP_DISPLAY","region":"Katsushika","lat":35.750744,"lng":139.879105},{"店舗名":"【バナナジュース】BANANA LAB 新柴又店","住所":"〒125-0052 東京都葛飾区柴又５丁目１−６","ステータス":"APP_DISPLAY","region":"Katsushika","lat":35.750744,"lng":139.879105},{"店舗名":"【ご飯300gまで無料】とんかつ とん彩 新柴又店","住所":"〒125-0052 東京都葛飾区柴又５丁目１−６ 寒竹ビル","ステータス":"APP_DISPLAY","region":"Katsushika","lat":35.750744,"lng":139.879105},{"店舗名":"すき家 葛飾柴又店","住所":"〒125-0052 東京都葛飾区柴又５丁目９−１","ステータス":"PENDING","region":"Katsushika","lat":35.752201,"lng":139.878357},{"店舗名":"すみっこ","住所":"〒125-0052 東京都葛飾区柴又７丁目１２−１","ステータス":"APP_DISPLAY","region":"Katsushika","lat":35.758869,"lng":139.878159},{"店舗名":"昭和レトロ喫茶セピア","住所":"〒125-0052 東京都葛飾区柴又７丁目４−１１","ステータス":"APP_DISPLAY","region":"Katsushika","lat":35.757912,"lng":139.875809},{"店舗名":"Dog Cafe Bee","住所":"〒125-0053 東京都葛飾区鎌倉","ステータス":"APP_DISPLAY","region":"Katsushika","lat":35.742729,"lng":139.878159},{"店舗名":"マルゴハン（弁当屋）","住所":"〒125-0053 東京都葛飾区鎌倉２丁目６−１７","ステータス":"APP_DISPLAY","region":"Katsushika","lat":35.745541,"lng":139.875015},{"店舗名":"Ｍ.Ｈ.Ｍ.バーガー","住所":"〒125-0053 東京都葛飾区鎌倉４丁目３−３ メゾンＫ","ステータス":"APP_DISPLAY","region":"Katsushika","lat":35.74472,"lng":139.881226},{"店舗名":"HOKU　HOKU","住所":"〒125-0054","ステータス":"APP_DISPLAY","region":"Katsushika","lat":35.7435,"lng":139.861115},{"店舗名":"居酒屋ゆうゆう","住所":"〒125-0054  東京都葛飾区高砂５丁目３０－１１","ステータス":"APP_DISPLAY","region":"Katsushika","lat":35.751759,"lng":139.867661},{"店舗名":"SAFFRON RESTAURANT","住所":"〒125-0054 東京都葛飾区高砂２丁目１７−９","ステータス":"APP_DISPLAY","region":"Katsushika","lat":35.74955,"lng":139.866272},{"店舗名":"鰻の成瀬 京成高砂店","住所":"〒125-0054 東京都葛飾区高砂２丁目３６−１","ステータス":"APP_DISPLAY","region":"Katsushika","lat":35.749653,"lng":139.866577},{"店舗名":"マシッタ弁当","住所":"〒125-0054 東京都葛飾区高砂３丁目１１－１４","ステータス":"APP_DISPLAY","region":"Katsushika","lat":35.750206,"lng":139.867737},{"店舗名":"青山餃子房","住所":"〒125-0054 東京都葛飾区高砂３丁目１１−１４ ステーションハイツ高砂","ステータス":"APP_DISPLAY","region":"Katsushika","lat":35.750206,"lng":139.867737},{"店舗名":"陽だまり製パン","住所":"〒125-0054 東京都葛飾区高砂３丁目１２−１７","ステータス":"APP_DISPLAY","region":"Katsushika","lat":35.750221,"lng":139.86911},{"店舗名":"ぶんぶんチキン","住所":"〒125-0054 東京都葛飾区高砂３丁目１６−１","ステータス":"APP_DISPLAY","region":"Katsushika","lat":35.750206,"lng":139.869171},{"店舗名":"プルナディープ","住所":"〒125-0054 東京都葛飾区高砂３丁目１７−１","ステータス":"APP_DISPLAY","region":"Katsushika","lat":35.749668,"lng":139.86911},{"店舗名":"焼肉　慶尚道","住所":"〒125-0054 東京都葛飾区高砂３丁目８−２","ステータス":"APP_DISPLAY","region":"Katsushika","lat":35.749458,"lng":139.867477},{"店舗名":"吉野家 京成高砂駅前店","住所":"〒125-0054 東京都葛飾区高砂５丁目２９−１１","ステータス":"APP_DISPLAY","region":"Katsushika","lat":35.751209,"lng":139.867615},{"店舗名":"スパゲッティ デコピン","住所":"〒125-0054 東京都葛飾区高砂５丁目４６−１","ステータス":"APP_DISPLAY","region":"Katsushika","lat":35.751709,"lng":139.869522},{"店舗名":"にこにく & 韓国チキン","住所":"〒125-0061","ステータス":"APP_DISPLAY","region":"Katsushika","lat":35.758423,"lng":139.846329},{"店舗名":"和酒菜ひと枠","住所":"〒125-0061","ステータス":"APP_DISPLAY","region":"Katsushika","lat":35.758423,"lng":139.846329},{"店舗名":"369","住所":"〒125-0061","ステータス":"APP_DISPLAY","region":"Katsushika","lat":35.758423,"lng":139.846329},{"店舗名":"cafe bendwich","住所":"〒125-0061","ステータス":"APP_DISPLAY","region":"Katsushika","lat":35.758423,"lng":139.846329},{"店舗名":"マルミヤパン","住所":"〒125-0061 東京都葛飾区亀有１丁目１１−８","ステータス":"APP_DISPLAY","region":"Katsushika","lat":35.757927,"lng":139.848267},{"店舗名":"すき家 葛飾亀有一丁目店","住所":"〒125-0061 東京都葛飾区亀有１丁目１４−５","ステータス":"PENDING","region":"Katsushika","lat":35.757099,"lng":139.844498},{"店舗名":"惣菜屋 かめ一","住所":"〒125-0061 東京都葛飾区亀有3-11-10","ステータス":"APP_DISPLAY","region":"Katsushika","lat":35.764191,"lng":139.847656},{"店舗名":"スパゲッティーのパンチョ アリオ亀有店","住所":"〒125-0061 東京都葛飾区亀有３丁目","ステータス":"APP_DISPLAY","region":"Katsushika","lat":35.765186,"lng":139.850311},{"店舗名":"ニューハーフラウンジ CAT's eye","住所":"〒125-0061 東京都葛飾区亀有３丁目","ステータス":"APP_DISPLAY","region":"Katsushika","lat":35.765186,"lng":139.850311},{"店舗名":"東京スパイス飯 チキンオーバーライス WHITE YELLOW 亀有","住所":"〒125-0061 東京都葛飾区亀有３丁目１０−１９","ステータス":"APP_DISPLAY","region":"Katsushika","lat":35.764217,"lng":139.847275},{"店舗名":"亀有亭 スパイシーチキンとカレーのお店","住所":"〒125-0061 東京都葛飾区亀有３丁目１０−１９ アーバンテラス亀有","ステータス":"APP_DISPLAY","region":"Katsushika","lat":35.764217,"lng":139.847275},{"店舗名":"宵処DINING頂家","住所":"〒125-0061 東京都葛飾区亀有３丁目１０−５","ステータス":"APP_DISPLAY","region":"Katsushika","lat":35.764828,"lng":139.847},{"店舗名":"バインミーシンチャオ 亀有店","住所":"〒125-0061 東京都葛飾区亀有３丁目１１−１１","ステータス":"APP_DISPLAY","region":"Katsushika","lat":35.764103,"lng":139.847687},{"店舗名":"国産クラフトビールとタコス エルホリ","住所":"〒125-0061 東京都葛飾区亀有３丁目１１−６","ステータス":"APP_DISPLAY","region":"Katsushika","lat":35.764114,"lng":139.847092},{"店舗名":"【BBQ】LAジャークチキン&ハンバーグ JERK SHACK 亀有3丁目店","住所":"〒125-0061 東京都葛飾区亀有３丁目１２−５ グリーンパーク亀有","ステータス":"APP_DISPLAY","region":"Katsushika","lat":35.763325,"lng":139.847244},{"店舗名":"〈ごはん大盛まで無料〉ハンバーグ亭 沢村 亀有3丁目店","住所":"〒125-0061 東京都葛飾区亀有３丁目１２−５ グリーンパーク亀有","ステータス":"APP_DISPLAY","region":"Katsushika","lat":35.763325,"lng":139.847244},{"店舗名":"沖縄ダイニング 涛","住所":"〒125-0061 東京都葛飾区亀有３丁目１５−１３","ステータス":"APP_DISPLAY","region":"Katsushika","lat":35.7635,"lng":139.848785},{"店舗名":"焼肉居酒屋 明洞 Korean Restaurant Myoungdong","住所":"〒125-0061 東京都葛飾区亀有３丁目２０−１３ はやしやビル","ステータス":"APP_DISPLAY","region":"Katsushika","lat":35.764839,"lng":139.848145},{"店舗名":"三味チヂミ","住所":"〒125-0061 東京都葛飾区亀有３丁目２０−２","ステータス":"APP_DISPLAY","region":"Katsushika","lat":35.765137,"lng":139.847916},{"店舗名":"AOHARE CREPE（アオハレクレープ）","住所":"〒125-0061 東京都葛飾区亀有３丁目２０−２ 1F","ステータス":"APP_DISPLAY","region":"Katsushika","lat":35.765137,"lng":139.847916},{"店舗名":"アンプオキナワ+","住所":"〒125-0061 東京都葛飾区亀有３丁目２１−１０ ブラウンパレス","ステータス":"APP_DISPLAY","region":"Katsushika","lat":35.76511,"lng":139.848343},{"店舗名":"ケンタッキーフライドチキン 亀有店","住所":"〒125-0061 東京都葛飾区亀有３丁目２１−６","ステータス":"APP_DISPLAY","region":"Katsushika","lat":35.765381,"lng":139.84845},{"店舗名":"うなぎ 川亀","住所":"〒125-0061 東京都葛飾区亀有３丁目２１−7","ステータス":"APP_DISPLAY","region":"Katsushika","lat":35.765255,"lng":139.848495},{"店舗名":"珈琲館 亀有店","住所":"〒125-0061 東京都葛飾区亀有３丁目２２−５","ステータス":"APP_DISPLAY","region":"Katsushika","lat":35.76564,"lng":139.848373},{"店舗名":"カラアゲ専門店 虎虎鶏（トラトラチキン）","住所":"〒125-0061 東京都葛飾区亀有３丁目２５−１","ステータス":"APP_DISPLAY","region":"Katsushika","lat":35.76627,"lng":139.847},{"店舗名":"舎鈴 Beans亀有店","住所":"〒125-0061 東京都葛飾区亀有３丁目２５−１","ステータス":"APP_DISPLAY","region":"Katsushika","lat":35.76627,"lng":139.847},{"店舗名":"フーフー飯店 亀有","住所":"〒125-0061 東京都葛飾区亀有３丁目２５−１","ステータス":"APP_DISPLAY","region":"Katsushika","lat":35.76627,"lng":139.847},{"店舗名":"たん担めん麺 炎真","住所":"〒125-0061 東京都葛飾区亀有３丁目２６−１","ステータス":"APP_DISPLAY","region":"Katsushika","lat":35.766182,"lng":139.848404},{"店舗名":"ナンデSalsa?","住所":"〒125-0061 東京都葛飾区亀有３丁目２７−１","ステータス":"APP_DISPLAY","region":"Katsushika","lat":35.765862,"lng":139.849304},{"店舗名":"タイ料理ウライワン Thai restaurant","住所":"〒125-0061 東京都葛飾区亀有３丁目２７−２０","ステータス":"APP_DISPLAY","region":"Katsushika","lat":35.765812,"lng":139.850266},{"店舗名":"三顧軒","住所":"〒125-0061 東京都葛飾区亀有３丁目２７−２０ メゾンボネル","ステータス":"APP_DISPLAY","region":"Katsushika","lat":35.765812,"lng":139.850266},{"店舗名":"伊鉄家","住所":"〒125-0061 東京都葛飾区亀有３丁目２７－３","ステータス":"APP_DISPLAY","region":"Katsushika","lat":35.766087,"lng":139.849426},{"店舗名":"PUB Jupiter","住所":"〒125-0061 東京都葛飾区亀有３丁目２７−３","ステータス":"APP_DISPLAY","region":"Katsushika","lat":35.766087,"lng":139.849426},{"店舗名":"【まろやかな辛みの絹豆腐がおすすめ！】韓国料理 赤とんぼ","住所":"〒125-0061 東京都葛飾区亀有３丁目２７−３ ルファール","ステータス":"APP_DISPLAY","region":"Katsushika","lat":35.766087,"lng":139.849426},{"店舗名":"ラーメン いいかお","住所":"〒125-0061 東京都葛飾区亀有３丁目２７−４","ステータス":"APP_DISPLAY","region":"Katsushika","lat":35.766239,"lng":139.849777},{"店舗名":"ホルモンたけし","住所":"〒125-0061 東京都葛飾区亀有３丁目２７−４","ステータス":"APP_DISPLAY","region":"Katsushika","lat":35.766239,"lng":139.849777},{"店舗名":"ゴーゴーカレー亀有スタジアム","住所":"〒125-0061 東京都葛飾区亀有３丁目２９−１","ステータス":"APP_DISPLAY","region":"Katsushika","lat":35.765995,"lng":139.848526},{"店舗名":"中華工房 和","住所":"〒125-0061 東京都葛飾区亀有３丁目２９−１","ステータス":"APP_DISPLAY","region":"Katsushika","lat":35.765995,"lng":139.848526},{"店舗名":"ヒムシカル 亀有店","住所":"〒125-0061 東京都葛飾区亀有３丁目２９−１","ステータス":"APP_DISPLAY","region":"Katsushika","lat":35.765995,"lng":139.848526},{"店舗名":"CAFE & DINER WAGER カフェアンドダイナー ウェイジャー","住所":"〒125-0061 東京都葛飾区亀有３丁目２９−１","ステータス":"APP_DISPLAY","region":"Katsushika","lat":35.765995,"lng":139.848526},{"店舗名":"一粋家","住所":"〒125-0061 東京都葛飾区亀有３丁目２９−１ リリオ２番館 1F","ステータス":"APP_DISPLAY","region":"Katsushika","lat":35.765995,"lng":139.848526},{"店舗名":"【こだわりの自家製麺と朝炊きの肉出汁スープ】中華そば一辰","住所":"〒125-0061 東京都葛飾区亀有３丁目３０−１","ステータス":"APP_DISPLAY","region":"Katsushika","lat":35.765564,"lng":139.848495},{"店舗名":"やきとん よし田","住所":"〒125-0061 東京都葛飾区亀有３丁目３０−１３","ステータス":"APP_DISPLAY","region":"Katsushika","lat":35.765411,"lng":139.849045},{"店舗名":"日本酒と肴 いただき","住所":"〒125-0061 東京都葛飾区亀有３丁目３０−１４","ステータス":"APP_DISPLAY","region":"Katsushika","lat":35.765373,"lng":139.848938},{"店舗名":"居酒屋 みっちゃん","住所":"〒125-0061 東京都葛飾区亀有３丁目３１−１０ 宴ＹＡ","ステータス":"APP_DISPLAY","region":"Katsushika","lat":35.765007,"lng":139.848816},{"店舗名":"カレーハウス CoCo壱番屋 亀有駅南口店","住所":"〒125-0061 東京都葛飾区亀有３丁目３１−４","ステータス":"APP_DISPLAY","region":"Katsushika","lat":35.765335,"lng":139.848557},{"店舗名":"Cafe Coborebi","住所":"〒125-0061 東京都葛飾区亀有３丁目３２−１","ステータス":"APP_DISPLAY","region":"Katsushika","lat":35.764618,"lng":139.848785},{"店舗名":"ハウスラーメンヌードル","住所":"〒125-0061 東京都葛飾区亀有３丁目３２−５","ステータス":"APP_DISPLAY","region":"Katsushika","lat":35.765179,"lng":139.848969},{"店舗名":"カメ☆スタ","住所":"〒125-0061 東京都葛飾区亀有３丁目３２−５","ステータス":"APP_DISPLAY","region":"Katsushika","lat":35.765179,"lng":139.848969},{"店舗名":"亀有メンチ","住所":"〒125-0061 東京都葛飾区亀有３丁目３２−５","ステータス":"APP_DISPLAY","region":"Katsushika","lat":35.765179,"lng":139.848969},{"店舗名":"小木屋","住所":"〒125-0061 東京都葛飾区亀有３丁目３２−６","ステータス":"APP_DISPLAY","region":"Katsushika","lat":35.765301,"lng":139.849045},{"店舗名":"みやび亭","住所":"〒125-0061 東京都葛飾区亀有３丁目３２-７","ステータス":"APP_DISPLAY","region":"Katsushika","lat":35.765419,"lng":139.849121},{"店舗名":"しゃぶしゃぶ温野菜 亀有店","住所":"〒125-0061 東京都葛飾区亀有３丁目３２−８","ステータス":"APP_DISPLAY","region":"Katsushika","lat":35.765545,"lng":139.849182},{"店舗名":"キョーダイケバブハラールフード","住所":"〒125-0061 東京都葛飾区亀有３丁目３６−２","ステータス":"APP_DISPLAY","region":"Katsushika","lat":35.763145,"lng":139.849228},{"店舗名":"カモメロースタリ東京 カフェ","住所":"〒125-0061 東京都葛飾区亀有３丁目３６−２ ＢＡＣ","ステータス":"APP_DISPLAY","region":"Katsushika","lat":35.763145,"lng":139.849228},{"店舗名":"【本場沖縄のタコライス】THE TACORICE HOUSE 亀有店","住所":"〒125-0061 東京都葛飾区亀有３丁目４３−１２","ステータス":"APP_DISPLAY","region":"Katsushika","lat":35.766991,"lng":139.850571},{"店舗名":"【フルーツたっぷりアサイーボウル】ワイキキ・ボウルズ 亀有３丁目店","住所":"〒125-0061 東京都葛飾区亀有３丁目４３−１２","ステータス":"APP_DISPLAY","region":"Katsushika","lat":35.766991,"lng":139.850571},{"店舗名":"飲むチーズケーキ 亀有店 GOKUCHEE Kameari","住所":"〒125-0061 東京都葛飾区亀有３丁目４３−１２","ステータス":"APP_DISPLAY","region":"Katsushika","lat":35.766991,"lng":139.850571},{"店舗名":"【バナナジュース】BANANA LAB 亀有店","住所":"〒125-0061 東京都葛飾区亀有３丁目４３−１２","ステータス":"APP_DISPLAY","region":"Katsushika","lat":35.766991,"lng":139.850571},{"店舗名":"香港式ワッフル Paffle House 亀有店","住所":"〒125-0061 東京都葛飾区亀有３丁目４３−１２","ステータス":"APP_DISPLAY","region":"Katsushika","lat":35.766991,"lng":139.850571},{"店舗名":"【韓国フローズンヨーグルトアイスボウル】Yoppo！ 亀有店","住所":"〒125-0061 東京都葛飾区亀有３丁目４３−１２","ステータス":"APP_DISPLAY","region":"Katsushika","lat":35.766991,"lng":139.850571},{"店舗名":"【タピオカ】OWL TEA 亀有店","住所":"〒125-0061 東京都葛飾区亀有３丁目４３−１２","ステータス":"APP_DISPLAY","region":"Katsushika","lat":35.766991,"lng":139.850571},{"店舗名":"自然派ネバとろばくだん食堂 亀有店","住所":"〒125-0061 東京都葛飾区亀有３丁目４３−１２","ステータス":"APP_DISPLAY","region":"Katsushika","lat":35.766991,"lng":139.850571},{"店舗名":"FreshPokeWorks 亀有３丁目店","住所":"〒125-0061 東京都葛飾区亀有３丁目４３−１２ カノン フローラ","ステータス":"APP_DISPLAY","region":"Katsushika","lat":35.766991,"lng":139.850571},{"店舗名":"背徳ご褒美クレープ！CREPE FACTORY 亀有店","住所":"〒125-0061 東京都葛飾区亀有3丁目43番12号","ステータス":"APP_DISPLAY","region":"Katsushika","lat":35.766991,"lng":139.850571},{"店舗名":"大戸屋ごはん処 アリオ亀有店","住所":"〒125-0061 東京都葛飾区亀有３丁目４９−３","ステータス":"APP_DISPLAY","region":"Katsushika","lat":35.764343,"lng":139.852539},{"店舗名":"Bull Puluアリオ亀有店","住所":"〒125-0061 東京都葛飾区亀有３丁目４９−３","ステータス":"APP_DISPLAY","region":"Katsushika","lat":35.764343,"lng":139.852539},{"店舗名":"ザ・フレンチトーストファクトリー　亀有店","住所":"〒125-0061 東京都葛飾区亀有３丁目４９−３","ステータス":"APP_DISPLAY","region":"Katsushika","lat":35.764343,"lng":139.852539},{"店舗名":"かつや アリオ亀有店","住所":"〒125-0061 東京都葛飾区亀有３丁目４９−３","ステータス":"APP_DISPLAY","region":"Katsushika","lat":35.764343,"lng":139.852539},{"店舗名":"デニーズ 亀有駅前店","住所":"〒125-0061 東京都葛飾区亀有３丁目７−１１","ステータス":"APP_DISPLAY","region":"Katsushika","lat":35.765766,"lng":139.847794},{"店舗名":"吉野家 亀有駅前店","住所":"〒125-0061 東京都葛飾区亀有３丁目７−７","ステータス":"APP_DISPLAY","region":"Katsushika","lat":35.765789,"lng":139.84726},{"店舗名":"ガンディジー","住所":"〒125-0061 東京都葛飾区亀有３丁目８−５","ステータス":"APP_DISPLAY","region":"Katsushika","lat":35.765369,"lng":139.847794},{"店舗名":"ミート酒場 てっちゃん","住所":"〒125-0061 東京都葛飾区亀有３丁目８−５","ステータス":"APP_DISPLAY","region":"Katsushika","lat":35.765369,"lng":139.847794},{"店舗名":"丼＆唐揚げ ごはんどき亀有店","住所":"〒125-0061 東京都葛飾区亀有４丁目１−１５","ステータス":"APP_DISPLAY","region":"Katsushika","lat":35.758995,"lng":139.843887},{"店舗名":"笹互 亀有店","住所":"〒125-0061 東京都葛飾区亀有４丁目１７−１","ステータス":"APP_DISPLAY","region":"Katsushika","lat":35.763054,"lng":139.845947},{"店舗名":"JUN'S PIZZA","住所":"〒125-0061 東京都葛飾区亀有４丁目２５−１１","ステータス":"APP_DISPLAY","region":"Katsushika","lat":35.762814,"lng":139.843781},{"店舗名":"行列ができるフルーツサンド HANAMEKI-花めき-","住所":"〒125-0061 東京都葛飾区亀有４丁目３１−１７ メイトアップ亀有","ステータス":"APP_DISPLAY","region":"Katsushika","lat":35.763123,"lng":139.844299},{"店舗名":"とんかつ なか山","住所":"〒125-0061 東京都葛飾区亀有４丁目３１−１８","ステータス":"APP_DISPLAY","region":"Katsushika","lat":35.763123,"lng":139.844131},{"店舗名":"中華ダイニング 一途一心","住所":"〒125-0061 東京都葛飾区亀有４丁目３７－８","ステータス":"APP_DISPLAY","region":"Katsushika","lat":35.763973,"lng":139.846054},{"店舗名":"Blueno Oriental Bistro","住所":"〒125-0061 東京都葛飾区亀有５丁目１５−６","ステータス":"APP_DISPLAY","region":"Katsushika","lat":35.766457,"lng":139.846069},{"店舗名":"Blueno Oriental Bistro","住所":"〒125-0061 東京都葛飾区亀有５丁目１５−６","ステータス":"APP_DISPLAY","region":"Katsushika","lat":35.766457,"lng":139.846069},{"店舗名":"NOROC","住所":"〒125-0061 東京都葛飾区亀有５丁目１９−２","ステータス":"APP_DISPLAY","region":"Katsushika","lat":35.767548,"lng":139.845535},{"店舗名":"中華食堂 食いしん房","住所":"〒125-0061 東京都葛飾区亀有５丁目２５−１ 作左部ビル","ステータス":"APP_DISPLAY","region":"Katsushika","lat":35.769108,"lng":139.846207},{"店舗名":"名物やきとんとみちゃん亀有店","住所":"〒125-0061 東京都葛飾区亀有５丁目２６−６","ステータス":"APP_DISPLAY","region":"Katsushika","lat":35.769024,"lng":139.846375},{"店舗名":"タルタルーガ","住所":"〒125-0061 東京都葛飾区亀有５丁目２７−１４","ステータス":"APP_DISPLAY","region":"Katsushika","lat":35.768532,"lng":139.846786},{"店舗名":"亀有キムチ","住所":"〒125-0061 東京都葛飾区亀有５丁目２８ ノース千石きむらビル 102号","ステータス":"APP_DISPLAY","region":"Katsushika","lat":35.76825,"lng":139.846542},{"店舗名":"西安ビャンビャン麺 亀有店","住所":"〒125-0061 東京都葛飾区亀有５丁目２８−１２","ステータス":"APP_DISPLAY","region":"Katsushika","lat":35.768219,"lng":139.847412},{"店舗名":"韓国料理 美豚 Biton","住所":"〒125-0061 東京都葛飾区亀有５丁目２８−１２","ステータス":"APP_DISPLAY","region":"Katsushika","lat":35.768219,"lng":139.847412},{"店舗名":"韓食堂コチュ","住所":"〒125-0061 東京都葛飾区亀有５丁目２８−１７","ステータス":"APP_DISPLAY","region":"Katsushika","lat":35.767902,"lng":139.846863},{"店舗名":"平禄寿司亀有店","住所":"〒125-0061 東京都葛飾区亀有５丁目３３−１２ ＪＯＹビル","ステータス":"APP_DISPLAY","region":"Katsushika","lat":35.766621,"lng":139.847336},{"店舗名":"【からあげグランプリ金賞受賞】 とりいちず 亀有北口店","住所":"〒125-0061 東京都葛飾区亀有５丁目３３−１３","ステータス":"APP_DISPLAY","region":"Katsushika","lat":35.766567,"lng":139.847214},{"店舗名":"新世界","住所":"〒125-0061 東京都葛飾区亀有５丁目３４−１１","ステータス":"APP_DISPLAY","region":"Katsushika","lat":35.767498,"lng":139.848877},{"店舗名":"一風堂 亀有店","住所":"〒125-0061 東京都葛飾区亀有５丁目３４−１３","ステータス":"PENDING","region":"Katsushika","lat":35.767231,"lng":139.848877},{"店舗名":"SAM QUAN 亀有","住所":"〒125-0061 東京都葛飾区亀有５丁目３４−１４ 3f","ステータス":"APP_DISPLAY","region":"Katsushika","lat":35.767181,"lng":139.848724},{"店舗名":"大阪王将 亀有店","住所":"〒125-0061 東京都葛飾区亀有５丁目３４−１５","ステータス":"APP_DISPLAY","region":"Katsushika","lat":35.767136,"lng":139.848572},{"店舗名":"インドレストラン&バー シータラ亀有店","住所":"〒125-0061 東京都葛飾区亀有５丁目３４−１６ 寿々喜ビル","ステータス":"APP_DISPLAY","region":"Katsushika","lat":35.767086,"lng":139.848419},{"店舗名":"台湾料理 有香園","住所":"〒125-0061 東京都葛飾区亀有５丁目35番3号","ステータス":"APP_DISPLAY","region":"Katsushika","lat":35.767456,"lng":139.847916},{"店舗名":"root","住所":"〒125-0061 東京都葛飾区亀有５丁目４５−７","ステータス":"APP_DISPLAY","region":"Katsushika","lat":35.767471,"lng":139.849487},{"店舗名":"麺たいせい","住所":"〒125-0061 東京都葛飾区亀有５丁目４７−１","ステータス":"APP_DISPLAY","region":"Katsushika","lat":35.768005,"lng":139.849533},{"店舗名":"元祖おかず系ラーメン肉玉そばおとど亀有店","住所":"〒125-0061 東京都葛飾区亀有５丁目４９－６","ステータス":"APP_DISPLAY","region":"Katsushika","lat":35.769348,"lng":139.848892},{"店舗名":"担担麺しかないお店","住所":"〒125-0061 東京都葛飾区亀有三丁目31番3号","ステータス":"APP_DISPLAY","region":"Katsushika","lat":35.765179,"lng":139.848618},{"店舗名":"紅虎餃子房 アリオ亀有","住所":"〒125-0061 東京都葛飾区亀有三丁目４９番３号","ステータス":"APP_DISPLAY","region":"Katsushika","lat":35.764343,"lng":139.852539},{"店舗名":"吉野家 京成青砥駅前店","住所":"〒125-0062 東京都葛飾区青砥３丁目３７−２","ステータス":"APP_DISPLAY","region":"Katsushika","lat":35.743248,"lng":139.856033},{"店舗名":"韓国居酒屋 とん豚 Korean restaurant tonton","住所":"〒125-0062 東京都葛飾区青戸１丁目１０−１ あわのすビル","ステータス":"APP_DISPLAY","region":"Katsushika","lat":35.744961,"lng":139.856003},{"店舗名":"本物の味のインド料理ガネーシャ","住所":"〒125-0062 東京都葛飾区青戸１丁目１０−１ あわのすビル","ステータス":"APP_DISPLAY","region":"Katsushika","lat":35.744961,"lng":139.856003},{"店舗名":"むっちゃん万十 あおと駅前店","住所":"〒125-0062 東京都葛飾区青戸１丁目１０−６","ステータス":"APP_DISPLAY","region":"Katsushika","lat":35.745529,"lng":139.856415},{"店舗名":"昼だけうな重（青戸店）","住所":"〒125-0062 東京都葛飾区青戸２丁目２−４ マルコシビル","ステータス":"APP_DISPLAY","region":"Katsushika","lat":35.746418,"lng":139.856903},{"店舗名":"インドレストラン ヒマンス","住所":"〒125-0062 東京都葛飾区青戸３丁目２９−７","ステータス":"APP_DISPLAY","region":"Katsushika","lat":35.746334,"lng":139.853638},{"店舗名":"青山餃子房 青砥店","住所":"〒125-0062 東京都葛飾区青戸３丁目３１−４","ステータス":"APP_DISPLAY","region":"Katsushika","lat":35.746113,"lng":139.854233},{"店舗名":"やきとん一粋家 青砥店","住所":"〒125-0062 東京都葛飾区青戸３丁目３２−４","ステータス":"APP_DISPLAY","region":"Katsushika","lat":35.746178,"lng":139.854416},{"店舗名":"鳥広","住所":"〒125-0062 東京都葛飾区青戸３丁目３２−９","ステータス":"APP_DISPLAY","region":"Katsushika","lat":35.746464,"lng":139.854538},{"店舗名":"祥和","住所":"〒125-0062 東京都葛飾区青戸３丁目３３−１３","ステータス":"APP_DISPLAY","region":"Katsushika","lat":35.746979,"lng":139.856049},{"店舗名":"ワインバル モーリエ","住所":"〒125-0062 東京都葛飾区青戸３丁目３３−１４","ステータス":"APP_DISPLAY","region":"Katsushika","lat":35.746876,"lng":139.855942},{"店舗名":"韓国料理 心の故郷","住所":"〒125-0062 東京都葛飾区青戸３丁目３３−１６","ステータス":"APP_DISPLAY","region":"Katsushika","lat":35.746666,"lng":139.855728},{"店舗名":"週末のキンパ君","住所":"〒125-0062 東京都葛飾区青戸３丁目３３−６","ステータス":"APP_DISPLAY","region":"Katsushika","lat":35.746967,"lng":139.855347},{"店舗名":"ケンタッキーフライドチキン 青砥駅店","住所":"〒125-0062 東京都葛飾区青戸３丁目３６−１","ステータス":"APP_DISPLAY","region":"Katsushika","lat":35.744938,"lng":139.85553},{"店舗名":"はなまるうどん ユアエルム青戸店","住所":"〒125-0062 東京都葛飾区青戸３丁目３６−１ ユアエルム 5番街1Ｆ","ステータス":"APP_DISPLAY","region":"Katsushika","lat":35.744938,"lng":139.85553},{"店舗名":"クミン KUMIN インドレストラン＆バー","住所":"〒125-0062 東京都葛飾区青戸３丁目３７−１２ ＫＣハイム","ステータス":"APP_DISPLAY","region":"Katsushika","lat":35.746323,"lng":139.856155},{"店舗名":"タイレストラン 香恋","住所":"〒125-0062 東京都葛飾区青戸３丁目４０−１３ 樋谷ビル","ステータス":"APP_DISPLAY","region":"Katsushika","lat":35.745022,"lng":139.855331},{"店舗名":"アル・バラカ","住所":"〒125-0062 東京都葛飾区青戸４丁目２１−２８","ステータス":"APP_DISPLAY","region":"Katsushika","lat":35.748013,"lng":139.850464},{"店舗名":"ベビーカステラ専門店ふくふく堂 青戸店","住所":"〒125-0062 東京都葛飾区青戸４丁目２４−２０","ステータス":"APP_DISPLAY","region":"Katsushika","lat":35.750256,"lng":139.852539},{"店舗名":"ザ ファーム スタンド The Farm Stand","住所":"〒125-0062 東京都葛飾区青戸４丁目５−３ コムロビル","ステータス":"APP_DISPLAY","region":"Katsushika","lat":35.747986,"lng":139.848038},{"店舗名":"Teppan bluto","住所":"〒125-0062 東京都葛飾区青戸５丁目２８−８","ステータス":"APP_DISPLAY","region":"Katsushika","lat":35.749592,"lng":139.855392},{"店舗名":"南国酒場リバーサイド","住所":"〒125-0063 東京都葛飾区白鳥１丁目１２−２０","ステータス":"APP_DISPLAY","region":"Katsushika","lat":35.747223,"lng":139.841019},{"店舗名":"吉野家 6号線白鳥店","住所":"〒125-0063 東京都葛飾区白鳥２丁目２１−２４","ステータス":"APP_DISPLAY","region":"Katsushika","lat":35.748634,"lng":139.847015},{"店舗名":"Insaf Restaurant カレー& Kebab House","住所":"〒125-0063 東京都葛飾区白鳥２丁目８−５ 浩丘マンション","ステータス":"APP_DISPLAY","region":"Katsushika","lat":35.747704,"lng":139.843521},{"店舗名":"ドミノ・ピザ お花茶屋店","住所":"〒125-0063 東京都葛飾区白鳥３丁目１３−１２","ステータス":"APP_DISPLAY","region":"Katsushika","lat":35.751335,"lng":139.84375},{"店舗名":"タルトレット　ドウゼン〜ベーカリー&パン&ガレットとマドレーヌ、バター使用〜","住所":"〒125-0063 東京都葛飾区白鳥３丁目２５−６ ドウゼン","ステータス":"APP_DISPLAY","region":"Katsushika","lat":35.753422,"lng":139.843231},{"店舗名":"ケンタッキーフライドチキン 葛飾白鳥店","住所":"〒125-0063 東京都葛飾区白鳥４丁目４−１０","ステータス":"APP_DISPLAY","region":"Katsushika","lat":35.750774,"lng":139.848618},{"店舗名":"インドアジアンレストランマサラ高砂店","住所":"東京都葛飾区高砂5丁目35番7号 石川ビル, 101, 東京都","ステータス":"APP_DISPLAY","region":"Katsushika","lat":35.752129,"lng":139.868195},{"店舗名":"築地銀だこ アリオ亀有店","住所":"東京都葛飾区亀有3-49-3","ステータス":"APP_DISPLAY","region":"Katsushika","lat":35.764343,"lng":139.852539},{"店舗名":"Darts&Dining BAR G'Laugh","住所":"東京都葛飾区亀有三丁目22番5号","ステータス":"APP_DISPLAY","region":"Katsushika","lat":35.76564,"lng":139.848373},{"店舗名":"韓国料理 赤とんぼ","住所":"東京都葛飾区亀有三丁目27番3号","ステータス":"APP_DISPLAY","region":"Katsushika","lat":35.766087,"lng":139.849426},{"店舗名":"賀登屋","住所":"東京都葛飾区亀有三丁目49番6号","ステータス":"RECEIPT","region":"Katsushika","lat":35.764343,"lng":139.852539},{"店舗名":"くいものやBAR 亀有店","住所":"東京都葛飾区亀有五丁目15番13号","ステータス":"APP_DISPLAY","region":"Katsushika","lat":35.766228,"lng":139.846497},{"店舗名":"ブルー・ザ・ベリー","住所":"東京都葛飾区亀有五丁目16番16号","ステータス":"RECEIPT","region":"Katsushika","lat":35.766453,"lng":139.845856},{"店舗名":"ごち亀","住所":"東京都葛飾区亀有五丁目20番11号","ステータス":"RECEIPT","region":"Katsushika","lat":35.767818,"lng":139.846405},{"店舗名":"第八たから丸","住所":"東京都葛飾区亀有五丁目20番8号","ステータス":"RECEIPT","region":"Katsushika","lat":35.768085,"lng":139.846375},{"店舗名":"琉華","住所":"東京都葛飾区金町四丁目24番9号","ステータス":"APP_DISPLAY","region":"Katsushika","lat":35.768036,"lng":139.865768},{"店舗名":"二刀流マーラータン金町店","住所":"東京都葛飾区東金町二丁目18番1号","ステータス":"APP_DISPLAY","region":"Katsushika","lat":35.771893,"lng":139.868149},{"店舗名":"味噌ガッツ","住所":"東京都葛飾区宝町二丁目36番15号","ステータス":"APP_DISPLAY","region":"Katsushika","lat":35.747223,"lng":139.840195},{"店舗名":"インド・ネパールレストラン スパイスガーデン","住所":"東京都葛飾区西亀有３丁目２４−１２","ステータス":"APP_DISPLAY","region":"Katsushika","lat":35.76273,"lng":139.839523},{"店舗名":"らーめん弁慶 堀切店","住所":"東京都葛飾区小菅二丁目21番13号","ステータス":"APP_DISPLAY","region":"Katsushika","lat":35.750572,"lng":139.827789},{"店舗名":"個室×肉バル VERDE 新小岩店","住所":"東京都葛飾区新小岩１丁目４９−３","ステータス":"APP_DISPLAY","region":"Katsushika","lat":35.715759,"lng":139.859467},{"店舗名":"チャンガ","住所":"東京都葛飾区新小岩一丁目２２－１０","ステータス":"APP_DISPLAY","region":"Katsushika","lat":35.715,"lng":139.858444},{"店舗名":"饗処だんだん","住所":"東京都葛飾区新小岩一丁目36番6号","ステータス":"APP_DISPLAY","region":"Katsushika","lat":35.714249,"lng":139.860138}]