[{"店舗名":"Green leaf","住所":"〒332-0001 埼玉県川口市宮町４丁目２０","ステータス":"APP_DISPLAY","region":"Kawaguchi","lat":35.806046,"lng":139.700546},{"店舗名":"こだわりとんかつ 神楽　川口店","住所":"〒332-0001 埼玉県川口市朝日","ステータス":"APP_DISPLAY","region":"Kawaguchi","lat":35.80764,"lng":139.734619},{"店舗名":"牛かつ 黒べこ 川口店","住所":"〒332-0001 埼玉県川口市朝日","ステータス":"APP_DISPLAY","region":"Kawaguchi","lat":35.80764,"lng":139.734619},{"店舗名":"つきじ海賓 川口店","住所":"〒332-0001 埼玉県川口市朝日１丁目２４−９","ステータス":"APP_DISPLAY","region":"Kawaguchi","lat":35.805664,"lng":139.736618},{"店舗名":"おすし日和 川口","住所":"〒332-0001 埼玉県川口市朝日１丁目２４−９","ステータス":"APP_DISPLAY","region":"Kawaguchi","lat":35.805664,"lng":139.736618},{"店舗名":"ななつぼし川口店","住所":"〒332-0001 埼玉県川口市朝日１丁目２４−９","ステータス":"APP_DISPLAY","region":"Kawaguchi","lat":35.805664,"lng":139.736618},{"店舗名":"YUMEN川口店","住所":"〒332-0001 埼玉県川口市朝日１丁目２４−９","ステータス":"APP_DISPLAY","region":"Kawaguchi","lat":35.805664,"lng":139.736618},{"店舗名":"まつ乃川口店","住所":"〒332-0001 埼玉県川口市朝日１丁目２４−９","ステータス":"APP_DISPLAY","region":"Kawaguchi","lat":35.805664,"lng":139.736618},{"店舗名":"海のみち川口店","住所":"〒332-0001 埼玉県川口市朝日１丁目２４−９","ステータス":"APP_DISPLAY","region":"Kawaguchi","lat":35.805664,"lng":139.736618},{"店舗名":"丼ぶり 天晴 川口店","住所":"〒332-0001 埼玉県川口市朝日１丁目２４−９ サンライズビル","ステータス":"APP_DISPLAY","region":"Kawaguchi","lat":35.805664,"lng":139.736618},{"店舗名":"ちきおば！(チキンオーバーライス！)","住所":"〒332-0001 埼玉県川口市朝日１丁目７−２１","ステータス":"APP_DISPLAY","region":"Kawaguchi","lat":35.808899,"lng":139.734085},{"店舗名":"冷やし担々麺 弥","住所":"〒332-0001 埼玉県川口市朝日１丁目７−２１","ステータス":"APP_DISPLAY","region":"Kawaguchi","lat":35.808899,"lng":139.734085},{"店舗名":"辛撃の担々麺","住所":"〒332-0001 埼玉県川口市朝日１丁目７−２１","ステータス":"APP_DISPLAY","region":"Kawaguchi","lat":35.808899,"lng":139.734085},{"店舗名":"吉野家 122号線川口店","住所":"〒332-0001 埼玉県川口市朝日１丁目８−６","ステータス":"APP_DISPLAY","region":"Kawaguchi","lat":35.809551,"lng":139.734467},{"店舗名":"ネギトロ一本勝負 東川口店","住所":"〒332-0001 埼玉県川口市朝日２丁目１０−５","ステータス":"APP_DISPLAY","region":"Kawaguchi","lat":35.811859,"lng":139.731918},{"店舗名":"海鮮ユッケ丼 鮪家 toroya 東川口店","住所":"〒332-0001 埼玉県川口市朝日２丁目１０−５","ステータス":"APP_DISPLAY","region":"Kawaguchi","lat":35.811859,"lng":139.731918},{"店舗名":"麺場 田所商店 川口店","住所":"〒332-0001 埼玉県川口市朝日２丁目２８−１３","ステータス":"APP_DISPLAY","region":"Kawaguchi","lat":35.810722,"lng":139.734558},{"店舗名":"カレー店 リハサ Rihasha","住所":"〒332-0001 埼玉県川口市朝日４丁目１９−２２","ステータス":"APP_DISPLAY","region":"Kawaguchi","lat":35.809132,"lng":139.741501},{"店舗名":"タイ料理リハサ","住所":"〒332-0001 埼玉県川口市朝日４丁目１９−２２ 馬場ビルII","ステータス":"APP_DISPLAY","region":"Kawaguchi","lat":35.809132,"lng":139.741501},{"店舗名":"OKUNOYA","住所":"〒332-0001 埼玉県川口市朝日５丁目１３−１４","ステータス":"APP_DISPLAY","region":"Kawaguchi","lat":35.806622,"lng":139.74765},{"店舗名":"バインミーシンチャオ川口朝日店","住所":"〒332-0001 埼玉県川口市朝日５丁目５−７","ステータス":"APP_DISPLAY","region":"Kawaguchi","lat":35.809772,"lng":139.74794},{"店舗名":"大衆酒場 天竜","住所":"〒332-0001 埼玉県川口市朝日６丁目１１−３","ステータス":"APP_DISPLAY","region":"Kawaguchi","lat":35.808567,"lng":139.745468},{"店舗名":"101's  十勝豚丼と北海道ザンキ　埼玉2号店","住所":"〒332-0002 埼玉県川口市弥平２丁目８−１８","ステータス":"APP_DISPLAY","region":"Kawaguchi","lat":35.802578,"lng":139.747833},{"店舗名":"BASHI BURGER CHANCE KAWAGUCHI（川口 ランチ デリバリー）","住所":"〒332-0003 埼玉県川口市東領家５丁目１４−８","ステータス":"APP_DISPLAY","region":"Kawaguchi","lat":35.788727,"lng":139.755539},{"店舗名":"大賢水産","住所":"〒332-0004 埼玉県川口市東領家3-21-23","ステータス":"APP_DISPLAY","region":"Kawaguchi","lat":35.793293,"lng":139.752472},{"店舗名":"ふぁみりぃ弁当","住所":"〒332-0004 埼玉県川口市領家１丁目","ステータス":"APP_DISPLAY","region":"Kawaguchi","lat":35.796989,"lng":139.741684},{"店舗名":"インドアジアン料理 ぞう⭐︎さん","住所":"〒332-0004 埼玉県川口市領家１丁目２０−９","ステータス":"APP_DISPLAY","region":"Kawaguchi","lat":35.797394,"lng":139.744019},{"店舗名":"1110 CAFE/BAKERY","住所":"〒332-0004 埼玉県川口市領家５丁目４−１","ステータス":"APP_DISPLAY","region":"Kawaguchi","lat":35.789677,"lng":139.741043},{"店舗名":"デニーズ 川口元郷店","住所":"〒332-0005 埼玉県川口市新井町２７−２２","ステータス":"APP_DISPLAY","region":"Kawaguchi","lat":35.80175,"lng":139.743301},{"店舗名":"からみそラーメンふくろう 川口店","住所":"〒332-0006","ステータス":"APP_DISPLAY","region":"Kawaguchi","lat":35.80402,"lng":139.733963},{"店舗名":"RECO CAFE","住所":"〒332-0006 埼玉県川口市末広１丁目１１−１９","ステータス":"APP_DISPLAY","region":"Kawaguchi","lat":35.805244,"lng":139.734802},{"店舗名":"すき家 川口末広店","住所":"〒332-0006 埼玉県川口市末広１丁目１９−３","ステータス":"PENDING","region":"Kawaguchi","lat":35.804333,"lng":139.735764},{"店舗名":"京都北白川 ラーメン魁力屋川口末広店","住所":"〒332-0006 埼玉県川口市末広１丁目４−３３","ステータス":"APP_DISPLAY","region":"Kawaguchi","lat":35.805096,"lng":139.733017},{"店舗名":"リンガーハット 川口末広店","住所":"〒332-0006 埼玉県川口市末広１丁目５−６","ステータス":"APP_DISPLAY","region":"Kawaguchi","lat":35.804405,"lng":139.732407},{"店舗名":"COCOACAI","住所":"〒332-0006 埼玉県川口市末広２丁目１５−１","ステータス":"APP_DISPLAY","region":"Kawaguchi","lat":35.803761,"lng":139.736801},{"店舗名":"COCODOG","住所":"〒332-0006 埼玉県川口市末広２丁目１５−１","ステータス":"APP_DISPLAY","region":"Kawaguchi","lat":35.803761,"lng":139.736801},{"店舗名":"黒墨商店　川口店","住所":"〒332-0011 埼玉県川口市元郷２丁目１−２４","ステータス":"APP_DISPLAY","region":"Kawaguchi","lat":35.794811,"lng":139.730316},{"店舗名":"赤身厳選ローストビーフ丼 Japaness BBQ 川口店","住所":"〒332-0011 埼玉県川口市元郷５丁目１０－８","ステータス":"APP_DISPLAY","region":"Kawaguchi","lat":35.79982,"lng":139.739197},{"店舗名":"ディープ インド料理 Deep Indian Restaurant","住所":"〒332-0011 埼玉県川口市元郷５丁目１０−８","ステータス":"APP_DISPLAY","region":"Kawaguchi","lat":35.79982,"lng":139.739197},{"店舗名":"韓国ビビンバ ハルモニ 元郷5丁目","住所":"〒332-0011 埼玉県川口市元郷５丁目１０−８","ステータス":"APP_DISPLAY","region":"Kawaguchi","lat":35.79982,"lng":139.739197},{"店舗名":"ビリヤニキング川口店","住所":"〒332-0011 埼玉県川口市元郷５丁目１０−８","ステータス":"APP_DISPLAY","region":"Kawaguchi","lat":35.79982,"lng":139.739197},{"店舗名":"韓国冷麺 パラム 元郷5丁目","住所":"〒332-0011 埼玉県川口市元郷５丁目１０−８","ステータス":"APP_DISPLAY","region":"Kawaguchi","lat":35.79982,"lng":139.739197},{"店舗名":"豚首領 川口駅前店","住所":"〒332-0011 埼玉県川口市元郷５丁目１０−８","ステータス":"APP_DISPLAY","region":"Kawaguchi","lat":35.79982,"lng":139.739197},{"店舗名":"赤身厳選川口精肉処","住所":"〒332-0011 埼玉県川口市元郷５丁目１０−８","ステータス":"APP_DISPLAY","region":"Kawaguchi","lat":35.79982,"lng":139.739197},{"店舗名":"川口おにぎり おむすびほろり","住所":"〒332-0012 埼玉県川口市本町２丁目３−１６","ステータス":"APP_DISPLAY","region":"Kawaguchi","lat":35.798023,"lng":139.72551},{"店舗名":"パティスリーアプロッシェ PATISSERIE approcher","住所":"〒332-0012 埼玉県川口市本町２丁目６−１７ プラティークOne","ステータス":"APP_DISPLAY","region":"Kawaguchi","lat":35.801445,"lng":139.726807},{"店舗名":"ケンタッキーフライドチキン ミエル川口店","住所":"〒332-0012 埼玉県川口市本町２丁目７−２５","ステータス":"APP_DISPLAY","region":"Kawaguchi","lat":35.800613,"lng":139.727951},{"店舗名":"MoMo","住所":"〒332-0012 埼玉県川口市本町２丁目７−３６","ステータス":"APP_DISPLAY","region":"Kawaguchi","lat":35.800362,"lng":139.72673},{"店舗名":"CREPE & BAR CHUN'S","住所":"〒332-0012 埼玉県川口市本町3丁目10番3号","ステータス":"APP_DISPLAY","region":"Kawaguchi","lat":35.802448,"lng":139.722778},{"店舗名":"鰻の成瀬 川口店","住所":"〒332-0012 埼玉県川口市本町４−５−１","ステータス":"APP_DISPLAY","region":"Kawaguchi","lat":35.801922,"lng":139.720566},{"店舗名":"最高峰","住所":"〒332-0012 埼玉県川口市本町４丁目２−８ 光ビル","ステータス":"APP_DISPLAY","region":"Kawaguchi","lat":35.801655,"lng":139.719879},{"店舗名":"Bougainvillea","住所":"〒332-0012 埼玉県川口市本町４丁目５−１","ステータス":"APP_DISPLAY","region":"Kawaguchi","lat":35.801922,"lng":139.720566},{"店舗名":"華らし屋","住所":"〒332-0012 埼玉県川口市本町４丁目５−１","ステータス":"APP_DISPLAY","region":"Kawaguchi","lat":35.801922,"lng":139.720566},{"店舗名":"李暁七マーラータン　川口店","住所":"〒332-0012 埼玉県川口市本町４丁目５−２６","ステータス":"APP_DISPLAY","region":"Kawaguchi","lat":35.800896,"lng":139.720978},{"店舗名":"OHANA asaibowl Cafe 川口店 Kawaguchi","住所":"〒332-0012 埼玉県川口市本町４丁目７−８","ステータス":"APP_DISPLAY","region":"Kawaguchi","lat":35.800686,"lng":139.720367},{"店舗名":"焼肉ライク 川口駅東口店","住所":"〒332-0015 埼玉県川口市川口","ステータス":"APP_DISPLAY","region":"Kawaguchi","lat":35.798164,"lng":139.718842},{"店舗名":"玄米食堂あえん　川口駅前店","住所":"〒332-0015 埼玉県川口市川口１丁目１−１","ステータス":"APP_DISPLAY","region":"Kawaguchi","lat":35.801834,"lng":139.718155},{"店舗名":"ドミノ・ピザ 川口幸町店","住所":"〒332-0016 埼玉県川口市幸町１丁目１−２０","ステータス":"APP_DISPLAY","region":"Kawaguchi","lat":35.804859,"lng":139.722076},{"店舗名":"Asian Daining &Bar Kitchen King","住所":"〒332-0016 埼玉県川口市幸町１丁目１２−２３","ステータス":"APP_DISPLAY","region":"Kawaguchi","lat":35.804394,"lng":139.724823},{"店舗名":"Green Light Cafe 川口総本店（TENKUMO Group Inc.）","住所":"〒332-0016 埼玉県川口市幸町１丁目１２−２３","ステータス":"APP_DISPLAY","region":"Kawaguchi","lat":35.804394,"lng":139.724823},{"店舗名":"【本場タイの味】究極のGAPAORICE 川口本店","住所":"〒332-0016 埼玉県川口市幸町１丁目１２−２３","ステータス":"APP_DISPLAY","region":"Kawaguchi","lat":35.804394,"lng":139.724823},{"店舗名":"【チキンオーバーライス】TANDOOR TRUCK 川口店","住所":"〒332-0016 埼玉県川口市幸町１丁目１２−２３","ステータス":"APP_DISPLAY","region":"Kawaguchi","lat":35.804394,"lng":139.724823},{"店舗名":"キッチンキング","住所":"〒332-0016 埼玉県川口市幸町１丁目１２−２３ 川口幸町コートハウス","ステータス":"APP_DISPLAY","region":"Kawaguchi","lat":35.804394,"lng":139.724823},{"店舗名":"百福","住所":"〒332-0016 埼玉県川口市幸町２－７－３８","ステータス":"APP_DISPLAY","region":"Kawaguchi","lat":35.806427,"lng":139.718323},{"店舗名":"KB Chicken Kawaguchi","住所":"〒332-0016 埼玉県川口市幸町2丁目10番2号","ステータス":"APP_DISPLAY","region":"Kawaguchi","lat":35.808449,"lng":139.717728},{"店舗名":"極太麻婆春雨 幸町2丁目店","住所":"〒332-0016 埼玉県川口市幸町２丁目１５−１１","ステータス":"APP_DISPLAY","region":"Kawaguchi","lat":35.806545,"lng":139.720474},{"店舗名":"〈ごはん大盛まで無料〉ハンバーグ亭 沢村 幸町2丁目店","住所":"〒332-0016 埼玉県川口市幸町２丁目１５−１１","ステータス":"APP_DISPLAY","region":"Kawaguchi","lat":35.806545,"lng":139.720474},{"店舗名":"煮豚チャーハン宝徳 幸町2丁目店","住所":"〒332-0016 埼玉県川口市幸町２丁目１５−１１","ステータス":"APP_DISPLAY","region":"Kawaguchi","lat":35.806545,"lng":139.720474},{"店舗名":"まぜそばたつき 幸町2丁目店","住所":"〒332-0016 埼玉県川口市幸町２丁目１５−１１","ステータス":"APP_DISPLAY","region":"Kawaguchi","lat":35.806545,"lng":139.720474},{"店舗名":"まぜそばたける 幸町2丁目店","住所":"〒332-0016 埼玉県川口市幸町２丁目１５−１１","ステータス":"APP_DISPLAY","region":"Kawaguchi","lat":35.806545,"lng":139.720474},{"店舗名":"【とろける角煮】東京角煮総本店 幸町2丁目店","住所":"〒332-0016 埼玉県川口市幸町２丁目１５−１１","ステータス":"APP_DISPLAY","region":"Kawaguchi","lat":35.806545,"lng":139.720474},{"店舗名":"グリルエクスプレス ～絶品ハンバーグの旅～ 幸町2丁目店","住所":"〒332-0016 埼玉県川口市幸町２丁目１５−１１","ステータス":"APP_DISPLAY","region":"Kawaguchi","lat":35.806545,"lng":139.720474},{"店舗名":"〈ごはん特盛まで無料〉デミグラスハンバーグの店 デミたま 幸町2丁目店","住所":"〒332-0016 埼玉県川口市幸町２丁目１５−１１","ステータス":"APP_DISPLAY","region":"Kawaguchi","lat":35.806545,"lng":139.720474},{"店舗名":"【豚マシ・ニンニク・アブラ】豚メシ どストライク 幸町2丁目店","住所":"〒332-0016 埼玉県川口市幸町２丁目１５−１１","ステータス":"APP_DISPLAY","region":"Kawaguchi","lat":35.806545,"lng":139.720474},{"店舗名":"紅華ダイニング 幸町2丁目店","住所":"〒332-0016 埼玉県川口市幸町２丁目１５−１１","ステータス":"APP_DISPLAY","region":"Kawaguchi","lat":35.806545,"lng":139.720474},{"店舗名":"〈ごはん特盛まで無料〉超熟豚とろ煮 豚盛軒 幸町2丁目店","住所":"〒332-0016 埼玉県川口市幸町２丁目１５−１１","ステータス":"APP_DISPLAY","region":"Kawaguchi","lat":35.806545,"lng":139.720474},{"店舗名":"厳選とろとろ豚 炒飯一華-ichika- 幸町2丁目店","住所":"〒332-0016 埼玉県川口市幸町２丁目１５−１１","ステータス":"APP_DISPLAY","region":"Kawaguchi","lat":35.806545,"lng":139.720474},{"店舗名":"Dining Bar Freely","住所":"〒332-0016 埼玉県川口市幸町２丁目１５−１１ デュークビル","ステータス":"APP_DISPLAY","region":"Kawaguchi","lat":35.806545,"lng":139.720474},{"店舗名":"ラーメンかすが堂","住所":"〒332-0016 埼玉県川口市幸町２丁目４−１４","ステータス":"APP_DISPLAY","region":"Kawaguchi","lat":35.805809,"lng":139.719681},{"店舗名":"GLIN THAI 川口駅東口店","住所":"〒332-0016 埼玉県川口市幸町２丁目５−８","ステータス":"APP_DISPLAY","region":"Kawaguchi","lat":35.806351,"lng":139.71962},{"店舗名":"飯屋 DoN太郎 川口店 Meshiya DonTaro","住所":"〒332-0016 埼玉県川口市幸町２丁目7-16","ステータス":"APP_DISPLAY","region":"Kawaguchi","lat":35.807178,"lng":139.719162},{"店舗名":"恵八","住所":"〒332-0016 埼玉県川口市幸町２丁目７−１６","ステータス":"APP_DISPLAY","region":"Kawaguchi","lat":35.807178,"lng":139.719162},{"店舗名":"中華そば花道","住所":"〒332-0016 埼玉県川口市幸町２丁目8－27","ステータス":"APP_DISPLAY","region":"Kawaguchi","lat":35.807312,"lng":139.719513},{"店舗名":"【肉と米】至高の豚めし はじめ 川口店","住所":"〒332-0016 埼玉県川口市幸町２丁目８−２７","ステータス":"APP_DISPLAY","region":"Kawaguchi","lat":35.807312,"lng":139.719513},{"店舗名":"【二郎系ラーメン】田田田 デデデ 川口分店","住所":"〒332-0016 埼玉県川口市幸町２丁目８−２７","ステータス":"APP_DISPLAY","region":"Kawaguchi","lat":35.807312,"lng":139.719513},{"店舗名":"【二郎系・背徳めし】ニクとヤサイとコメ 川口店","住所":"〒332-0016 埼玉県川口市幸町２丁目８−２７","ステータス":"APP_DISPLAY","region":"Kawaguchi","lat":35.807312,"lng":139.719513},{"店舗名":"二郎系ラーメン 麺バカ一代　川口店","住所":"〒332-0016 埼玉県川口市幸町２丁目８−２７","ステータス":"APP_DISPLAY","region":"Kawaguchi","lat":35.807312,"lng":139.719513},{"店舗名":"インドアジア料理 くま☆さん","住所":"〒332-0016 埼玉県川口市幸町２丁目９−１６","ステータス":"APP_DISPLAY","region":"Kawaguchi","lat":35.80843,"lng":139.718979},{"店舗名":"とら戌。麦酒と咖喱処","住所":"〒332-0016 埼玉県川口市幸町３丁目１１−１","ステータス":"APP_DISPLAY","region":"Kawaguchi","lat":35.807545,"lng":139.716675},{"店舗名":"おいしいカレー spice story","住所":"〒332-0016 埼玉県川口市幸町３丁目１１−２","ステータス":"APP_DISPLAY","region":"Kawaguchi","lat":35.807617,"lng":139.71666},{"店舗名":"shaved ice cafe 想々","住所":"〒332-0016 埼玉県川口市幸町３丁目１１−２","ステータス":"APP_DISPLAY","region":"Kawaguchi","lat":35.807617,"lng":139.71666},{"店舗名":"8peaks restaurant and bar","住所":"〒332-0016 埼玉県川口市幸町３丁目９−２８","ステータス":"APP_DISPLAY","region":"Kawaguchi","lat":35.806316,"lng":139.717697},{"店舗名":"珍来　川口店","住所":"〒332-0017","ステータス":"APP_DISPLAY","region":"Kawaguchi","lat":35.803486,"lng":139.727707},{"店舗名":"VOLKS 川口中央店","住所":"〒332-0017 埼玉県川口市栄町１丁目１３−１８","ステータス":"APP_DISPLAY","region":"Kawaguchi","lat":35.801685,"lng":139.728394},{"店舗名":"イタリア食堂","住所":"〒332-0017 埼玉県川口市栄町2丁目1-11","ステータス":"APP_DISPLAY","region":"Kawaguchi","lat":35.803719,"lng":139.721542},{"店舗名":"S.MOONワールド酒バー","住所":"〒332-0017 埼玉県川口市栄町２丁目９−１０","ステータス":"APP_DISPLAY","region":"Kawaguchi","lat":35.80439,"lng":139.724136},{"店舗名":"スパイスムーン","住所":"〒332-0017 埼玉県川口市栄町２丁目９−１０ 長谷川ハイツ","ステータス":"RECEIPT","region":"Kawaguchi","lat":35.80439,"lng":139.724136},{"店舗名":"カウンター焼肉 肉松","住所":"〒332-0017 埼玉県川口市栄町３丁目１０−６","ステータス":"APP_DISPLAY","region":"Kawaguchi","lat":35.803944,"lng":139.71904},{"店舗名":"大盛スタミナ肉丼 ニンニク野郎 川口店","住所":"〒332-0017 埼玉県川口市栄町３丁目１−１３","ステータス":"APP_DISPLAY","region":"Kawaguchi","lat":35.803482,"lng":139.717331},{"店舗名":"串カツ田中 川口店","住所":"〒332-0017 埼玉県川口市栄町３丁目１−１３","ステータス":"APP_DISPLAY","region":"Kawaguchi","lat":35.803482,"lng":139.717331},{"店舗名":"つけ麺津気屋","住所":"〒332-0017 埼玉県川口市栄町３丁目１−２４","ステータス":"APP_DISPLAY","region":"Kawaguchi","lat":35.80217,"lng":139.718018},{"店舗名":"七宝麻辣湯(チーパオマーラータン) 川口樹モールプラザ店","住所":"〒332-0017 埼玉県川口市栄町３丁目１３−１","ステータス":"APP_DISPLAY","region":"Kawaguchi","lat":35.803158,"lng":139.720245},{"店舗名":"一風堂 樹モールプラザ川口店","住所":"〒332-0017 埼玉県川口市栄町３丁目１３−１","ステータス":"PENDING","region":"Kawaguchi","lat":35.803158,"lng":139.720245},{"店舗名":"B KEBAB","住所":"〒332-0017 埼玉県川口市栄町３丁目１４−３","ステータス":"APP_DISPLAY","region":"Kawaguchi","lat":35.802692,"lng":139.720337},{"店舗名":"肉汁餃子のダンダダン 川口店","住所":"〒332-0017 埼玉県川口市栄町３丁目２−２６","ステータス":"APP_DISPLAY","region":"Kawaguchi","lat":35.803741,"lng":139.717529},{"店舗名":"クリスピー・クリーム・ドーナツ ららテラス川口店","住所":"〒332-0017 埼玉県川口市栄町３丁目５−１","ステータス":"APP_DISPLAY","region":"Kawaguchi","lat":35.802479,"lng":139.718582},{"店舗名":"果実問屋 にしかわ ららテラス川口店","住所":"〒332-0017 埼玉県川口市栄町３丁目５−１","ステータス":"APP_DISPLAY","region":"Kawaguchi","lat":35.802479,"lng":139.718582},{"店舗名":"世界の山ちゃん　川口店","住所":"〒332-0017 埼玉県川口市栄町３丁目５−１２ 有川ビル 2階","ステータス":"APP_DISPLAY","region":"Kawaguchi","lat":35.803608,"lng":139.718094},{"店舗名":"野郎ラーメン 川口店","住所":"〒332-0017 埼玉県川口市栄町３丁目５−１７","ステータス":"APP_DISPLAY","region":"Kawaguchi","lat":35.803802,"lng":139.718811},{"店舗名":"人間蘭州牛肉拉麵，清真HALAL","住所":"〒332-0017 埼玉県川口市栄町３丁目５−１９","ステータス":"APP_DISPLAY","region":"Kawaguchi","lat":35.803535,"lng":139.718918},{"店舗名":"富士そば　川口店","住所":"〒332-0017 埼玉県川口市栄町３丁目５−９","ステータス":"APP_DISPLAY","region":"Kawaguchi","lat":35.803322,"lng":139.717773},{"店舗名":"スパイスムーン 川口店","住所":"〒332-0017 埼玉県川口市栄町３丁目７−１","ステータス":"APP_DISPLAY","region":"Kawaguchi","lat":35.802296,"lng":139.718781},{"店舗名":"焼肉ワンダーカルビ","住所":"〒332-0017 埼玉県川口市栄町３丁目７−１","ステータス":"APP_DISPLAY","region":"Kawaguchi","lat":35.802296,"lng":139.718781},{"店舗名":"新時沏 シンジキタピオカ専門店 川口店","住所":"〒332-0017 埼玉県川口市栄町３丁目８−１０","ステータス":"APP_DISPLAY","region":"Kawaguchi","lat":35.802837,"lng":139.720215},{"店舗名":"ラーメン鷹の目 川口店","住所":"〒332-0017 埼玉県川口市栄町３丁目８−１０","ステータス":"APP_DISPLAY","region":"Kawaguchi","lat":35.802837,"lng":139.720215},{"店舗名":"バーガーキング川口栄町店","住所":"〒332-0017 埼玉県川口市栄町３丁目８−１１","ステータス":"APP_DISPLAY","region":"Kawaguchi","lat":35.802696,"lng":139.720245},{"店舗名":"はなまるうどん 川口駅前店","住所":"〒332-0017 埼玉県川口市栄町３丁目８−３","ステータス":"APP_DISPLAY","region":"Kawaguchi","lat":35.80257,"lng":139.719437},{"店舗名":"すき家 川口駅東口店","住所":"〒332-0017 埼玉県川口市栄町３丁目９−１３","ステータス":"PENDING","region":"Kawaguchi","lat":35.803051,"lng":139.720184},{"店舗名":"Everest","住所":"〒332-0017 埼玉県川口市栄町３丁目９−１６","ステータス":"APP_DISPLAY","region":"Kawaguchi","lat":35.802879,"lng":139.719971},{"店舗名":"カレーハウス CoCo壱番屋 ＪＲ川口駅東口店","住所":"〒332-0017 埼玉県川口市栄町３丁目９−１８","ステータス":"APP_DISPLAY","region":"Kawaguchi","lat":35.802826,"lng":139.719666},{"店舗名":"0秒レモンサワー 仙台ホルモン焼肉酒場 ときわ亭 川口駅前店","住所":"〒332-0017 埼玉県川口市川口１丁目１−１","ステータス":"APP_DISPLAY","region":"Kawaguchi","lat":35.801834,"lng":139.718155},{"店舗名":"韓国風旨辛最高#ときわシン・ラーメン。川口駅前店","住所":"〒332-0017 埼玉県川口市川口１丁目１−１","ステータス":"APP_DISPLAY","region":"Kawaguchi","lat":35.801834,"lng":139.718155},{"店舗名":"神戸ご当地グルメ すじたま丼みやび 川口駅前店","住所":"〒332-0017 埼玉県川口市川口１丁目１−１","ステータス":"APP_DISPLAY","region":"Kawaguchi","lat":35.801834,"lng":139.718155},{"店舗名":"お出汁香る、炙り親子丼。金の卵 川口駅前店","住所":"〒332-0017 埼玉県川口市川口１丁目１−１","ステータス":"APP_DISPLAY","region":"Kawaguchi","lat":35.801834,"lng":139.718155},{"店舗名":"ガリバタ丼専門店 ごはん泥棒 川口駅前店","住所":"〒332-0017 埼玉県川口市川口１丁目１−１","ステータス":"APP_DISPLAY","region":"Kawaguchi","lat":35.801834,"lng":139.718155},{"店舗名":"二郎系入門編！ときじ郎ラーメン 川口駅前店","住所":"〒332-0017 埼玉県川口市川口１丁目１−１","ステータス":"APP_DISPLAY","region":"Kawaguchi","lat":35.801834,"lng":139.718155},{"店舗名":"仙台ときわ亭発 飲める和牛すき焼き丼 川口駅前店","住所":"〒332-0017 埼玉県川口市川口１丁目１−１","ステータス":"APP_DISPLAY","region":"Kawaguchi","lat":35.801834,"lng":139.718155},{"店舗名":"信じて混ぜれば美味しいときわのビビンバ 川口駅前店","住所":"〒332-0017 埼玉県川口市川口１丁目１−１","ステータス":"APP_DISPLAY","region":"Kawaguchi","lat":35.801834,"lng":139.718155},{"店舗名":"韓国旨辛カルビクッパの大魔王 川口駅前店","住所":"〒332-0017 埼玉県川口市川口１丁目１−１","ステータス":"APP_DISPLAY","region":"Kawaguchi","lat":35.801834,"lng":139.718155},{"店舗名":"ときわのまかない牛たんカレーって知ってる？川口駅前店","住所":"〒332-0017 埼玉県川口市川口１丁目１−１","ステータス":"APP_DISPLAY","region":"Kawaguchi","lat":35.801834,"lng":139.718155},{"店舗名":"韓国風旨辛最高＃ヤンニョムチキン。川口駅前店","住所":"〒332-0017 埼玉県川口市川口１丁目１−１","ステータス":"APP_DISPLAY","region":"Kawaguchi","lat":35.801834,"lng":139.718155},{"店舗名":"仙台本家 たんとはらみ、ときどきかるび。川口駅前店","住所":"〒332-0017 埼玉県川口市川口１丁目１−１","ステータス":"APP_DISPLAY","region":"Kawaguchi","lat":35.801834,"lng":139.718155},{"店舗名":"本場盛岡冷麺専門店「ときわ冷麺道」川口駅前店","住所":"〒332-0017 埼玉県川口市川口１丁目１−１","ステータス":"APP_DISPLAY","region":"Kawaguchi","lat":35.801834,"lng":139.718155},{"店舗名":"バーガーキング川口キュポ・ラ店","住所":"〒332-0017 埼玉県川口市川口１丁目１−１","ステータス":"APP_DISPLAY","region":"Kawaguchi","lat":35.801834,"lng":139.718155},{"店舗名":"いきなりステーキ 川口駅前店","住所":"〒332-0017 埼玉県川口市川口１丁目１−１","ステータス":"APP_DISPLAY","region":"Kawaguchi","lat":35.801834,"lng":139.718155},{"店舗名":"吉野家 川口駅東口店","住所":"〒332-0017 埼玉県川口市川口１丁目１−１","ステータス":"APP_DISPLAY","region":"Kawaguchi","lat":35.801834,"lng":139.718155},{"店舗名":"ときじ郎、まぜそばはじめたってよ。ときわ亭 川口駅前店","住所":"〒332-0017 埼玉県川口市川口１丁目１−１","ステータス":"APP_DISPLAY","region":"Kawaguchi","lat":35.801834,"lng":139.718155},{"店舗名":"もつ焼 ぎん","住所":"〒332-0017埼玉県川口市栄町３丁目１１−１８","ステータス":"APP_DISPLAY","region":"Kawaguchi","lat":35.804523,"lng":139.71991},{"店舗名":"好又鮮酒楼","住所":"〒332-0021","ステータス":"APP_DISPLAY","region":"Kawaguchi","lat":35.815586,"lng":139.702255},{"店舗名":"正宗中国味•羊大厨","住所":"〒332-0021","ステータス":"APP_DISPLAY","region":"Kawaguchi","lat":35.815586,"lng":139.702255},{"店舗名":"1995COFFEE NISHIKAWAGUCHI","住所":"〒332-0021 埼玉県川口市西川口","ステータス":"RECEIPT","region":"Kawaguchi","lat":35.815586,"lng":139.702255},{"店舗名":"フリークアウト","住所":"〒332-0021 埼玉県川口市西川口1-4-21","ステータス":"APP_DISPLAY","region":"Kawaguchi","lat":35.81464,"lng":139.704285},{"店舗名":"盛興順鉄鍋鈍 セイ　キョウ　ジュンSeikoujun Tetsunabeton西川口店","住所":"〒332-0021 埼玉県川口市西川口１丁目","ステータス":"APP_DISPLAY","region":"Kawaguchi","lat":35.815586,"lng":139.702255},{"店舗名":"海鮮 壹家大排档（カイセン イッカ ダイパイトン）","住所":"〒332-0021 埼玉県川口市西川口１丁目１１−８","ステータス":"APP_DISPLAY","region":"Kawaguchi","lat":35.816441,"lng":139.702301},{"店舗名":"パサ タカリネワーリ","住所":"〒332-0021 埼玉県川口市西川口１丁目１２−１６","ステータス":"APP_DISPLAY","region":"Kawaguchi","lat":35.816742,"lng":139.702896},{"店舗名":"アサイーボウル×バナナ×ギリシャヨーグルト Hawaiian Restaurant MIYAKO 西川口店","住所":"〒332-0021 埼玉県川口市西川口１丁目１２−１６","ステータス":"RECEIPT","region":"Kawaguchi","lat":35.816742,"lng":139.702896},{"店舗名":"小食屋(中華料理 福清小吃)","住所":"〒332-0021 埼玉県川口市西川口１丁目１７−１","ステータス":"APP_DISPLAY","region":"Kawaguchi","lat":35.815479,"lng":139.701904},{"店舗名":"ONIQBAR にっく","住所":"〒332-0021 埼玉県川口市西川口１丁目１８−１２","ステータス":"APP_DISPLAY","region":"Kawaguchi","lat":35.816093,"lng":139.701523},{"店舗名":"カレーハウス CoCo壱番屋 ＪＲ西川口駅西口店","住所":"〒332-0021 埼玉県川口市西川口１丁目１９−１６","ステータス":"APP_DISPLAY","region":"Kawaguchi","lat":35.815647,"lng":139.702515},{"店舗名":"麺食記","住所":"〒332-0021 埼玉県川口市西川口１丁目２０−１","ステータス":"APP_DISPLAY","region":"Kawaguchi","lat":35.815109,"lng":139.702484},{"店舗名":"インド アジアンレストラン アショーカ","住所":"〒332-0021 埼玉県川口市西川口１丁目２０−２０","ステータス":"APP_DISPLAY","region":"Kawaguchi","lat":35.815266,"lng":139.702347},{"店舗名":"ジョクション","住所":"〒332-0021 埼玉県川口市西川口１丁目２０−２０","ステータス":"APP_DISPLAY","region":"Kawaguchi","lat":35.815266,"lng":139.702347},{"店舗名":"魚介豚骨まぜそば  漁夫の利 西川口店","住所":"〒332-0021 埼玉県川口市西川口１丁目２０−２０ コーポ若喜","ステータス":"RECEIPT","region":"Kawaguchi","lat":35.815266,"lng":139.702347},{"店舗名":"寿司しん 丼丸","住所":"〒332-0021 埼玉県川口市西川口１丁目２０−４","ステータス":"APP_DISPLAY","region":"Kawaguchi","lat":35.81485,"lng":139.702454},{"店舗名":"元祖うな吉総本店","住所":"〒332-0021 埼玉県川口市西川口１丁目２０−４","ステータス":"APP_DISPLAY","region":"Kawaguchi","lat":35.81485,"lng":139.702454},{"店舗名":"特上炙り和牛寿司元祖寿芯総本店","住所":"〒332-0021 埼玉県川口市西川口１丁目２０−４","ステータス":"APP_DISPLAY","region":"Kawaguchi","lat":35.81485,"lng":139.702454},{"店舗名":"1004-ANGEL","住所":"〒332-0021 埼玉県川口市西川口１丁目２−１０","ステータス":"APP_DISPLAY","region":"Kawaguchi","lat":35.815338,"lng":139.704239},{"店舗名":"PHO Tuoi 9X","住所":"〒332-0021 埼玉県川口市西川口１丁目２−１０","ステータス":"APP_DISPLAY","region":"Kawaguchi","lat":35.815338,"lng":139.704239},{"店舗名":"PHỞ TƯƠI 9X","住所":"〒332-0021 埼玉県川口市西川口１丁目２−１０","ステータス":"RECEIPT","region":"Kawaguchi","lat":35.815338,"lng":139.704239},{"店舗名":"麺処光屋","住所":"〒332-0021 埼玉県川口市西川口１丁目２１−３","ステータス":"APP_DISPLAY","region":"Kawaguchi","lat":35.814976,"lng":139.703018},{"店舗名":"居酒屋ゼン","住所":"〒332-0021 埼玉県川口市西川口１丁目２２−１","ステータス":"APP_DISPLAY","region":"Kawaguchi","lat":35.814762,"lng":139.703094},{"店舗名":"ダルバール ラウンジ＆バー","住所":"〒332-0021 埼玉県川口市西川口１丁目２２−１","ステータス":"APP_DISPLAY","region":"Kawaguchi","lat":35.814762,"lng":139.703094},{"店舗名":"老重慶","住所":"〒332-0021 埼玉県川口市西川口１丁目２２−１","ステータス":"APP_DISPLAY","region":"Kawaguchi","lat":35.814762,"lng":139.703094},{"店舗名":"福盛軒","住所":"〒332-0021 埼玉県川口市西川口1丁目22-13","ステータス":"APP_DISPLAY","region":"Kawaguchi","lat":35.814293,"lng":139.702652},{"店舗名":"焼鳥しはち","住所":"〒332-0021 埼玉県川口市西川口１丁目２２−１５","ステータス":"APP_DISPLAY","region":"Kawaguchi","lat":35.814453,"lng":139.702637},{"店舗名":"錦州・串神 本場中国炭火串焼き","住所":"〒332-0021 埼玉県川口市西川口１丁目２２−１５","ステータス":"APP_DISPLAY","region":"Kawaguchi","lat":35.814453,"lng":139.702637},{"店舗名":"ベトナム料理 CAPHE BAO CAP 西川口店","住所":"〒332-0021 埼玉県川口市西川口１丁目２２−２０","ステータス":"APP_DISPLAY","region":"Kawaguchi","lat":35.814758,"lng":139.702942},{"店舗名":"安老爺 炭火蛙鍋(アンロウイエ スミビカエル鍋)","住所":"〒332-0021 埼玉県川口市西川口１丁目２２−７","ステータス":"APP_DISPLAY","region":"Kawaguchi","lat":35.814423,"lng":139.703217},{"店舗名":"頭壱號 中華蘭州牛肉麺","住所":"〒332-0021 埼玉県川口市西川口１丁目２３-１９","ステータス":"APP_DISPLAY","region":"Kawaguchi","lat":35.81496,"lng":139.703232},{"店舗名":"四川料理 麻辣駅西川口店","住所":"〒332-0021 埼玉県川口市西川口１丁目２３−３","ステータス":"APP_DISPLAY","region":"Kawaguchi","lat":35.814873,"lng":139.703583},{"店舗名":"LOD 24/7","住所":"〒332-0021 埼玉県川口市西川口１丁目２３−３","ステータス":"APP_DISPLAY","region":"Kawaguchi","lat":35.814873,"lng":139.703583},{"店舗名":"居酒屋 みどり","住所":"〒332-0021 埼玉県川口市西川口１丁目２３−７","ステータス":"APP_DISPLAY","region":"Kawaguchi","lat":35.814632,"lng":139.703873},{"店舗名":"清花餃子 中華料理","住所":"〒332-0021 埼玉県川口市西川口１丁目２４−１０","ステータス":"APP_DISPLAY","region":"Kawaguchi","lat":35.814484,"lng":139.703629},{"店舗名":"大新疆 西川口店","住所":"〒332-0021 埼玉県川口市西川口１丁目２４−２","ステータス":"APP_DISPLAY","region":"Kawaguchi","lat":35.814476,"lng":139.704025},{"店舗名":"橋頭 私家菜","住所":"〒332-0021 埼玉県川口市西川口１丁目２５−３","ステータス":"APP_DISPLAY","region":"Kawaguchi","lat":35.814152,"lng":139.704361},{"店舗名":"フライドチキンバーガー&タピオカ　好きとり 酥小記","住所":"〒332-0021 埼玉県川口市西川口１丁目２７−１２−１０１","ステータス":"APP_DISPLAY","region":"Kawaguchi","lat":35.814003,"lng":139.701645},{"店舗名":"福清料理 楽茶","住所":"〒332-0021 埼玉県川口市西川口１丁目２７−７","ステータス":"APP_DISPLAY","region":"Kawaguchi","lat":35.813866,"lng":139.701996},{"店舗名":"J.CHICKEN 叫了個炸雞 西川口店","住所":"〒332-0021 埼玉県川口市西川口１丁目２８-１６","ステータス":"APP_DISPLAY","region":"Kawaguchi","lat":35.814823,"lng":139.70224},{"店舗名":"民記煲仔飯西川口店","住所":"〒332-0021 埼玉県川口市西川口１丁目２８−２ 神流川ビル 1階","ステータス":"APP_DISPLAY","region":"Kawaguchi","lat":35.814541,"lng":139.702469},{"店舗名":"横浜家系ラーメン赤家西川口店","住所":"〒332-0021 埼玉県川口市西川口１丁目２−９","ステータス":"APP_DISPLAY","region":"Kawaguchi","lat":35.815281,"lng":139.704163},{"店舗名":"居酒屋 翔","住所":"〒332-0021 埼玉県川口市西川口１丁目２９−１８","ステータス":"APP_DISPLAY","region":"Kawaguchi","lat":35.81506,"lng":139.701889},{"店舗名":"CHINO NEPALI INDIAN RESTAURANT","住所":"〒332-0021 埼玉県川口市西川口１丁目２９−１９","ステータス":"APP_DISPLAY","region":"Kawaguchi","lat":35.815022,"lng":139.70195},{"店舗名":"新時沏 シンジキタピオカ専門店 西川口店","住所":"〒332-0021 埼玉県川口市西川口１丁目３−１４ 第二バーディートライビル","ステータス":"APP_DISPLAY","region":"Kawaguchi","lat":35.815025,"lng":139.7043},{"店舗名":"呑み食い処 龍神","住所":"〒332-0021 埼玉県川口市西川口１丁目３３−１０","ステータス":"APP_DISPLAY","region":"Kawaguchi","lat":35.813812,"lng":139.70076},{"店舗名":"Kitchen Barぐりむ","住所":"〒332-0021 埼玉県川口市西川口１丁目４０−１","ステータス":"APP_DISPLAY","region":"Kawaguchi","lat":35.815289,"lng":139.700912},{"店舗名":"【ご飯大盛り無料】キッチン バラティエ 西川口店","住所":"〒332-0021 埼玉県川口市西川口１丁目４０−１","ステータス":"APP_DISPLAY","region":"Kawaguchi","lat":35.815289,"lng":139.700912},{"店舗名":"麻辣湯 應心（オウシン）","住所":"〒332-0021 埼玉県川口市西川口１丁目４−１７","ステータス":"APP_DISPLAY","region":"Kawaguchi","lat":35.814491,"lng":139.704178},{"店舗名":"Smile","住所":"〒332-0021 埼玉県川口市西川口１丁目４−１９ 西川口ビル","ステータス":"APP_DISPLAY","region":"Kawaguchi","lat":35.814598,"lng":139.704117},{"店舗名":"歌声広場 純子","住所":"〒332-0021 埼玉県川口市西川口１丁目４−７","ステータス":"APP_DISPLAY","region":"Kawaguchi","lat":35.814243,"lng":139.705017},{"店舗名":"大龍城","住所":"〒332-0021 埼玉県川口市西川口１丁目５−２２","ステータス":"APP_DISPLAY","region":"Kawaguchi","lat":35.815239,"lng":139.703735},{"店舗名":"とんかつの和吉 西川口西口駅前店","住所":"〒332-0021 埼玉県川口市西川口１丁目５−２２","ステータス":"APP_DISPLAY","region":"Kawaguchi","lat":35.815239,"lng":139.703735},{"店舗名":"からあげの鉄人 西川口西口駅前店","住所":"〒332-0021 埼玉県川口市西川口１丁目５−２２","ステータス":"APP_DISPLAY","region":"Kawaguchi","lat":35.815239,"lng":139.703735},{"店舗名":"大衆鰻 うな銀 西川口西口駅前店","住所":"〒332-0021 埼玉県川口市西川口１丁目５−２２","ステータス":"APP_DISPLAY","region":"Kawaguchi","lat":35.815239,"lng":139.703735},{"店舗名":"魚民 西川口西口駅前店","住所":"〒332-0021 埼玉県川口市西川口１丁目５−２２","ステータス":"APP_DISPLAY","region":"Kawaguchi","lat":35.815239,"lng":139.703735},{"店舗名":"回転寿司みさき 西川口店","住所":"〒332-0021 埼玉県川口市西川口１丁目５−２２","ステータス":"APP_DISPLAY","region":"Kawaguchi","lat":35.815239,"lng":139.703735},{"店舗名":"すき家 西川口駅前店","住所":"〒332-0021 埼玉県川口市西川口１丁目５－３","ステータス":"PENDING","region":"Kawaguchi","lat":35.815193,"lng":139.704041},{"店舗名":"居酒屋司","住所":"〒332-0021 埼玉県川口市西川口１丁目５−５","ステータス":"APP_DISPLAY","region":"Kawaguchi","lat":35.815044,"lng":139.704208},{"店舗名":"らぁ麺まる鈴 西川口店","住所":"〒332-0021 埼玉県川口市西川口１丁目６−８ 千鶴ビル","ステータス":"APP_DISPLAY","region":"Kawaguchi","lat":35.815384,"lng":139.70311},{"店舗名":"裏野中家","住所":"〒332-0021 埼玉県川口市西川口１丁目９−１","ステータス":"APP_DISPLAY","region":"Kawaguchi","lat":35.815773,"lng":139.703308},{"店舗名":"DOUTEA","住所":"〒332-0021 埼玉県川口市西川口１丁目９−１ オク美ビル","ステータス":"APP_DISPLAY","region":"Kawaguchi","lat":35.815773,"lng":139.703308},{"店舗名":"棒棒君重庆热卤小吃(ばんばんくん)","住所":"〒332-0021 埼玉県川口市西川口１丁目９−１４","ステータス":"APP_DISPLAY","region":"Kawaguchi","lat":35.81604,"lng":139.702637},{"店舗名":"バインミー＆ライスペーパー 1995 COFFEE NISHIKAWAGUCHI","住所":"〒332-0021 埼玉県川口市西川口１丁目９−１４","ステータス":"APP_DISPLAY","region":"Kawaguchi","lat":35.81604,"lng":139.702637},{"店舗名":"見一面","住所":"〒332-0021 埼玉県川口市西川口３丁目","ステータス":"RECEIPT","region":"Kawaguchi","lat":35.811882,"lng":139.704483},{"店舗名":"香楽福","住所":"〒332-0021 埼玉県川口市西川口３丁目１４−１４ フドウ西川口ハイツ","ステータス":"APP_DISPLAY","region":"Kawaguchi","lat":35.813599,"lng":139.704773},{"店舗名":"チャンモニムチキン 埼玉店","住所":"〒332-0021 埼玉県川口市西川口３丁目１５−２４","ステータス":"APP_DISPLAY","region":"Kawaguchi","lat":35.813885,"lng":139.704483},{"店舗名":"好串 Bar","住所":"〒332-0021 埼玉県川口市西川口３丁目１５−２５","ステータス":"APP_DISPLAY","region":"Kawaguchi","lat":35.813885,"lng":139.704605},{"店舗名":"韓国食品 サラン","住所":"〒332-0021 埼玉県川口市西川口３丁目３０−１２ 第１荻島ユニティ","ステータス":"APP_DISPLAY","region":"Kawaguchi","lat":35.812866,"lng":139.702637},{"店舗名":"Phở Mainichi ベトナムフォー専門店","住所":"〒332-0021 埼玉県川口市西川口３丁目３０−１６","ステータス":"APP_DISPLAY","region":"Kawaguchi","lat":35.81321,"lng":139.702576},{"店舗名":"食為天（ショクイテン）","住所":"〒332-0021 埼玉県川口市西川口３丁目３２−１４","ステータス":"APP_DISPLAY","region":"Kawaguchi","lat":35.812412,"lng":139.702576},{"店舗名":"無名軒","住所":"〒332-0021 埼玉県川口市西川口３丁目３２−１４","ステータス":"APP_DISPLAY","region":"Kawaguchi","lat":35.812412,"lng":139.702576},{"店舗名":"王記牛肉板面","住所":"〒332-0021 埼玉県川口市西川口５丁目１−１６","ステータス":"APP_DISPLAY","region":"Kawaguchi","lat":35.809246,"lng":139.704758},{"店舗名":"ハンドメイドセレクトショップ リシパタナ","住所":"〒332-0021 埼玉県川口市西川口５丁目１５−３１","ステータス":"APP_DISPLAY","region":"Kawaguchi","lat":35.806774,"lng":139.702332},{"店舗名":"東北人家 張記砂鍋居","住所":"〒332-0021 埼玉県川口市西川口６丁目１−１","ステータス":"APP_DISPLAY","region":"Kawaguchi","lat":35.810337,"lng":139.702301},{"店舗名":"シバ・ジョティ レストラン＆バー","住所":"〒332-0021 埼玉県川口市西川口６丁目１−５","ステータス":"APP_DISPLAY","region":"Kawaguchi","lat":35.809978,"lng":139.702286},{"店舗名":"奈奈砂锅麻辣烫","住所":"〒332-0021 埼玉県川口市西川口西川口２丁目２−３","ステータス":"APP_DISPLAY","region":"Kawaguchi","lat":35.815586,"lng":139.702255},{"店舗名":"麻辣香（化学調味料無添加マーラ ータン）","住所":"〒332-0021埼玉県川口市西川口１丁目８−４","ステータス":"APP_DISPLAY","region":"Kawaguchi","lat":35.815907,"lng":139.703278},{"店舗名":"うどんと肉 角立 浦和美園店","住所":"〒332-0023 埼玉県川口市飯塚１丁目１−２","ステータス":"APP_DISPLAY","region":"Kawaguchi","lat":35.801571,"lng":139.714706},{"店舗名":"George Garden India Royal Asian Cuisine Halal Cafe","住所":"〒332-0023 埼玉県川口市飯塚１丁目１２−５３","ステータス":"APP_DISPLAY","region":"Kawaguchi","lat":35.798458,"lng":139.715515},{"店舗名":"NISHA ASIAN DINNING＆BAR","住所":"〒332-0023 埼玉県川口市飯塚１丁目１−５ 高木ビル 2階","ステータス":"APP_DISPLAY","region":"Kawaguchi","lat":35.801281,"lng":139.714752},{"店舗名":"あだちや","住所":"〒332-0023 埼玉県川口市飯塚２丁目６−２","ステータス":"APP_DISPLAY","region":"Kawaguchi","lat":35.800434,"lng":139.712555},{"店舗名":"antcafe Kawaguchi","住所":"〒332-0025 埼玉県川口市原町９−３２","ステータス":"APP_DISPLAY","region":"Kawaguchi","lat":35.801163,"lng":139.707382},{"店舗名":"【アジアンスパイス】スリーヤ","住所":"〒332-0025 埼玉県川口市原町９−６ ローヤルシティ川口原町","ステータス":"APP_DISPLAY","region":"Kawaguchi","lat":35.800575,"lng":139.707672},{"店舗名":"ドミノ・ピザ 川口西口店","住所":"〒332-0026 埼玉県川口市南町２丁目３−２５ ルミナール和希","ステータス":"APP_DISPLAY","region":"Kawaguchi","lat":35.805214,"lng":139.707184},{"店舗名":"インディアンダイニング ピアーズ","住所":"〒332-0028 埼玉県川口市宮町","ステータス":"RECEIPT","region":"Kawaguchi","lat":35.803139,"lng":139.699631},{"店舗名":"インディアンダイニング ピアーズ","住所":"〒332-0028 埼玉県川口市宮町","ステータス":"APP_DISPLAY","region":"Kawaguchi","lat":35.803139,"lng":139.699631},{"店舗名":"ココマンナ川口店","住所":"〒332-0028 埼玉県川口市宮町１８−９","ステータス":"APP_DISPLAY","region":"Kawaguchi","lat":35.806213,"lng":139.699142},{"店舗名":"ふるふるフルーツ","住所":"〒332-0028 埼玉県川口市宮町１８−９","ステータス":"APP_DISPLAY","region":"Kawaguchi","lat":35.806213,"lng":139.699142},{"店舗名":"大戸屋ごはん処 ララガーデン川口店","住所":"〒332-0028 埼玉県川口市宮町１８−９","ステータス":"APP_DISPLAY","region":"Kawaguchi","lat":35.806213,"lng":139.699142},{"店舗名":"ケンタッキーフライドチキン ララガーデン川口店","住所":"〒332-0028 埼玉県川口市宮町１８−９","ステータス":"APP_DISPLAY","region":"Kawaguchi","lat":35.806213,"lng":139.699142},{"店舗名":"リンガーハット ララガーデン川口店","住所":"〒332-0028 埼玉県川口市宮町１８−９","ステータス":"APP_DISPLAY","region":"Kawaguchi","lat":35.806213,"lng":139.699142},{"店舗名":"元天ねぎ蛸　ララガーデン川口店","住所":"〒332-0028 埼玉県川口市宮町１８−９","ステータス":"APP_DISPLAY","region":"Kawaguchi","lat":35.806213,"lng":139.699142},{"店舗名":"【カラダが喜ぶオムライスCafe】Egg House～川口店～","住所":"〒332-0028 埼玉県川口市宮町４−２０","ステータス":"APP_DISPLAY","region":"Kawaguchi","lat":35.806095,"lng":139.699966},{"店舗名":"【チキンステーキ弁当】Master Of Chicken～川口店～","住所":"〒332-0028 埼玉県川口市宮町４−２０","ステータス":"APP_DISPLAY","region":"Kawaguchi","lat":35.806095,"lng":139.699966},{"店舗名":"情熱食堂 川口店","住所":"〒332-0031 埼玉県川口市青木１丁目１１−１","ステータス":"APP_DISPLAY","region":"Kawaguchi","lat":35.805256,"lng":139.728027},{"店舗名":"K's kitchen","住所":"〒332-0031 埼玉県川口市青木２丁目１０−５","ステータス":"APP_DISPLAY","region":"Kawaguchi","lat":35.809189,"lng":139.727219},{"店舗名":"朝日の食堂 そば川","住所":"〒332-0031 埼玉県川口市青木２丁目１５−４３ Sハイツ","ステータス":"APP_DISPLAY","region":"Kawaguchi","lat":35.809093,"lng":139.729614},{"店舗名":"Hawaiiアサイーボウル 栄養満点 fruit acai bowl 川口店","住所":"〒332-0031 埼玉県川口市青木２丁目９−１１","ステータス":"APP_DISPLAY","region":"Kawaguchi","lat":35.808666,"lng":139.727341},{"店舗名":"SHIBUYA lassi ラッシーのお店 川口店","住所":"〒332-0031 埼玉県川口市青木２丁目９−１１","ステータス":"APP_DISPLAY","region":"Kawaguchi","lat":35.808666,"lng":139.727341},{"店舗名":"Spain Leon churros スペインレオン チュロス川口店","住所":"〒332-0031 埼玉県川口市青木２丁目９−１１","ステータス":"APP_DISPLAY","region":"Kawaguchi","lat":35.808666,"lng":139.727341},{"店舗名":"どうしてもシェキシェキミルク 川口店","住所":"〒332-0031 埼玉県川口市青木２丁目９−１１","ステータス":"APP_DISPLAY","region":"Kawaguchi","lat":35.808666,"lng":139.727341},{"店舗名":"パフェメディア学部 Parfait Media 川口店","住所":"〒332-0031 埼玉県川口市青木２丁目９−１１","ステータス":"APP_DISPLAY","region":"Kawaguchi","lat":35.808666,"lng":139.727341},{"店舗名":"パワーアップ！！超濃厚バナナジュース バナナxエニシング Banana Juice specialty shop 川口店","住所":"〒332-0031 埼玉県川口市青木２丁目９−１１","ステータス":"APP_DISPLAY","region":"Kawaguchi","lat":35.808666,"lng":139.727341},{"店舗名":"ビア鶏唐揚げ 秘伝の味 bier fried chicken 川口店","住所":"〒332-0031 埼玉県川口市青木２丁目９−１１","ステータス":"APP_DISPLAY","region":"Kawaguchi","lat":35.808666,"lng":139.727341},{"店舗名":"九轉大腸地元名物スペシャルxホルモンx炒めx煮込み Special Hormone 川口店","住所":"〒332-0031 埼玉県川口市青木２丁目９−１１","ステータス":"APP_DISPLAY","region":"Kawaguchi","lat":35.808666,"lng":139.727341},{"店舗名":"五馬街パオズ(自家製中華まん)Legendary Chinese steamed川口店","住所":"〒332-0031 埼玉県川口市青木２丁目９−１１","ステータス":"APP_DISPLAY","region":"Kawaguchi","lat":35.808666,"lng":139.727341},{"店舗名":"伝説の台湾南部スペシャル トンポーロー豚骨麺X特製煮込スープ Taiwan special pork noodles 川口店","住所":"〒332-0031 埼玉県川口市青木２丁目９−１１","ステータス":"APP_DISPLAY","region":"Kawaguchi","lat":35.808666,"lng":139.727341},{"店舗名":"苺の宝石箱ストロベリーボウル strawberry bowl 川口店","住所":"〒332-0031 埼玉県川口市青木２丁目９−１１","ステータス":"APP_DISPLAY","region":"Kawaguchi","lat":35.808666,"lng":139.727341},{"店舗名":"健康と美容 筋トレプロテイン 健康革命 川口店","住所":"〒332-0031 埼玉県川口市青木２丁目９−１１","ステータス":"APP_DISPLAY","region":"Kawaguchi","lat":35.808666,"lng":139.727341},{"店舗名":"台湾ダダダダダジーパイ 美香珍 川口店","住所":"〒332-0031 埼玉県川口市青木２丁目９−１１","ステータス":"APP_DISPLAY","region":"Kawaguchi","lat":35.808666,"lng":139.727341},{"店舗名":"天下無双 王様バターご飯 Matchless King Butter Rice 川口店","住所":"〒332-0031 埼玉県川口市青木２丁目９−１１","ステータス":"APP_DISPLAY","region":"Kawaguchi","lat":35.808666,"lng":139.727341},{"店舗名":"明洞본죽&비빔밥 ビビンバと本格スンドゥブ川口店","住所":"〒332-0031 埼玉県川口市青木２丁目９−１１","ステータス":"APP_DISPLAY","region":"Kawaguchi","lat":35.808666,"lng":139.727341},{"店舗名":"正月餃子「餃子は最高」SYOUGATSU Dumpling 川口店","住所":"〒332-0031 埼玉県川口市青木２丁目９−１１","ステータス":"APP_DISPLAY","region":"Kawaguchi","lat":35.808666,"lng":139.727341},{"店舗名":"水鏡 伝説の角煮うどん Udon Noodles 川口店","住所":"〒332-0031 埼玉県川口市青木２丁目９−１１","ステータス":"APP_DISPLAY","region":"Kawaguchi","lat":35.808666,"lng":139.727341},{"店舗名":"江原道の金さん ソルロンタン 솔론탄 Seolleongtang 川口店","住所":"〒332-0031 埼玉県川口市青木２丁目９−１１","ステータス":"APP_DISPLAY","region":"Kawaguchi","lat":35.808666,"lng":139.727341},{"店舗名":"深夜食堂Midnight diner 川口店","住所":"〒332-0031 埼玉県川口市青木２丁目９−１１","ステータス":"APP_DISPLAY","region":"Kawaguchi","lat":35.808666,"lng":139.727341},{"店舗名":"給食の王道 スウィート揚げパン sweet fry bread 川口店","住所":"〒332-0031 埼玉県川口市青木２丁目９−１１","ステータス":"APP_DISPLAY","region":"Kawaguchi","lat":35.808666,"lng":139.727341},{"店舗名":"自家特製タレ元気スタミナ丼 stamina bowl 川口店","住所":"〒332-0031 埼玉県川口市青木２丁目９−１１","ステータス":"APP_DISPLAY","region":"Kawaguchi","lat":35.808666,"lng":139.727341},{"店舗名":"豚汁専門 JP style pork soup とんとん亭 tontontei 川口店","住所":"〒332-0031 埼玉県川口市青木２丁目９−１１","ステータス":"APP_DISPLAY","region":"Kawaguchi","lat":35.808666,"lng":139.727341},{"店舗名":"金子抹茶カネコMATCHA TOKYO ONLINE STORE 川口店","住所":"〒332-0031 埼玉県川口市青木２丁目９−１１","ステータス":"APP_DISPLAY","region":"Kawaguchi","lat":35.808666,"lng":139.727341},{"店舗名":"骨肉の旨味！特制牛骨味x肉炒めご飯 Beef Bone Flavour Stir-Fried Meat Rice 川口店","住所":"〒332-0031 埼玉県川口市青木２丁目９−１１","ステータス":"APP_DISPLAY","region":"Kawaguchi","lat":35.808666,"lng":139.727341},{"店舗名":"夏の惠み 冷やし中華そば市場chilled CN noodles 川口店","住所":"〒332-0031 埼玉県川口市青木２丁目９−１１","ステータス":"APP_DISPLAY","region":"Kawaguchi","lat":35.808666,"lng":139.727341},{"店舗名":"新ちゃんたこ焼き Shinntyann Takoyaki 川口店","住所":"〒332-0031 埼玉県川口市青木２丁目９−１１","ステータス":"APP_DISPLAY","region":"Kawaguchi","lat":35.808666,"lng":139.727341},{"店舗名":"肉たっぷり大阪名物｜肉吸い｜特製だし The dish is loaded with meat 川口店","住所":"〒332-0031 埼玉県川口市青木２丁目９−１１","ステータス":"APP_DISPLAY","region":"Kawaguchi","lat":35.808666,"lng":139.727341},{"店舗名":"魅惑の台湾めし「魯肉飯(ルーローハン)」 TAIWAN Lurou Rice 川口店","住所":"〒332-0031 埼玉県川口市青木２丁目９−１１","ステータス":"APP_DISPLAY","region":"Kawaguchi","lat":35.808666,"lng":139.727341},{"店舗名":"金星 ヴィーナス ビューティアサイーフルーツボウル Venus beauty Acai fruit-bowl 川口店","住所":"〒332-0031 埼玉県川口市青木２丁目９−１１","ステータス":"APP_DISPLAY","region":"Kawaguchi","lat":35.808666,"lng":139.727341},{"店舗名":"地元のルーロー麺 台湾屋台料理 local lurou noodles TAIWAN street food 川口店","住所":"〒332-0031 埼玉県川口市青木２丁目９−１１","ステータス":"APP_DISPLAY","region":"Kawaguchi","lat":35.808666,"lng":139.727341},{"店舗名":"高菜トントン丼 Takana TonTon Don 川口店","住所":"〒332-0031 埼玉県川口市青木２丁目９−１１","ステータス":"APP_DISPLAY","region":"Kawaguchi","lat":35.808666,"lng":139.727341},{"店舗名":"好的鴨 いいカモ ii Quack 川口店","住所":"〒332-0031 埼玉県川口市青木２丁目９−１１","ステータス":"APP_DISPLAY","region":"Kawaguchi","lat":35.808666,"lng":139.727341},{"店舗名":"やっぱブタキム pork kimuchi Don 川口店","住所":"〒332-0031 埼玉県川口市青木２丁目９−１１","ステータス":"APP_DISPLAY","region":"Kawaguchi","lat":35.808666,"lng":139.727341},{"店舗名":"御袋チャーハン ofukuro chahan lucky Fried rice 川口店","住所":"〒332-0031 埼玉県川口市青木２丁目９−１１","ステータス":"APP_DISPLAY","region":"Kawaguchi","lat":35.808666,"lng":139.727341},{"店舗名":"南国マンゴー＆スイーツガーデン Tropical Mango & Sweets Garden 川口店","住所":"〒332-0031 埼玉県川口市青木２丁目９−１１","ステータス":"APP_DISPLAY","region":"Kawaguchi","lat":35.808666,"lng":139.727341},{"店舗名":"ChuuChuuフルーツ盛り盛りアサイーボウル Fruit-packed Acai Bowl 川口店","住所":"〒332-0031 埼玉県川口市青木２丁目９−１１","ステータス":"APP_DISPLAY","region":"Kawaguchi","lat":35.808666,"lng":139.727341},{"店舗名":"タロ芋圓物語 (Taro Yuyuan Story)川口店","住所":"〒332-0031 埼玉県川口市青木２丁目９−１１","ステータス":"APP_DISPLAY","region":"Kawaguchi","lat":35.808666,"lng":139.727341},{"店舗名":"ガーリックライスと挽肉 garlic rice and minced meat 川口店","住所":"〒332-0031 埼玉県川口市青木２丁目９−１１","ステータス":"APP_DISPLAY","region":"Kawaguchi","lat":35.808666,"lng":139.727341},{"店舗名":"ルーローハンのお店 lur rou fan Pork Rice 豚肉庵 川口店","住所":"〒332-0031 埼玉県川口市青木２丁目９−１１","ステータス":"APP_DISPLAY","region":"Kawaguchi","lat":35.808666,"lng":139.727341},{"店舗名":"大阪焼 たこ丸 川口店","住所":"〒332-0031 埼玉県川口市青木２丁目９−１１","ステータス":"APP_DISPLAY","region":"Kawaguchi","lat":35.808666,"lng":139.727341},{"店舗名":"Kamimesi（カミメシ） 川口店","住所":"〒332-0031 埼玉県川口市青木２丁目９−１１","ステータス":"APP_DISPLAY","region":"Kawaguchi","lat":35.808666,"lng":139.727341},{"店舗名":"山椒麺舗（さんしょうめんぽ） 川口店","住所":"〒332-0031 埼玉県川口市青木２丁目９−１１","ステータス":"APP_DISPLAY","region":"Kawaguchi","lat":35.808666,"lng":139.727341},{"店舗名":"レオンの陽だまり川口店","住所":"〒332-0031 埼玉県川口市青木２丁目９−１１","ステータス":"APP_DISPLAY","region":"Kawaguchi","lat":35.808666,"lng":139.727341},{"店舗名":"DRINK STAND（ドリンクスタンド）川口店","住所":"〒332-0031 埼玉県川口市青木２丁目９−１１","ステータス":"APP_DISPLAY","region":"Kawaguchi","lat":35.808666,"lng":139.727341},{"店舗名":"韓味亭 (Kanmi-tei) × 김치찌개 (Kimchi Jjigae) 川口店","住所":"〒332-0031 埼玉県川口市青木２丁目９−１１","ステータス":"APP_DISPLAY","region":"Kawaguchi","lat":35.808666,"lng":139.727341},{"店舗名":"Bowl日和 川口店","住所":"〒332-0031 埼玉県川口市青木２丁目９−１１","ステータス":"APP_DISPLAY","region":"Kawaguchi","lat":35.808666,"lng":139.727341},{"店舗名":"すき家 川口青木店","住所":"〒332-0031 埼玉県川口市青木３丁目８−５","ステータス":"PENDING","region":"Kawaguchi","lat":35.811749,"lng":139.724747},{"店舗名":"ＨＩＭＡＬＡＹＡＮ　ＳＡＫＵＲＡ","住所":"〒332-0032","ステータス":"APP_DISPLAY","region":"Kawaguchi","lat":35.807919,"lng":139.721527},{"店舗名":"ダイナーナンバーセブン","住所":"〒332-0032 埼玉県川口市中青木１丁目１−３４","ステータス":"APP_DISPLAY","region":"Kawaguchi","lat":35.806789,"lng":139.720856},{"店舗名":"【フォーがオススメ！】Pho Min","住所":"〒332-0032 埼玉県川口市中青木２丁目１１−８ 元ハウス","ステータス":"APP_DISPLAY","region":"Kawaguchi","lat":35.810715,"lng":139.718643},{"店舗名":"妙力堂製パン所","住所":"〒332-0032 埼玉県川口市中青木２丁目２１−４６","ステータス":"APP_DISPLAY","region":"Kawaguchi","lat":35.809612,"lng":139.722153},{"店舗名":"大衆鉄板くりちゃん","住所":"〒332-0032 埼玉県川口市中青木２丁目３−２５","ステータス":"APP_DISPLAY","region":"Kawaguchi","lat":35.810173,"lng":139.718719},{"店舗名":"【タコス&ブリトーと言えば！】タコブリス TACO BRRISU 中青木2丁目店","住所":"〒332-0032 埼玉県川口市中青木２丁目３−２５ エビハラサングリーン","ステータス":"APP_DISPLAY","region":"Kawaguchi","lat":35.810173,"lng":139.718719},{"店舗名":"【ごはん特盛可】名物チャーシューエッグ丼 大衆食堂スタンドそのだ 中青木2丁目店","住所":"〒332-0032 埼玉県川口市中青木２丁目３−２５ エビハラサングリーン","ステータス":"APP_DISPLAY","region":"Kawaguchi","lat":35.810173,"lng":139.718719},{"店舗名":"仙台名物厚切り牛タン丼　牛タン本家 中青木2丁目店","住所":"〒332-0032 埼玉県川口市中青木２丁目３−２５ エビハラサングリーン","ステータス":"APP_DISPLAY","region":"Kawaguchi","lat":35.810173,"lng":139.718719},{"店舗名":"壽CURRY","住所":"〒332-0032 埼玉県川口市中青木３丁目１５−１","ステータス":"APP_DISPLAY","region":"Kawaguchi","lat":35.813564,"lng":139.719498},{"店舗名":"FOOD BANK RESTRO & CATERING","住所":"〒332-0032 埼玉県川口市中青木３丁目１６−１","ステータス":"APP_DISPLAY","region":"Kawaguchi","lat":35.81406,"lng":139.719238},{"店舗名":"蒸蒸日上","住所":"〒332-0032 埼玉県川口市中青木3丁目９-１","ステータス":"APP_DISPLAY","region":"Kawaguchi","lat":35.813831,"lng":139.717636},{"店舗名":"台湾夜市娟子米线","住所":"〒332-0032 埼玉県川口市中青木３丁目９-１","ステータス":"APP_DISPLAY","region":"Kawaguchi","lat":35.813831,"lng":139.717636},{"店舗名":"四川印象","住所":"〒332-0032 埼玉県川口市中青木３丁目９−１","ステータス":"APP_DISPLAY","region":"Kawaguchi","lat":35.813831,"lng":139.717636},{"店舗名":"ピザハット 川口店","住所":"〒332-0032 埼玉県川口市中青木３丁目９−１","ステータス":"APP_DISPLAY","region":"Kawaguchi","lat":35.813831,"lng":139.717636},{"店舗名":"チキン・ウイングストリート 川口店","住所":"〒332-0032 埼玉県川口市中青木３丁目９−１","ステータス":"APP_DISPLAY","region":"Kawaguchi","lat":35.813831,"lng":139.717636},{"店舗名":"トスカーニパスタ 川口店","住所":"〒332-0032 埼玉県川口市中青木３丁目９−１","ステータス":"APP_DISPLAY","region":"Kawaguchi","lat":35.813831,"lng":139.717636},{"店舗名":"焼鳥&焼きたてナン Yaki Asian Dining","住所":"〒332-0032 埼玉県川口市中青木５丁目９−１５","ステータス":"APP_DISPLAY","region":"Kawaguchi","lat":35.820621,"lng":139.717896},{"店舗名":"ウェンディーズ・ファーストキッチン アリオ川口店","住所":"〒332-0033 埼玉県川口市並木元町１−７９","ステータス":"APP_DISPLAY","region":"Kawaguchi","lat":35.806885,"lng":139.71582},{"店舗名":"Bull Puluアリオ川口店","住所":"〒332-0033 埼玉県川口市並木元町１−７９","ステータス":"APP_DISPLAY","region":"Kawaguchi","lat":35.806885,"lng":139.71582},{"店舗名":"珈琲館 アリオ川口店","住所":"〒332-0033 埼玉県川口市並木元町１−７９","ステータス":"APP_DISPLAY","region":"Kawaguchi","lat":35.806885,"lng":139.71582},{"店舗名":"ケンタッキーフライドチキン アリオ川口店","住所":"〒332-0033 埼玉県川口市並木元町１−７９","ステータス":"APP_DISPLAY","region":"Kawaguchi","lat":35.806885,"lng":139.71582},{"店舗名":"サブウェイSUBWAY アリオ川口店","住所":"〒332-0033 埼玉県川口市並木元町１−７９","ステータス":"APP_DISPLAY","region":"Kawaguchi","lat":35.806885,"lng":139.71582},{"店舗名":"リンガーハット アリオ川口店","住所":"〒332-0033 埼玉県川口市並木元町１−７９","ステータス":"APP_DISPLAY","region":"Kawaguchi","lat":35.806885,"lng":139.71582},{"店舗名":"点心・惣菜 KASEI","住所":"〒332-0033 埼玉県川口市並木元町１−７９","ステータス":"APP_DISPLAY","region":"Kawaguchi","lat":35.806885,"lng":139.71582},{"店舗名":"らあめん花月嵐Express アリオ川口店","住所":"〒332-0033 埼玉県川口市並木元町１−７９","ステータス":"APP_DISPLAY","region":"Kawaguchi","lat":35.806885,"lng":139.71582},{"店舗名":"LANA","住所":"〒332-0034","ステータス":"APP_DISPLAY","region":"Kawaguchi","lat":35.811596,"lng":139.712555},{"店舗名":"SWAADAM RESTAURANT AND MART","住所":"〒332-0034 埼玉県川口市並木","ステータス":"APP_DISPLAY","region":"Kawaguchi","lat":35.811596,"lng":139.712555},{"店舗名":"【ヘルシー&高タンパク弁当】鶏あえずタンパク 西川口店","住所":"〒332-0034 埼玉県川口市並木","ステータス":"APP_DISPLAY","region":"Kawaguchi","lat":35.811596,"lng":139.712555},{"店舗名":"【濃厚チーズ＆アボカド】天才のタコライス 西川口店","住所":"〒332-0034 埼玉県川口市並木","ステータス":"APP_DISPLAY","region":"Kawaguchi","lat":35.811596,"lng":139.712555},{"店舗名":"肉屋のハンバーグとガーリックライス 西川口店","住所":"〒332-0034 埼玉県川口市並木","ステータス":"APP_DISPLAY","region":"Kawaguchi","lat":35.811596,"lng":139.712555},{"店舗名":"アジアンビニタ","住所":"〒332-0034 埼玉県川口市並木2-6-19","ステータス":"APP_DISPLAY","region":"Kawaguchi","lat":35.818356,"lng":139.709229},{"店舗名":"皇家私家菜·音乐餐厅","住所":"〒332-0034 埼玉県川口市並木２丁目１５−１５","ステータス":"APP_DISPLAY","region":"Kawaguchi","lat":35.816067,"lng":139.706665},{"店舗名":"皇家娯楽","住所":"〒332-0034 埼玉県川口市並木２丁目１５−１５","ステータス":"APP_DISPLAY","region":"Kawaguchi","lat":35.816067,"lng":139.706665},{"店舗名":"Liberty","住所":"〒332-0034 埼玉県川口市並木２丁目１８−１８","ステータス":"APP_DISPLAY","region":"Kawaguchi","lat":35.815464,"lng":139.706787},{"店舗名":"バインミー シンチャオ 西川口店","住所":"〒332-0034 埼玉県川口市並木２丁目１８−１８","ステータス":"APP_DISPLAY","region":"Kawaguchi","lat":35.815464,"lng":139.706787},{"店舗名":"金豊園","住所":"〒332-0034 埼玉県川口市並木２丁目１９−１３","ステータス":"APP_DISPLAY","region":"Kawaguchi","lat":35.815475,"lng":139.7061},{"店舗名":"小味串店","住所":"〒332-0034 埼玉県川口市並木2丁目19-7","ステータス":"RECEIPT","region":"Kawaguchi","lat":35.815762,"lng":139.706055},{"店舗名":"ハッピーケバブ 2号店","住所":"〒332-0034 埼玉県川口市並木２丁目１９−７","ステータス":"APP_DISPLAY","region":"Kawaguchi","lat":35.815762,"lng":139.706055},{"店舗名":"ドミノ・ピザ 西川口駅前店","住所":"〒332-0034 埼玉県川口市並木２丁目２−２４","ステータス":"APP_DISPLAY","region":"Kawaguchi","lat":35.81609,"lng":139.705978},{"店舗名":"呑食屋りぼう 西川口店","住所":"〒332-0034 埼玉県川口市並木２丁目２−５","ステータス":"APP_DISPLAY","region":"Kawaguchi","lat":35.81654,"lng":139.706116},{"店舗名":"味ぎん 川口本店","住所":"〒332-0034 埼玉県川口市並木２丁目３２−６ 稲垣並木ハイツ","ステータス":"APP_DISPLAY","region":"Kawaguchi","lat":35.814728,"lng":139.706909},{"店舗名":"Nana Cafe","住所":"〒332-0034 埼玉県川口市並木２丁目３−２７","ステータス":"APP_DISPLAY","region":"Kawaguchi","lat":35.816612,"lng":139.706924},{"店舗名":"Nana Cafe","住所":"〒332-0034 埼玉県川口市並木２丁目３−２７ ミスカンタス並木","ステータス":"APP_DISPLAY","region":"Kawaguchi","lat":35.816612,"lng":139.706924},{"店舗名":"焼肉十六","住所":"〒332-0034 埼玉県川口市並木２丁目３８−１４ 島田ビル 1F","ステータス":"APP_DISPLAY","region":"Kawaguchi","lat":35.813454,"lng":139.707321},{"店舗名":"プラネス ダイニング バー","住所":"〒332-0034 埼玉県川口市並木２丁目４２−８","ステータス":"APP_DISPLAY","region":"Kawaguchi","lat":35.812588,"lng":139.708832},{"店舗名":"洋食レストラン チャーチル 川口店","住所":"〒332-0034 埼玉県川口市並木２丁目４３−１４","ステータス":"APP_DISPLAY","region":"Kawaguchi","lat":35.811707,"lng":139.708511},{"店舗名":"カレーの虎","住所":"〒332-0034 埼玉県川口市並木２丁目４３−１４","ステータス":"APP_DISPLAY","region":"Kawaguchi","lat":35.811707,"lng":139.708511},{"店舗名":"津気屋製麺","住所":"〒332-0034 埼玉県川口市並木３丁目１０−１３ 大吾ビル 2F","ステータス":"APP_DISPLAY","region":"Kawaguchi","lat":35.816544,"lng":139.705048},{"店舗名":"大衆酒場&食堂888 ハチミツ","住所":"〒332-0034 埼玉県川口市並木３丁目１０−６","ステータス":"APP_DISPLAY","region":"Kawaguchi","lat":35.816666,"lng":139.704788},{"店舗名":"熊猫卤味店","住所":"〒332-0034 埼玉県川口市並木３丁目１０−７","ステータス":"APP_DISPLAY","region":"Kawaguchi","lat":35.816723,"lng":139.704865},{"店舗名":"ケンタッキーフライドチキン 西川口店","住所":"〒332-0034 埼玉県川口市並木３丁目１−１","ステータス":"APP_DISPLAY","region":"Kawaguchi","lat":35.815937,"lng":139.70488},{"店舗名":"SAIGONOKA サイゴンオカ屋台西川口","住所":"〒332-0034 埼玉県川口市並木３丁目１２−３","ステータス":"APP_DISPLAY","region":"Kawaguchi","lat":35.816158,"lng":139.704178},{"店舗名":"ベトナム料理専門店  MA LONG QUAN  西川口","住所":"〒332-0034 埼玉県川口市並木３丁目１２−３","ステータス":"APP_DISPLAY","region":"Kawaguchi","lat":35.816158,"lng":139.704178},{"店舗名":"唐牛蘭州拉麺中華料理","住所":"〒332-0034 埼玉県川口市並木３丁目１２−３ ザテラス","ステータス":"APP_DISPLAY","region":"Kawaguchi","lat":35.816158,"lng":139.704178},{"店舗名":"フィッシュバーガー専門店　ロイヤル","住所":"〒332-0034 埼玉県川口市並木３丁目１３−１０","ステータス":"RECEIPT","region":"Kawaguchi","lat":35.81715,"lng":139.704544},{"店舗名":"MV COFFEE & CAKE","住所":"〒332-0034 埼玉県川口市並木３丁目１４ 第２千鶴ビル 2階","ステータス":"APP_DISPLAY","region":"Kawaguchi","lat":35.817421,"lng":139.70401},{"店舗名":"チャイナパブ霞","住所":"〒332-0034 埼玉県川口市並木３丁目１４−１６","ステータス":"APP_DISPLAY","region":"Kawaguchi","lat":35.817852,"lng":139.703903},{"店舗名":"インサドン（仁寺洞）","住所":"〒332-0034 埼玉県川口市並木３丁目１４−２５","ステータス":"APP_DISPLAY","region":"Kawaguchi","lat":35.817211,"lng":139.704529},{"店舗名":"68Quánベトナム料理","住所":"〒332-0034 埼玉県川口市並木３丁目１−５","ステータス":"APP_DISPLAY","region":"Kawaguchi","lat":35.816254,"lng":139.704834},{"店舗名":"【台湾屋台料理】永興マート","住所":"〒332-0034 埼玉県川口市並木３丁目２−１１","ステータス":"APP_DISPLAY","region":"Kawaguchi","lat":35.817066,"lng":139.705872},{"店舗名":"我が家 韓流料理","住所":"〒332-0034 埼玉県川口市並木３丁目２４−８","ステータス":"APP_DISPLAY","region":"Kawaguchi","lat":35.817818,"lng":139.704163},{"店舗名":"西川口ケバブ＆ハラルマート","住所":"〒332-0034 埼玉県川口市並木３丁目２５−１５","ステータス":"APP_DISPLAY","region":"Kawaguchi","lat":35.817127,"lng":139.7052},{"店舗名":"冨ノ家-tomika-","住所":"〒332-0034 埼玉県川口市並木３丁目２６−１７","ステータス":"APP_DISPLAY","region":"Kawaguchi","lat":35.817745,"lng":139.705048},{"店舗名":"マーちゃん","住所":"〒332-0034 埼玉県川口市並木３丁目２７－６","ステータス":"APP_DISPLAY","region":"Kawaguchi","lat":35.818302,"lng":139.704483},{"店舗名":"ＮＥＰＡＬＩ ＳＥＫＵＷＡ ＨＯＵＳＥ","住所":"〒332-0034 埼玉県川口市並木３丁目２７−６","ステータス":"APP_DISPLAY","region":"Kawaguchi","lat":35.818302,"lng":139.704483},{"店舗名":"沙県小吃西川口店","住所":"〒332-0034 埼玉県川口市並木３丁目３１−２９","ステータス":"APP_DISPLAY","region":"Kawaguchi","lat":35.818832,"lng":139.705704},{"店舗名":"韓国居酒屋 ソジュバン","住所":"〒332-0034 埼玉県川口市並木３丁目３−２２","ステータス":"APP_DISPLAY","region":"Kawaguchi","lat":35.817493,"lng":139.707153},{"店舗名":"まるとく新鮮市場","住所":"〒332-0034 埼玉県川口市並木３丁目３−６","ステータス":"APP_DISPLAY","region":"Kawaguchi","lat":35.817303,"lng":139.706177},{"店舗名":"炭蔵","住所":"〒332-0034 埼玉県川口市並木３丁目３−７","ステータス":"APP_DISPLAY","region":"Kawaguchi","lat":35.817364,"lng":139.706253},{"店舗名":"CHIBUGAN フィリピンレストラン チブガン","住所":"〒332-0034 埼玉県川口市並木３丁目５−５","ステータス":"APP_DISPLAY","region":"Kawaguchi","lat":35.818321,"lng":139.706802},{"店舗名":"韓国料理RUN２","住所":"〒332-0034 埼玉県川口市並木３丁目６−１２","ステータス":"APP_DISPLAY","region":"Kawaguchi","lat":35.818321,"lng":139.706207},{"店舗名":"オンニね","住所":"〒332-0034 埼玉県川口市並木３丁目６−１３","ステータス":"APP_DISPLAY","region":"Kawaguchi","lat":35.81831,"lng":139.706314},{"店舗名":"金城キムチ","住所":"〒332-0034 埼玉県川口市並木３丁目６−１５","ステータス":"APP_DISPLAY","region":"Kawaguchi","lat":35.818291,"lng":139.706528},{"店舗名":"モモハブ&ラフィンセンター","住所":"〒332-0034 埼玉県川口市並木３丁目６−８","ステータス":"APP_DISPLAY","region":"Kawaguchi","lat":35.81805,"lng":139.706024},{"店舗名":"インドレストラン シヴァジ","住所":"〒332-0034 埼玉県川口市並木３丁目８−６ 服部ビル","ステータス":"APP_DISPLAY","region":"Kawaguchi","lat":35.817955,"lng":139.705383},{"店舗名":"Junction Ghar Nepali and Indian Restaurant & Bar","住所":"〒332-0034 埼玉県川口市並木４丁目１６−１７","ステータス":"APP_DISPLAY","region":"Kawaguchi","lat":35.819672,"lng":139.709351},{"店舗名":"RUN","住所":"〒332-0034 埼玉県川口市並木４丁目１６−１７","ステータス":"APP_DISPLAY","region":"Kawaguchi","lat":35.819672,"lng":139.709351},{"店舗名":"スタミナ&ガッツリ男飯！肉大学 西川口店","住所":"〒332-0034 埼玉県川口市並木４丁目１６−１７","ステータス":"APP_DISPLAY","region":"Kawaguchi","lat":35.819672,"lng":139.709351},{"店舗名":"蜀王砂鍋マーラータン","住所":"〒332-0034 埼玉県川口市並木４丁目１６−１７ 青木パークハイツ","ステータス":"APP_DISPLAY","region":"Kawaguchi","lat":35.819672,"lng":139.709351},{"店舗名":"フォーチュンダイニング","住所":"〒332-0034 埼玉県川口市並木４丁目１６−１７ 青木パークハイツ","ステータス":"APP_DISPLAY","region":"Kawaguchi","lat":35.819672,"lng":139.709351},{"店舗名":"ビンテージ ネパールキッチン VINTAGE The Nepali Kitchen","住所":"〒332-0034 埼玉県川口市並木４丁目３−２","ステータス":"APP_DISPLAY","region":"Kawaguchi","lat":35.818764,"lng":139.707855},{"店舗名":"手づくり海苔弁当【結局、茶色い弁当が旨い。】西川口 Bento","住所":"〒332-0034埼玉県川口市並木3丁目4-3","ステータス":"APP_DISPLAY","region":"Kawaguchi","lat":35.817852,"lng":139.70726},{"店舗名":"からやま 川口西青木店","住所":"〒332-0035 埼玉県川口市西青木１丁目１４−４","ステータス":"APP_DISPLAY","region":"Kawaguchi","lat":35.813847,"lng":139.712234},{"店舗名":"ナポリの窯 川口店","住所":"〒332-0035 埼玉県川口市西青木１丁目２０−２３ 吉田ビル","ステータス":"APP_DISPLAY","region":"Kawaguchi","lat":35.814728,"lng":139.711395},{"店舗名":"Beans Complex","住所":"〒332-0035 埼玉県川口市西青木１丁目２３−１ メゾンイーストウッド","ステータス":"APP_DISPLAY","region":"Kawaguchi","lat":35.813148,"lng":139.710526},{"店舗名":"西川口のパン屋","住所":"〒332-0035 埼玉県川口市西青木３丁目３−１１","ステータス":"APP_DISPLAY","region":"Kawaguchi","lat":35.818932,"lng":139.709641},{"店舗名":"【フルーツたっぷりアサイーボウル】ワイキキ・ポウルズ 川口西青木店","住所":"〒332-0035 埼玉県川口市西青木３丁目３−１１","ステータス":"APP_DISPLAY","region":"Kawaguchi","lat":35.818932,"lng":139.709641},{"店舗名":"【アサイー&グリークヨーグルト】GREEKSPOON 川口西青木店","住所":"〒332-0035 埼玉県川口市西青木３丁目３−１１","ステータス":"APP_DISPLAY","region":"Kawaguchi","lat":35.818932,"lng":139.709641},{"店舗名":"Chingu （チング）西川口","住所":"〒332-0035 埼玉県川口市西青木３丁目４−１１","ステータス":"APP_DISPLAY","region":"Kawaguchi","lat":35.819218,"lng":139.710831},{"店舗名":"インド料理ダンタカリ","住所":"〒332-0035 埼玉県川口市西青木５丁目１２ー７","ステータス":"APP_DISPLAY","region":"Kawaguchi","lat":35.821072,"lng":139.716599},{"店舗名":"フレッシュネスバーガー ららテラス川口店","住所":"〒332-8511 埼玉県川口市栄町３丁目５−１","ステータス":"APP_DISPLAY","region":"Kawaguchi","lat":35.802479,"lng":139.718582},{"店舗名":"三次郎","住所":"〒333-0801 埼玉県川口市東川口１丁目１４−１２","ステータス":"APP_DISPLAY","region":"Kawaguchi","lat":35.876289,"lng":139.743027},{"店舗名":"RENCONTRES","住所":"〒333-0801 埼玉県川口市東川口２丁目１-３４","ステータス":"APP_DISPLAY","region":"Kawaguchi","lat":35.875694,"lng":139.745422},{"店舗名":"アジアンダイニング ハリオム","住所":"〒333-0801 埼玉県川口市東川口２丁目４−１５ 松戸マンション","ステータス":"APP_DISPLAY","region":"Kawaguchi","lat":35.877178,"lng":139.74649},{"店舗名":"カフェレストラン　デイジイ","住所":"〒333-0801 埼玉県川口市東川口２丁目５−１","ステータス":"APP_DISPLAY","region":"Kawaguchi","lat":35.876671,"lng":139.746689},{"店舗名":"濃厚鶏白湯つけ麺 どっかん 東川口北口駅前店","住所":"〒333-0801 埼玉県川口市東川口３丁目１−１","ステータス":"APP_DISPLAY","region":"Kawaguchi","lat":35.876408,"lng":139.744003},{"店舗名":"目利きの銀次 東川口北口駅前店","住所":"〒333-0801 埼玉県川口市東川口３丁目１−１","ステータス":"APP_DISPLAY","region":"Kawaguchi","lat":35.876408,"lng":139.744003},{"店舗名":"からあげの鉄人 東川口北口駅前店","住所":"〒333-0801 埼玉県川口市東川口３丁目１−１","ステータス":"APP_DISPLAY","region":"Kawaguchi","lat":35.876408,"lng":139.744003},{"店舗名":"大衆鰻 うな銀 東川口北口駅前店","住所":"〒333-0801 埼玉県川口市東川口３丁目１−１ 東川口ＦＴビル","ステータス":"APP_DISPLAY","region":"Kawaguchi","lat":35.876408,"lng":139.744003},{"店舗名":"とんかつの和吉 東川口北口駅前店","住所":"〒333-0801 埼玉県川口市東川口３丁目１−１ 東川口ＦＴビル 3階","ステータス":"APP_DISPLAY","region":"Kawaguchi","lat":35.876408,"lng":139.744003},{"店舗名":"ろぐ亭","住所":"〒333-0801 埼玉県川口市東川口３丁目５−２２","ステータス":"APP_DISPLAY","region":"Kawaguchi","lat":35.879166,"lng":139.744431},{"店舗名":"転生したらカレー屋だった店","住所":"〒333-0801 埼玉県川口市東川口４丁目１－２","ステータス":"APP_DISPLAY","region":"Kawaguchi","lat":35.87825,"lng":139.742203},{"店舗名":"ZAKK WILD","住所":"〒333-0802","ステータス":"APP_DISPLAY","region":"Kawaguchi","lat":35.874107,"lng":139.751648},{"店舗名":"ダタール 東川口店","住所":"〒333-0802 埼玉県川口市戸塚東","ステータス":"APP_DISPLAY","region":"Kawaguchi","lat":35.874107,"lng":139.751648},{"店舗名":"ハッピーケバブ東川口店","住所":"〒333-0802 埼玉県川口市戸塚東１丁目２−２１","ステータス":"APP_DISPLAY","region":"Kawaguchi","lat":35.874111,"lng":139.748871},{"店舗名":"千美 丼丸 東川口店","住所":"〒333-0802 埼玉県川口市戸塚東１丁目２−３１","ステータス":"APP_DISPLAY","region":"Kawaguchi","lat":35.87476,"lng":139.748215},{"店舗名":"piqnic a natural wine stand","住所":"〒333-0802 埼玉県川口市戸塚東２丁目１１−１ プロスパレス 東川口1F","ステータス":"APP_DISPLAY","region":"Kawaguchi","lat":35.87291,"lng":139.751923},{"店舗名":"ラーメンショップ マルナミ 東川口店","住所":"〒333-0802 埼玉県川口市戸塚東２丁目３−２５","ステータス":"RECEIPT","region":"Kawaguchi","lat":35.869598,"lng":139.751633},{"店舗名":"CHURROS SHOP 1008 SENYA","住所":"〒333-0802 埼玉県川口市戸塚東３丁目２−２８ 108","ステータス":"APP_DISPLAY","region":"Kawaguchi","lat":35.867149,"lng":139.753189},{"店舗名":"川口スペシャルビリヤニ Kawaguchi Special biryani","住所":"〒333-0805 埼玉県川口市戸塚鋏町７－６","ステータス":"APP_DISPLAY","region":"Kawaguchi","lat":35.866215,"lng":139.758194},{"店舗名":"STAR","住所":"〒333-0805 埼玉県川口市戸塚鋏町７−６","ステータス":"APP_DISPLAY","region":"Kawaguchi","lat":35.866215,"lng":139.758194},{"店舗名":"赤身厳選東川口精肉処","住所":"〒333-0805 埼玉県川口市戸塚鋏町７−６","ステータス":"APP_DISPLAY","region":"Kawaguchi","lat":35.866215,"lng":139.758194},{"店舗名":"芝ふく","住所":"〒333-0806 埼玉県川口市戸塚境町３１−１","ステータス":"APP_DISPLAY","region":"Kawaguchi","lat":35.862823,"lng":139.758255},{"店舗名":"からやま 川口長蔵店","住所":"〒333-0807 埼玉県川口市長蔵２丁目２８ ブライト","ステータス":"APP_DISPLAY","region":"Kawaguchi","lat":35.859035,"lng":139.758286},{"店舗名":"LITTLE SQUARE","住所":"〒333-0808 埼玉県川口市大字長蔵新田281","ステータス":"APP_DISPLAY","region":"Kawaguchi","lat":35.859127,"lng":139.753067},{"店舗名":"栄香居中華酒場","住所":"〒333-0808 埼玉県川口市大字長蔵新田２８１","ステータス":"APP_DISPLAY","region":"Kawaguchi","lat":35.859127,"lng":139.753067},{"店舗名":"エニシバル","住所":"〒333-0808 埼玉県川口市長蔵新田２８１","ステータス":"APP_DISPLAY","region":"Kawaguchi","lat":35.859127,"lng":139.753067},{"店舗名":"インド・ネパールレストラン&バー ビハン","住所":"〒333-0808 川口市長蔵新田字道内281","ステータス":"APP_DISPLAY","region":"Kawaguchi","lat":35.859169,"lng":139.752853},{"店舗名":"ピザハット 東川口店","住所":"〒333-0811 埼玉県川口市戸塚２丁目２１−３４","ステータス":"APP_DISPLAY","region":"Kawaguchi","lat":35.873928,"lng":139.746094},{"店舗名":"チキン・ウイングストリート 東川口店","住所":"〒333-0811 埼玉県川口市戸塚２丁目２１−３４","ステータス":"APP_DISPLAY","region":"Kawaguchi","lat":35.873928,"lng":139.746094},{"店舗名":"トスカーニパスタ 東川口店","住所":"〒333-0811 埼玉県川口市戸塚２丁目２１−３４","ステータス":"APP_DISPLAY","region":"Kawaguchi","lat":35.873928,"lng":139.746094},{"店舗名":"東川口名代 鰻屋 黒船","住所":"〒333-0811 埼玉県川口市戸塚２丁目２３−１ 原ビル 1F","ステータス":"APP_DISPLAY","region":"Kawaguchi","lat":35.874767,"lng":139.745941},{"店舗名":"テント村","住所":"〒333-0811 埼玉県川口市戸塚２丁目２３−２８ 東川口油屋レジデンス","ステータス":"APP_DISPLAY","region":"Kawaguchi","lat":35.87468,"lng":139.745956},{"店舗名":"リストランテ谷澤","住所":"〒333-0811 埼玉県川口市戸塚３丁目３１−３１","ステータス":"APP_DISPLAY","region":"Kawaguchi","lat":35.87096,"lng":139.748489},{"店舗名":"グルメチャイナ坊上海酒家","住所":"〒333-0811 埼玉県川口市戸塚３丁目３２−１","ステータス":"APP_DISPLAY","region":"Kawaguchi","lat":35.871861,"lng":139.749466},{"店舗名":"ケンタッキーフライドチキン 東川口店","住所":"〒333-0811 埼玉県川口市戸塚３丁目３５−１１","ステータス":"APP_DISPLAY","region":"Kawaguchi","lat":35.868622,"lng":139.751999},{"店舗名":"唐揚げ 味彩","住所":"〒333-0811 埼玉県川口市戸塚３丁目３６−１８","ステータス":"APP_DISPLAY","region":"Kawaguchi","lat":35.867062,"lng":139.752701},{"店舗名":"【3/4日分の野菜！ゴロゴロ野菜のごちそうスープ】ベジブロ 東川口店","住所":"〒333-0811 埼玉県川口市戸塚３丁目３６−１８","ステータス":"APP_DISPLAY","region":"Kawaguchi","lat":35.867062,"lng":139.752701},{"店舗名":"麺屋 桐龍 東川口本店","住所":"〒333-0811 埼玉県川口市戸塚３丁目３６−１８","ステータス":"APP_DISPLAY","region":"Kawaguchi","lat":35.867062,"lng":139.752701},{"店舗名":"【フルーツたっぷりアサイーボウル】ワイキキ・ボウルズ 東川口店","住所":"〒333-0811 埼玉県川口市戸塚３丁目３６−１８ コモディイイダ東川口店","ステータス":"APP_DISPLAY","region":"Kawaguchi","lat":35.867062,"lng":139.752701},{"店舗名":"【アサイー&グリークヨーグルト】GREEKSPOON 東川口店","住所":"〒333-0811 埼玉県川口市戸塚３丁目３６−１８ コモディイイダ東川口店","ステータス":"APP_DISPLAY","region":"Kawaguchi","lat":35.867062,"lng":139.752701},{"店舗名":"【クリームたっぷり生ドーナツ】FuWaDonuts 東川口店","住所":"〒333-0811 埼玉県川口市戸塚３丁目３６−１８ コモディイイダ東川口店","ステータス":"APP_DISPLAY","region":"Kawaguchi","lat":35.867062,"lng":139.752701},{"店舗名":"とろり天使のわらびもち 東川口店","住所":"〒333-0811 埼玉県川口市戸塚３丁目３６−１８ コモディイイダ東川口店","ステータス":"APP_DISPLAY","region":"Kawaguchi","lat":35.867062,"lng":139.752701},{"店舗名":"【とろじゅわフレンチトースト】CafeBonheur 東川口店","住所":"〒333-0811 埼玉県川口市戸塚３丁目３６−１８ コモディイイダ東川口店","ステータス":"APP_DISPLAY","region":"Kawaguchi","lat":35.867062,"lng":139.752701},{"店舗名":"デニーズ 東川口店","住所":"〒333-0811 埼玉県川口市戸塚３丁目４−２１","ステータス":"APP_DISPLAY","region":"Kawaguchi","lat":35.866367,"lng":139.745468},{"店舗名":"香港料理 易豊","住所":"〒333-0811 埼玉県川口市戸塚５丁目１９−３４","ステータス":"APP_DISPLAY","region":"Kawaguchi","lat":35.865059,"lng":139.752457},{"店舗名":"ビリーヤニハウス","住所":"〒333-0815","ステータス":"RECEIPT","region":"Kawaguchi","lat":35.869862,"lng":139.739426},{"店舗名":"ドミノ・ピザ 戸塚安行店","住所":"〒333-0817 埼玉県川口市戸塚南２丁目２−２５","ステータス":"APP_DISPLAY","region":"Kawaguchi","lat":35.862598,"lng":139.751755},{"店舗名":"カレーハウス CoCo壱番屋 東川口店","住所":"〒333-0817 埼玉県川口市戸塚南２丁目２−２５ パレス・2000","ステータス":"APP_DISPLAY","region":"Kawaguchi","lat":35.862598,"lng":139.751755},{"店舗名":"かつや 川口石神店","住所":"〒333-0823 埼玉県川口市石神６７４","ステータス":"APP_DISPLAY","region":"Kawaguchi","lat":35.860065,"lng":139.735565},{"店舗名":"吉野家 122号線石神店","住所":"〒333-0823 埼玉県川口市石神６８５−１","ステータス":"APP_DISPLAY","region":"Kawaguchi","lat":35.859554,"lng":139.734726},{"店舗名":"フードトラックグラシアス","住所":"〒333-0825 埼玉県川口市赤山５０１−１","ステータス":"APP_DISPLAY","region":"Kawaguchi","lat":35.848206,"lng":139.743179},{"店舗名":"フルバリ川口店","住所":"〒333-0831 埼玉県川口市木曽呂７９６−１","ステータス":"APP_DISPLAY","region":"Kawaguchi","lat":35.862923,"lng":139.721786},{"店舗名":"Parloir MaruMaru 川口店","住所":"〒333-0833 埼玉県川口市西新井宿１８０","ステータス":"APP_DISPLAY","region":"Kawaguchi","lat":35.843933,"lng":139.730652},{"店舗名":"kitchen kara","住所":"〒333-0833 埼玉県川口市西新井宿１８０","ステータス":"APP_DISPLAY","region":"Kawaguchi","lat":35.843933,"lng":139.730652},{"店舗名":"デニーズ 川口新井宿店","住所":"〒333-0833 埼玉県川口市西新井宿南原２９","ステータス":"APP_DISPLAY","region":"Kawaguchi","lat":35.846832,"lng":139.732178},{"店舗名":"台湾料理　萬福来","住所":"〒333-0834","ステータス":"RECEIPT","region":"Kawaguchi","lat":35.843731,"lng":139.718094},{"店舗名":"モンスターグリル イオンモール川口店","住所":"〒333-0834 埼玉県川口市安行領根岸３１８０","ステータス":"APP_DISPLAY","region":"Kawaguchi","lat":35.839615,"lng":139.723526},{"店舗名":"大戸屋ごはん処 イオンモール川口店","住所":"〒333-0834 埼玉県川口市安行領根岸3180番地","ステータス":"APP_DISPLAY","region":"Kawaguchi","lat":35.839615,"lng":139.723526},{"店舗名":"スタミナ丼 活家 浦和美園店","住所":"〒333-0835 埼玉県川口市大字道合２７９−５","ステータス":"RECEIPT","region":"Kawaguchi","lat":35.852028,"lng":139.714478},{"店舗名":"出前家系ラーメン 吉祥寺 武蔵家 浦和美園店","住所":"〒333-0835 埼玉県川口市大字道合２７９−５","ステータス":"APP_DISPLAY","region":"Kawaguchi","lat":35.852028,"lng":139.714478},{"店舗名":"十勝帯広豚丼 三代目ぶた広 浦和美園店","住所":"〒333-0835 埼玉県川口市大字道合２７９−５","ステータス":"APP_DISPLAY","region":"Kawaguchi","lat":35.852028,"lng":139.714478},{"店舗名":"アゼル","住所":"〒333-0835 埼玉県川口市道合１０６","ステータス":"APP_DISPLAY","region":"Kawaguchi","lat":35.849937,"lng":139.714844},{"店舗名":"背徳めし食堂 浦和美園店","住所":"〒333-0835 埼玉県川口市道合２７９−５","ステータス":"APP_DISPLAY","region":"Kawaguchi","lat":35.852028,"lng":139.714478},{"店舗名":"宅配とんかつ かさねや 浦和美園店","住所":"〒333-0835 埼玉県川口市道合２７９−５","ステータス":"APP_DISPLAY","region":"Kawaguchi","lat":35.852028,"lng":139.714478},{"店舗名":"台湾カフェ 時香茶 浦和美園店","住所":"〒333-0835 埼玉県川口市道合２７９−５","ステータス":"APP_DISPLAY","region":"Kawaguchi","lat":35.852028,"lng":139.714478},{"店舗名":"お粥 煮え花 浦和美園店","住所":"〒333-0835 埼玉県川口市道合２７９−５","ステータス":"APP_DISPLAY","region":"Kawaguchi","lat":35.852028,"lng":139.714478},{"店舗名":"焼きかつ丼 勝吉 浦和美園店","住所":"〒333-0835 埼玉県川口市道合２７９−５","ステータス":"APP_DISPLAY","region":"Kawaguchi","lat":35.852028,"lng":139.714478},{"店舗名":"かつ丼 とん吉 浦和美園店","住所":"〒333-0835 埼玉県川口市道合２７９−５","ステータス":"APP_DISPLAY","region":"Kawaguchi","lat":35.852028,"lng":139.714478},{"店舗名":"出前つけ麺専門店 三田製麺所 浦和美園店","住所":"〒333-0835 埼玉県川口市道合２７９−５","ステータス":"APP_DISPLAY","region":"Kawaguchi","lat":35.852028,"lng":139.714478},{"店舗名":"旨辛スタミナ鉄板焼き 天神軒 浦和美園店","住所":"〒333-0835 埼玉県川口市道合２７９−５","ステータス":"APP_DISPLAY","region":"Kawaguchi","lat":35.852028,"lng":139.714478},{"店舗名":"元祖金沢チャンピオンカレーデリバリー 浦和美園店","住所":"〒333-0835 埼玉県川口市道合２７９−５","ステータス":"APP_DISPLAY","region":"Kawaguchi","lat":35.852028,"lng":139.714478},{"店舗名":"かつ丼屋 のぶお 浦和美園店","住所":"〒333-0835 埼玉県川口市道合２７９−５","ステータス":"APP_DISPLAY","region":"Kawaguchi","lat":35.852028,"lng":139.714478},{"店舗名":"鶏弁 とり日和 浦和美園店","住所":"〒333-0835 埼玉県川口市道合２７９−５","ステータス":"APP_DISPLAY","region":"Kawaguchi","lat":35.852028,"lng":139.714478},{"店舗名":"韓国クッパとビビンバ 全州 浦和美園店","住所":"〒333-0835 埼玉県川口市道合２７９−５","ステータス":"APP_DISPLAY","region":"Kawaguchi","lat":35.852028,"lng":139.714478},{"店舗名":"韓国カルビ丼とスンドゥブ 洞山 浦和美園店","住所":"〒333-0835 埼玉県川口市道合２７９−５","ステータス":"APP_DISPLAY","region":"Kawaguchi","lat":35.852028,"lng":139.714478},{"店舗名":"とりめし かえで食堂 浦和美園店","住所":"〒333-0835 埼玉県川口市道合２７９−５","ステータス":"APP_DISPLAY","region":"Kawaguchi","lat":35.852028,"lng":139.714478},{"店舗名":"どんぶり 神宮軒 浦和美園店","住所":"〒333-0835 埼玉県川口市道合２７９−５","ステータス":"APP_DISPLAY","region":"Kawaguchi","lat":35.852028,"lng":139.714478},{"店舗名":"伝説のすた丼屋 浦和美園店","住所":"〒333-0835 埼玉県川口市道合２７９−５","ステータス":"APP_DISPLAY","region":"Kawaguchi","lat":35.852028,"lng":139.714478},{"店舗名":"さぬきうどん・どんぶり 博好 浦和美園店","住所":"〒333-0835 埼玉県川口市道合２７９−５","ステータス":"APP_DISPLAY","region":"Kawaguchi","lat":35.852028,"lng":139.714478},{"店舗名":"熟成厚切りとんてき 三元道 浦和美園店","住所":"〒333-0835 埼玉県川口市道合２７９−５","ステータス":"APP_DISPLAY","region":"Kawaguchi","lat":35.852028,"lng":139.714478},{"店舗名":"肉汁つけうどん 六三四 浦和美園店","住所":"〒333-0835 埼玉県川口市道合２７９−５","ステータス":"APP_DISPLAY","region":"Kawaguchi","lat":35.852028,"lng":139.714478},{"店舗名":"鶏天豚天 通天道 浦和美園店","住所":"〒333-0835 埼玉県川口市道合２７９−５","ステータス":"APP_DISPLAY","region":"Kawaguchi","lat":35.852028,"lng":139.714478},{"店舗名":"のり弁 浅草屋 浦和美園店","住所":"〒333-0835 埼玉県川口市道合２７９−５","ステータス":"APP_DISPLAY","region":"Kawaguchi","lat":35.852028,"lng":139.714478},{"店舗名":"吉野家 イオンモール川口前川店","住所":"〒333-0842 埼玉県川口市前川１丁目１−１１","ステータス":"APP_DISPLAY","region":"Kawaguchi","lat":35.833347,"lng":139.706055},{"店舗名":"紅虎餃子房 イオンモール川口前川","住所":"〒333-0842 埼玉県川口市前川１丁目１−１１","ステータス":"APP_DISPLAY","region":"Kawaguchi","lat":35.833347,"lng":139.706055},{"店舗名":"リンガーハット イオンモール川口前川店","住所":"〒333-0842 埼玉県川口市前川１丁目１−１１","ステータス":"APP_DISPLAY","region":"Kawaguchi","lat":35.833347,"lng":139.706055},{"店舗名":"台楽タンガオ-川口ファクトリー＆カフェ","住所":"〒333-0842 埼玉県川口市前川１丁目９−１８","ステータス":"APP_DISPLAY","region":"Kawaguchi","lat":35.834442,"lng":139.709839},{"店舗名":"Happy Shisha Bar ハッピーシーシャーバー","住所":"〒333-0842 埼玉県川口市前川３丁目１２−１","ステータス":"APP_DISPLAY","region":"Kawaguchi","lat":35.838932,"lng":139.71019},{"店舗名":"mi-和","住所":"〒333-0842 埼玉県川口市前川４丁目３５−９","ステータス":"APP_DISPLAY","region":"Kawaguchi","lat":35.840275,"lng":139.710068},{"店舗名":"吉野家 川口上青木店","住所":"〒333-0844 埼玉県川口市上青木１丁目５−６","ステータス":"APP_DISPLAY","region":"Kawaguchi","lat":35.822498,"lng":139.717331},{"店舗名":"ラリンケバブ Larin kebab","住所":"〒333-0844 埼玉県川口市上青木２丁目４７−３","ステータス":"APP_DISPLAY","region":"Kawaguchi","lat":35.824478,"lng":139.724518},{"店舗名":"スタミナ丼 活家 川口・戸田店","住所":"〒333-0844 埼玉県川口市上青木３丁目１−４","ステータス":"PENDING","region":"Kawaguchi","lat":35.826199,"lng":139.717361},{"店舗名":"宅配とんかつ かさねや 川口・戸田店","住所":"〒333-0844 埼玉県川口市上青木３丁目１−４","ステータス":"APP_DISPLAY","region":"Kawaguchi","lat":35.826199,"lng":139.717361},{"店舗名":"カレー&ナン&ラッシー Rubi Kitchen","住所":"〒333-0844 埼玉県川口市上青木３丁目１−４","ステータス":"APP_DISPLAY","region":"Kawaguchi","lat":35.826199,"lng":139.717361},{"店舗名":"焼きかつ丼 勝吉 川口・戸田店","住所":"〒333-0844 埼玉県川口市上青木３丁目１−４","ステータス":"APP_DISPLAY","region":"Kawaguchi","lat":35.826199,"lng":139.717361},{"店舗名":"台湾カフェ 時香茶 川口・戸田店","住所":"〒333-0844 埼玉県川口市上青木３丁目１−４","ステータス":"APP_DISPLAY","region":"Kawaguchi","lat":35.826199,"lng":139.717361},{"店舗名":"かつ丼屋 のぶお 川口・戸田店","住所":"〒333-0844 埼玉県川口市上青木３丁目１−４","ステータス":"APP_DISPLAY","region":"Kawaguchi","lat":35.826199,"lng":139.717361},{"店舗名":"出前つけ麺専門店 三田製麺所 川口・戸田店","住所":"〒333-0844 埼玉県川口市上青木３丁目１−４","ステータス":"APP_DISPLAY","region":"Kawaguchi","lat":35.826199,"lng":139.717361},{"店舗名":"韓国カルビ丼とスンドゥブ 洞山 川口・戸田店","住所":"〒333-0844 埼玉県川口市上青木３丁目１−４","ステータス":"APP_DISPLAY","region":"Kawaguchi","lat":35.826199,"lng":139.717361},{"店舗名":"かつ丼 とん吉 川口・戸田店","住所":"〒333-0844 埼玉県川口市上青木３丁目１−４","ステータス":"APP_DISPLAY","region":"Kawaguchi","lat":35.826199,"lng":139.717361},{"店舗名":"旨辛スタミナ鉄板焼き 天神軒 川口・戸田店","住所":"〒333-0844 埼玉県川口市上青木３丁目１−４","ステータス":"APP_DISPLAY","region":"Kawaguchi","lat":35.826199,"lng":139.717361},{"店舗名":"韓国クッパとビビンバ 全州 川口・戸田店","住所":"〒333-0844 埼玉県川口市上青木３丁目１−４","ステータス":"APP_DISPLAY","region":"Kawaguchi","lat":35.826199,"lng":139.717361},{"店舗名":"どんぶり 神宮軒 川口・戸田店","住所":"〒333-0844 埼玉県川口市上青木３丁目１−４","ステータス":"APP_DISPLAY","region":"Kawaguchi","lat":35.826199,"lng":139.717361},{"店舗名":"お粥 煮え花 川口・戸田店","住所":"〒333-0844 埼玉県川口市上青木３丁目１−４","ステータス":"APP_DISPLAY","region":"Kawaguchi","lat":35.826199,"lng":139.717361},{"店舗名":"うどんと肉 角立 川口・戸田店","住所":"〒333-0844 埼玉県川口市上青木３丁目１−４","ステータス":"APP_DISPLAY","region":"Kawaguchi","lat":35.826199,"lng":139.717361},{"店舗名":"背徳めし食堂 川口・戸田店","住所":"〒333-0844 埼玉県川口市上青木３丁目１−４","ステータス":"APP_DISPLAY","region":"Kawaguchi","lat":35.826199,"lng":139.717361},{"店舗名":"元祖金沢チャンピオンカレーデリバリー 川口・戸田店","住所":"〒333-0844 埼玉県川口市上青木３丁目１−４","ステータス":"APP_DISPLAY","region":"Kawaguchi","lat":35.826199,"lng":139.717361},{"店舗名":"さぬきうどん・どんぶり 博好 川口・戸田店","住所":"〒333-0844 埼玉県川口市上青木３丁目１−４","ステータス":"APP_DISPLAY","region":"Kawaguchi","lat":35.826199,"lng":139.717361},{"店舗名":"熟成厚切りとんてき 三元道 川口・戸田店","住所":"〒333-0844 埼玉県川口市上青木３丁目１−４","ステータス":"APP_DISPLAY","region":"Kawaguchi","lat":35.826199,"lng":139.717361},{"店舗名":"肉汁つけうどん 六三四 川口・戸田店","住所":"〒333-0844 埼玉県川口市上青木３丁目１−４","ステータス":"APP_DISPLAY","region":"Kawaguchi","lat":35.826199,"lng":139.717361},{"店舗名":"鶏天豚天 通天道 川口・戸田店","住所":"〒333-0844 埼玉県川口市上青木３丁目１−４","ステータス":"APP_DISPLAY","region":"Kawaguchi","lat":35.826199,"lng":139.717361},{"店舗名":"出前家系ラーメン 吉祥寺 武蔵家 川口・戸田店","住所":"〒333-0844 埼玉県川口市上青木３丁目１−４","ステータス":"APP_DISPLAY","region":"Kawaguchi","lat":35.826199,"lng":139.717361},{"店舗名":"本格もつ鍋 竹名屋総本店 川口・戸田店","住所":"〒333-0844 埼玉県川口市上青木３丁目１−４","ステータス":"APP_DISPLAY","region":"Kawaguchi","lat":35.826199,"lng":139.717361},{"店舗名":"十勝帯広豚丼 三代目ぶた広 川口・戸田店","住所":"〒333-0844 埼玉県川口市上青木３丁目１−４","ステータス":"APP_DISPLAY","region":"Kawaguchi","lat":35.826199,"lng":139.717361},{"店舗名":"のり弁 浅草屋 川口・戸田店","住所":"〒333-0844 埼玉県川口市上青木３丁目１−４","ステータス":"APP_DISPLAY","region":"Kawaguchi","lat":35.826199,"lng":139.717361},{"店舗名":"伝説のすた丼屋 川口・戸田店","住所":"〒333-0844 埼玉県川口市上青木３丁目１−４","ステータス":"APP_DISPLAY","region":"Kawaguchi","lat":35.826199,"lng":139.717361},{"店舗名":"ABCナン&カレーハウス","住所":"〒333-0844 埼玉県川口市上青木３丁目１−４","ステータス":"RECEIPT","region":"Kawaguchi","lat":35.826199,"lng":139.717361},{"店舗名":"とりめし かえで食堂 川口・戸田店","住所":"〒333-0844 埼玉県川口市上青木３丁目１−４ a","ステータス":"APP_DISPLAY","region":"Kawaguchi","lat":35.826199,"lng":139.717361},{"店舗名":"鶏弁 とり日和 川口・戸田店","住所":"〒333-0844 埼玉県川口市上青木３丁目１−４ a","ステータス":"APP_DISPLAY","region":"Kawaguchi","lat":35.826199,"lng":139.717361},{"店舗名":"ナマステレストラン上青木 Namasute Indian Neparian Restaurant","住所":"〒333-0844 埼玉県川口市上青木４丁目２−１８","ステータス":"APP_DISPLAY","region":"Kawaguchi","lat":35.831505,"lng":139.71759},{"店舗名":"カマロチキン 上青木店","住所":"〒333-0844 埼玉県川口市上青木４丁目２−１８","ステータス":"APP_DISPLAY","region":"Kawaguchi","lat":35.831505,"lng":139.71759},{"店舗名":"クリスピーチキンアンドトマト　上青木店","住所":"〒333-0844 埼玉県川口市上青木４丁目２−１８","ステータス":"APP_DISPLAY","region":"Kawaguchi","lat":35.831505,"lng":139.71759},{"店舗名":"ワイルドステーキ&ジム飯 ブロビー 上青木店","住所":"〒333-0844 埼玉県川口市上青木４丁目２−１８","ステータス":"APP_DISPLAY","region":"Kawaguchi","lat":35.831505,"lng":139.71759},{"店舗名":"肉テロ！肉たらしくてぎゅう 上青木店","住所":"〒333-0844 埼玉県川口市上青木４丁目２−１８","ステータス":"APP_DISPLAY","region":"Kawaguchi","lat":35.831505,"lng":139.71759},{"店舗名":"濃厚ローストビーフとハラミ丼「タルビー」 上青木店","住所":"〒333-0844 埼玉県川口市上青木４丁目２−１８","ステータス":"APP_DISPLAY","region":"Kawaguchi","lat":35.831505,"lng":139.71759},{"店舗名":"玄米ビビンバ 韓美菜（ハンヤチェ） 上青木店","住所":"〒333-0844 埼玉県川口市上青木４丁目２−１８","ステータス":"APP_DISPLAY","region":"Kawaguchi","lat":35.831505,"lng":139.71759},{"店舗名":"ハラミステーキ丼&ビビンバ 「ハラミ市場」 上青木店","住所":"〒333-0844 埼玉県川口市上青木４丁目２−１８","ステータス":"APP_DISPLAY","region":"Kawaguchi","lat":35.831505,"lng":139.71759},{"店舗名":"KUYA PEN SARISARISTORE アジア物産食品","住所":"〒333-0844 埼玉県川口市上青木４丁目２−１９","ステータス":"APP_DISPLAY","region":"Kawaguchi","lat":35.831589,"lng":139.717606},{"店舗名":"デニーズ 西川口店","住所":"〒333-0845 埼玉県川口市上青木西１丁目１−１０","ステータス":"APP_DISPLAY","region":"Kawaguchi","lat":35.824436,"lng":139.709946},{"店舗名":"小酒館","住所":"〒333-0846","ステータス":"APP_DISPLAY","region":"Kawaguchi","lat":35.827797,"lng":139.708206},{"店舗名":"もつ焼きセンター 和基","住所":"〒333-0846 埼玉県川口市南前川２丁目１５−３","ステータス":"APP_DISPLAY","region":"Kawaguchi","lat":35.831745,"lng":139.709351},{"店舗名":"いざかや 陸","住所":"〒333-0846 埼玉県川口市南前川２丁目５－６","ステータス":"APP_DISPLAY","region":"Kawaguchi","lat":35.831841,"lng":139.707077},{"店舗名":"唐あげ屋","住所":"〒333-0848","ステータス":"APP_DISPLAY","region":"Kawaguchi","lat":35.836819,"lng":139.699646},{"店舗名":"佐藤商店 (川口810す310)","住所":"〒333-0848 埼玉県川口市芝下３丁目４３−１２−１","ステータス":"APP_DISPLAY","region":"Kawaguchi","lat":35.841763,"lng":139.703796},{"店舗名":"サトウショウテン","住所":"〒333-0848 埼玉県川口市芝下３丁目４３−１２−１","ステータス":"APP_DISPLAY","region":"Kawaguchi","lat":35.841763,"lng":139.703796},{"店舗名":"サトウショウテン","住所":"〒333-0848 埼玉県川口市芝下３丁目４３−１２−１","ステータス":"APP_DISPLAY","region":"Kawaguchi","lat":35.841763,"lng":139.703796},{"店舗名":"NABABI KEBAB AND RESTAURANT","住所":"〒333-0851","ステータス":"APP_DISPLAY","region":"Kawaguchi","lat":35.82935,"lng":139.692856},{"店舗名":"正味食堂","住所":"〒333-0851 埼玉県川口市芝新町","ステータス":"APP_DISPLAY","region":"Kawaguchi","lat":35.82935,"lng":139.692856},{"店舗名":"にこまる弁当 猫橋店","住所":"〒333-0851 埼玉県川口市芝新町１５−１２","ステータス":"APP_DISPLAY","region":"Kawaguchi","lat":35.830494,"lng":139.696182},{"店舗名":"【メガ盛り‼】1キロ弁当工房肉MAX!!大盛りからあげお弁当 猫橋店","住所":"〒333-0851 埼玉県川口市芝新町１５−１２ 松川マンション","ステータス":"APP_DISPLAY","region":"Kawaguchi","lat":35.830494,"lng":139.696182},{"店舗名":"【フルーツたっぷりアサイーボウル】ワイキキ・ボウルズ 猫橋店","住所":"〒333-0851 埼玉県川口市芝新町１５−１２ 松川マンション","ステータス":"APP_DISPLAY","region":"Kawaguchi","lat":35.830494,"lng":139.696182},{"店舗名":"【もっちり玄米と低脂質チキン】とりげん食堂 猫橋店","住所":"〒333-0851 埼玉県川口市芝新町１５−１２ 松川マンション","ステータス":"APP_DISPLAY","region":"Kawaguchi","lat":35.830494,"lng":139.696182},{"店舗名":"夢の一歩 蕨店","住所":"〒333-0851 埼玉県川口市芝新町２−１","ステータス":"APP_DISPLAY","region":"Kawaguchi","lat":35.829208,"lng":139.689514},{"店舗名":"中華そば 葵","住所":"〒333-0851 埼玉県川口市芝新町２−１９","ステータス":"APP_DISPLAY","region":"Kawaguchi","lat":35.829128,"lng":139.689819},{"店舗名":"Barani Myanmar Restaurant","住所":"〒333-0851 埼玉県川口市芝新町３","ステータス":"RECEIPT","region":"Kawaguchi","lat":35.829269,"lng":139.690857},{"店舗名":"ハッピーケバブ 蕨店","住所":"〒333-0851 埼玉県川口市芝新町７−９","ステータス":"APP_DISPLAY","region":"Kawaguchi","lat":35.829388,"lng":139.693024},{"店舗名":"らぁ麺 㐂楽(きらく)","住所":"〒333-0851 埼玉県川口市芝新町８−３０","ステータス":"APP_DISPLAY","region":"Kawaguchi","lat":35.82954,"lng":139.693008},{"店舗名":"バインミーシンチャオ蕨店","住所":"〒333-0852 埼玉県川口市芝樋ノ爪１丁目１０−２０","ステータス":"APP_DISPLAY","region":"Kawaguchi","lat":35.832592,"lng":139.687912},{"店舗名":"バインミーゴンゴン 蕨店","住所":"〒333-0852 埼玉県川口市芝樋ノ爪1丁目1-47","ステータス":"APP_DISPLAY","region":"Kawaguchi","lat":35.830204,"lng":139.68927},{"店舗名":"海鮮酒場 通","住所":"〒333-0853 埼玉県川口市芝園町２−１","ステータス":"APP_DISPLAY","region":"Kawaguchi","lat":35.829819,"lng":139.687042},{"店舗名":"錦源熟食物産","住所":"〒333-0853 埼玉県川口市芝園町２−１−１１５号","ステータス":"APP_DISPLAY","region":"Kawaguchi","lat":35.829819,"lng":139.687042},{"店舗名":"釜山本家","住所":"〒333-0853 埼玉県川口市芝園町３−１１−１０４","ステータス":"APP_DISPLAY","region":"Kawaguchi","lat":35.831841,"lng":139.682693},{"店舗名":"小木屋","住所":"〒333-0853 埼玉県川口市芝園町３－１１－１０５","ステータス":"APP_DISPLAY","region":"Kawaguchi","lat":35.831841,"lng":139.682693},{"店舗名":"SSキッチン　埼玉店","住所":"〒333-0853 埼玉県川口市芝園町３丁目２−１","ステータス":"APP_DISPLAY","region":"Kawaguchi","lat":35.831841,"lng":139.682693},{"店舗名":"ドミノ・ピザ 蕨芝西店","住所":"〒333-0855 埼玉県川口市芝西２丁目２６−２３","ステータス":"APP_DISPLAY","region":"Kawaguchi","lat":35.84153,"lng":139.685776},{"店舗名":"珈琲通","住所":"〒333-0861","ステータス":"APP_DISPLAY","region":"Kawaguchi","lat":35.852264,"lng":139.701096},{"店舗名":"かっぱ寿司 川口柳崎店","住所":"〒333-0861 埼玉県川口市柳崎３丁目８−２１","ステータス":"APP_DISPLAY","region":"Kawaguchi","lat":35.85347,"lng":139.698654},{"店舗名":"丼ぶり専門 清水港 バンノウ水産 川口柳崎店","住所":"〒333-0861 埼玉県川口市柳崎３丁目８−２１","ステータス":"APP_DISPLAY","region":"Kawaguchi","lat":35.85347,"lng":139.698654},{"店舗名":"吉野家 川口柳崎店","住所":"〒333-0861 埼玉県川口市柳崎３丁目９−２","ステータス":"APP_DISPLAY","region":"Kawaguchi","lat":35.853676,"lng":139.698868},{"店舗名":"うなぎはし谷","住所":"〒333-0862","ステータス":"APP_DISPLAY","region":"Kawaguchi","lat":35.855251,"lng":139.705338},{"店舗名":"北園チキン","住所":"〒333-0862 埼玉県川口市北園町１３−１３","ステータス":"APP_DISPLAY","region":"Kawaguchi","lat":35.856045,"lng":139.703247},{"店舗名":"恵登屋","住所":"〒333-0862 埼玉県川口市北園町１−５","ステータス":"APP_DISPLAY","region":"Kawaguchi","lat":35.853069,"lng":139.703476},{"店舗名":"めし処BarubunKitchen","住所":"〒333-0862 埼玉県川口市北園町１５−２","ステータス":"APP_DISPLAY","region":"Kawaguchi","lat":35.856236,"lng":139.703232},{"店舗名":"からあげキッチン Toshi","住所":"〒333-0862 埼玉県川口市北園町１５−２","ステータス":"APP_DISPLAY","region":"Kawaguchi","lat":35.856236,"lng":139.703232},{"店舗名":"麺屋みやぎ","住所":"〒333-0862 埼玉県川口市北園町15-4","ステータス":"APP_DISPLAY","region":"Kawaguchi","lat":35.856392,"lng":139.703247},{"店舗名":"チキン・ウイングストリート 東浦和店","住所":"〒333-0862 埼玉県川口市北園町１５−９","ステータス":"APP_DISPLAY","region":"Kawaguchi","lat":35.856636,"lng":139.703705},{"店舗名":"トスカーニパスタ 東浦和店","住所":"〒333-0862 埼玉県川口市北園町１５−９","ステータス":"APP_DISPLAY","region":"Kawaguchi","lat":35.856636,"lng":139.703705},{"店舗名":"ピザハット 東浦和店","住所":"〒333-0862 埼玉県川口市北園町１５−９ サンパティオ 102","ステータス":"APP_DISPLAY","region":"Kawaguchi","lat":35.856636,"lng":139.703705},{"店舗名":"YUI BANH MIⅡ","住所":"〒333-0862 埼玉県川口市北園町１７-１９","ステータス":"APP_DISPLAY","region":"Kawaguchi","lat":35.856556,"lng":139.706116},{"店舗名":"Bakery Yui","住所":"〒333-0862 埼玉県川口市北園町１７−１９","ステータス":"APP_DISPLAY","region":"Kawaguchi","lat":35.856556,"lng":139.706116},{"店舗名":"YUI BANH MIⅡ","住所":"〒333-0862 埼玉県川口市北園町１７−１９","ステータス":"APP_DISPLAY","region":"Kawaguchi","lat":35.856556,"lng":139.706116},{"店舗名":"YUI BANH MIⅡ","住所":"〒333-0862 埼玉県川口市北園町１７−１９","ステータス":"APP_DISPLAY","region":"Kawaguchi","lat":35.856556,"lng":139.706116},{"店舗名":"らあめん花月嵐　川口柳根町店","住所":"〒333-0864 埼玉県川口市柳根町５−６","ステータス":"APP_DISPLAY","region":"Kawaguchi","lat":35.851772,"lng":139.704056},{"店舗名":"0cal埼玉川口店","住所":"〒333-0865","ステータス":"APP_DISPLAY","region":"Kawaguchi","lat":35.846657,"lng":139.699402},{"店舗名":"てづくりべんとうのくるり","住所":"〒333-0866 埼玉県川口市大 字芝 ６９９０−１","ステータス":"APP_DISPLAY","region":"Kawaguchi","lat":35.847996,"lng":139.684128},{"店舗名":"中国家庭料理 佳成","住所":"〒333-0866 埼玉県川口市大字芝５３４７ー４３","ステータス":"APP_DISPLAY","region":"Kawaguchi","lat":35.839703,"lng":139.695145},{"店舗名":"Indian Restaurant & bar Arati","住所":"〒333-0866 埼玉県川口市大字芝５３７４−１６","ステータス":"APP_DISPLAY","region":"Kawaguchi","lat":35.838959,"lng":139.695831},{"店舗名":"スワスティカ","住所":"〒333-0866 埼玉県川口市大字芝６９９０-１","ステータス":"RECEIPT","region":"Kawaguchi","lat":35.847996,"lng":139.684128},{"店舗名":"インドネパールカレーハウス ベットガット","住所":"〒333-0866 埼玉県川口市芝２丁目４−１３","ステータス":"APP_DISPLAY","region":"Kawaguchi","lat":35.8325,"lng":139.696625},{"店舗名":"【とろじゅわフレンチトースト】CafeBonheur 川口芝店","住所":"〒333-0866 埼玉県川口市芝２丁目４−１３ 1階","ステータス":"APP_DISPLAY","region":"Kawaguchi","lat":35.8325,"lng":139.696625},{"店舗名":"究極のソーセージエッグ丼 川口芝店","住所":"〒333-0866 埼玉県川口市芝２丁目４−１３ 1階","ステータス":"APP_DISPLAY","region":"Kawaguchi","lat":35.8325,"lng":139.696625},{"店舗名":"吉野家 川口芝店","住所":"〒333-0866 埼玉県川口市芝３丁目１９−４ ユキハイツ","ステータス":"APP_DISPLAY","region":"Kawaguchi","lat":35.835098,"lng":139.698639},{"店舗名":"VOLKS 川口店","住所":"〒333-0866 埼玉県川口市芝３丁目２３−２２","ステータス":"APP_DISPLAY","region":"Kawaguchi","lat":35.836185,"lng":139.698242},{"店舗名":"金糸細麺 彩","住所":"〒333-0866 埼玉県川口市芝３丁目６−１２","ステータス":"APP_DISPLAY","region":"Kawaguchi","lat":35.836063,"lng":139.696152},{"店舗名":"本場のインドカレー店 ウマー","住所":"〒333-0866 埼玉県川口市芝４丁目１−２","ステータス":"APP_DISPLAY","region":"Kawaguchi","lat":35.83213,"lng":139.690765},{"店舗名":"高級食パン 一期一会","住所":"〒333-0866 埼玉県川口市芝４丁目１−３","ステータス":"APP_DISPLAY","region":"Kawaguchi","lat":35.832222,"lng":139.69075},{"店舗名":"おばんざい酒場喜酔","住所":"〒333-0866 埼玉県川口市芝５丁目１−１７","ステータス":"APP_DISPLAY","region":"Kawaguchi","lat":35.829773,"lng":139.691574},{"店舗名":"Antenna Books & Cafe ココシバ Antenna Books & Cafe COCOSHIBA","住所":"〒333-0866 埼玉県川口市芝５丁目５−１３ ラルーチェ","ステータス":"APP_DISPLAY","region":"Kawaguchi","lat":35.830555,"lng":139.692154},{"店舗名":"インドネパール料理 スワスティカ-SWASTIKA","住所":"〒333-0866 埼玉県川口市芝６９９０−１","ステータス":"APP_DISPLAY","region":"Kawaguchi","lat":35.847996,"lng":139.684128},{"店舗名":"ケバブセンター川口店","住所":"〒333-0866 埼玉県川口市芝７２３１−４","ステータス":"APP_DISPLAY","region":"Kawaguchi","lat":35.847996,"lng":139.684128},{"店舗名":"SICKLY Delicious burger cafe","住所":"〒333-0869 埼玉県川口市芝宮根町１−４２","ステータス":"APP_DISPLAY","region":"Kawaguchi","lat":35.837757,"lng":139.697693},{"店舗名":"すき家 川口芝店","住所":"〒333-0869 埼玉県川口市芝宮根町７−２","ステータス":"RECEIPT","region":"Kawaguchi","lat":35.838909,"lng":139.696472},{"店舗名":"la tua citta","住所":"〒334-0001 埼玉県川口市桜町１丁目１１−４０","ステータス":"APP_DISPLAY","region":"Kawaguchi","lat":35.837547,"lng":139.737595},{"店舗名":"麦東香(マイドンシャン)","住所":"〒334-0001 埼玉県川口市桜町５丁目５−９","ステータス":"APP_DISPLAY","region":"Kawaguchi","lat":35.839359,"lng":139.74118},{"店舗名":"YOUキッチン","住所":"〒334-0001 埼玉県川口市桜町５丁目５−９","ステータス":"APP_DISPLAY","region":"Kawaguchi","lat":35.839359,"lng":139.74118},{"店舗名":"YOUキッチン ダイニング","住所":"〒334-0001 埼玉県川口市桜町５丁目５−９ 小林マンション","ステータス":"APP_DISPLAY","region":"Kawaguchi","lat":35.839359,"lng":139.74118},{"店舗名":"東京油そば 江戸川橋亭 東川口店","住所":"〒334-0003 埼玉県川口市坂下町２丁目１０−５","ステータス":"APP_DISPLAY","region":"Kawaguchi","lat":35.829029,"lng":139.745117},{"店舗名":"クリスピーチキンアンドトマト 鳩ヶ谷店","住所":"〒334-0003 埼玉県川口市坂下町２丁目５−２","ステータス":"APP_DISPLAY","region":"Kawaguchi","lat":35.830193,"lng":139.74144},{"店舗名":"すき家 鳩ヶ谷里店","住所":"〒334-0005 埼玉県川口市里４６６−１","ステータス":"PENDING","region":"Kawaguchi","lat":35.835556,"lng":139.72995},{"店舗名":"吉野家 鳩ヶ谷店","住所":"〒334-0011 埼玉県川口市三ツ和２丁目１２−１","ステータス":"APP_DISPLAY","region":"Kawaguchi","lat":35.825272,"lng":139.745605},{"店舗名":"ドミノ・ピザ 鳩ヶ谷店","住所":"〒334-0013 埼玉県川口市南鳩ヶ谷２丁目８−３","ステータス":"APP_DISPLAY","region":"Kawaguchi","lat":35.819153,"lng":139.745956},{"店舗名":"かつや 川口南鳩ヶ谷店","住所":"〒334-0013 埼玉県川口市南鳩ヶ谷４丁目１−２１","ステータス":"APP_DISPLAY","region":"Kawaguchi","lat":35.817039,"lng":139.736511},{"店舗名":"La Japonesa","住所":"〒334-0013 埼玉県川口市南鳩ヶ谷４丁目１７−１６ ラシーヌ・ド・ラブーレ","ステータス":"APP_DISPLAY","region":"Kawaguchi","lat":35.813919,"lng":139.738113},{"店舗名":"La Veraison Bistro","住所":"〒334-0013 埼玉県川口市南鳩ヶ谷４丁目３−１３−１","ステータス":"APP_DISPLAY","region":"Kawaguchi","lat":35.815426,"lng":139.73616},{"店舗名":"インド料理 マンディル","住所":"〒334-0013 埼玉県川口市南鳩ヶ谷５丁目３３−１７","ステータス":"APP_DISPLAY","region":"Kawaguchi","lat":35.817673,"lng":139.731583},{"店舗名":"本場沖縄タコライス 安行吉蔵店","住所":"〒334-0053 埼玉県川口市大字安行吉蔵206-3","ステータス":"APP_DISPLAY","region":"Kawaguchi","lat":35.847538,"lng":139.769104},{"店舗名":"極太の麻婆春雨 安行吉蔵店","住所":"〒334-0053 埼玉県川口市大字安行吉蔵２０６−３","ステータス":"APP_DISPLAY","region":"Kawaguchi","lat":35.847538,"lng":139.769104},{"店舗名":"【本格麻辣×自家製春雨】白虎麻辣湯 安行吉蔵店","住所":"〒334-0053 埼玉県川口市安行吉蔵２０６−３","ステータス":"RECEIPT","region":"Kawaguchi","lat":35.847538,"lng":139.769104},{"店舗名":"DAPUR HALAL INDONESIA","住所":"〒334-0054 埼玉県川口市安行北谷５３３−１２","ステータス":"APP_DISPLAY","region":"Kawaguchi","lat":35.841217,"lng":139.776886},{"店舗名":"101's  十勝豚丼と北海道ザンキ　埼玉3号店","住所":"〒334-0056 埼玉県川口市峯２３４−１","ステータス":"APP_DISPLAY","region":"Kawaguchi","lat":35.832363,"lng":139.774445},{"店舗名":"すき家 川口榛松店","住所":"〒334-0062 埼玉県川口市榛松１８６３","ステータス":"PENDING","region":"Kawaguchi","lat":35.826035,"lng":139.778549},{"店舗名":"はえまつクレープ","住所":"〒334-0062 埼玉県川口市榛松３５０−１","ステータス":"APP_DISPLAY","region":"Kawaguchi","lat":35.821571,"lng":139.769669},{"店舗名":"ヒマラヤテイストカレー","住所":"〒334-0063 埼玉県川口市東本郷１６５４−１","ステータス":"APP_DISPLAY","region":"Kawaguchi","lat":35.831158,"lng":139.761673},{"店舗名":"MEHDI KEBAB","住所":"〒334-0064","ステータス":"APP_DISPLAY","region":"Kawaguchi","lat":35.824135,"lng":139.76178},{"店舗名":"まぜらーくらうん","住所":"〒334-0064","ステータス":"APP_DISPLAY","region":"Kawaguchi","lat":35.824135,"lng":139.76178},{"店舗名":"中国料理　九龍居　川口店","住所":"〒334-0068 埼玉県川口市新堀町","ステータス":"APP_DISPLAY","region":"Kawaguchi","lat":35.825058,"lng":139.781906},{"店舗名":"ココハウス21cat","住所":"〒334-0071 埼玉県川口市大字安行慈林１７３","ステータス":"APP_DISPLAY","region":"Kawaguchi","lat":35.836716,"lng":139.751358},{"店舗名":"たい焼き　てまり","住所":"〒334-0072 埼玉県川口市大字安行吉岡1272-5","ステータス":"RECEIPT","region":"Kawaguchi","lat":35.838608,"lng":139.754822},{"店舗名":"紫陽花堂(あじさいどう)","住所":"〒334-0073 埼玉県川口市赤井６４６−９６","ステータス":"APP_DISPLAY","region":"Kawaguchi","lat":35.829124,"lng":139.752563},{"店舗名":"BENTO STORY","住所":"〒334-0076 埼玉県川口市本蓮３丁目１６−１９","ステータス":"APP_DISPLAY","region":"Kawaguchi","lat":35.817062,"lng":139.762924},{"店舗名":"ベトナムフォー専門店 PhO NhO フォーニョー","住所":"埼玉県 川口市 西川口 １-５-５","ステータス":"APP_DISPLAY","region":"Kawaguchi","lat":35.815044,"lng":139.704208},{"店舗名":"珈琲館　川口北園町店","住所":"埼玉県川口市","ステータス":"APP_DISPLAY","region":"Kawaguchi","lat":35.806717,"lng":139.723404},{"店舗名":"珈琲館 西川口並木店","住所":"埼玉県川口市","ステータス":"APP_DISPLAY","region":"Kawaguchi","lat":35.806717,"lng":139.723404},{"店舗名":"カフェ・ベローチェ 川口店","住所":"埼玉県川口市","ステータス":"APP_DISPLAY","region":"Kawaguchi","lat":35.806717,"lng":139.723404},{"店舗名":"カフェ・ベローチェ 川口栄町三丁目店","住所":"埼玉県川口市","ステータス":"APP_DISPLAY","region":"Kawaguchi","lat":35.806717,"lng":139.723404},{"店舗名":"らあめん花月嵐 東領家店","住所":"埼玉県川口市東領家2-2-10","ステータス":"APP_DISPLAY","region":"Kawaguchi","lat":35.794575,"lng":139.747879},{"店舗名":"カレーハウス CoCo壱番屋 川口領家中央通り店","住所":"埼玉県川口市領家三丁目1番6号","ステータス":"APP_DISPLAY","region":"Kawaguchi","lat":35.793579,"lng":139.743988},{"店舗名":"【ご飯大盛り無料】キッチン バラティエ 京都北山店","住所":"埼玉県川口市栄町3-5-9　ダイタン川口ビル1階","ステータス":"APP_DISPLAY","region":"Kawaguchi","lat":35.803322,"lng":139.717773},{"店舗名":"紅花","住所":"川口市並木3-6-15","ステータス":"APP_DISPLAY","region":"Kawaguchi","lat":35.818291,"lng":139.706528},{"店舗名":"メレンゲ　アリオ川口店","住所":"川口市並木元町1-79 アリオモール3F","ステータス":"APP_DISPLAY","region":"Kawaguchi","lat":35.806885,"lng":139.71582}]