[{"店舗名":"ボッコカリー BOCCO CURRY","住所":"〒596-0001 大阪府岸和田市磯上町","ステータス":"APP_DISPLAY","region":"Kishiwada","lat":34.484871,"lng":135.39238},{"店舗名":"氷月庵","住所":"〒596-0001 大阪府岸和田市磯上町４丁目１０−３","ステータス":"APP_DISPLAY","region":"Kishiwada","lat":34.486286,"lng":135.392883},{"店舗名":"お好みてっぱん焼ここち","住所":"〒596-0001 大阪府岸和田市磯上町４丁目２３−２８ マンション加藤","ステータス":"APP_DISPLAY","region":"Kishiwada","lat":34.486546,"lng":135.394806},{"店舗名":"蓉堂・ロンタン隠れ古民家本格四川料理","住所":"〒596-0003 大阪府岸和田市中井町２丁目１３−１３","ステータス":"APP_DISPLAY","region":"Kishiwada","lat":34.47855,"lng":135.403381},{"店舗名":"BAR Richard","住所":"〒596-0003 大阪府岸和田市中井町３丁目２−２３","ステータス":"APP_DISPLAY","region":"Kishiwada","lat":34.477058,"lng":135.404343},{"店舗名":"シャクティパレス　岸和田店","住所":"〒596-0004 大阪府岸和田市荒木町２丁目１９−８","ステータス":"APP_DISPLAY","region":"Kishiwada","lat":34.472263,"lng":135.401688},{"店舗名":"路地裏弁当 まど弁","住所":"〒596-0005 大阪府岸和田市春木旭町５−２８","ステータス":"APP_DISPLAY","region":"Kishiwada","lat":34.475487,"lng":135.394196},{"店舗名":"すーさんのインド料理 　ラパーク岸和田店","住所":"〒596-0006 大阪府岸和田市春木若松町21-1","ステータス":"APP_DISPLAY","region":"Kishiwada","lat":34.478291,"lng":135.392151},{"店舗名":"ファーストキッチン　岸和田ラ・パーク店","住所":"〒596-0006 大阪府岸和田市春木若松町２１−２９","ステータス":"APP_DISPLAY","region":"Kishiwada","lat":34.480042,"lng":135.391098},{"店舗名":"ケンタッキーフライドチキン 南海春木駅店","住所":"〒596-0006 大阪府岸和田市春木若松町３１４－６","ステータス":"APP_DISPLAY","region":"Kishiwada","lat":34.478977,"lng":135.391144},{"店舗名":"ジャンボ酒場 春木駅前店","住所":"〒596-0006 大阪府岸和田市春木若松町３１４−６","ステータス":"APP_DISPLAY","region":"Kishiwada","lat":34.478977,"lng":135.391144},{"店舗名":"ジェラフル岸和田CANCAN店","住所":"〒596-0014 大阪府岸和田市港緑町","ステータス":"APP_DISPLAY","region":"Kishiwada","lat":34.468323,"lng":135.371338},{"店舗名":"玉姫堂　ベビーカステラ","住所":"〒596-0014 大阪府岸和田市港緑町２−１","ステータス":"APP_DISPLAY","region":"Kishiwada","lat":34.466705,"lng":135.371613},{"店舗名":"七宝麻辣湯(チーパオマーラータン) 岸和田カンカンベイサイドモール店","住所":"〒596-0014 大阪府岸和田市港緑町2−3","ステータス":"APP_DISPLAY","region":"Kishiwada","lat":34.466705,"lng":135.371613},{"店舗名":"CAN CAFE","住所":"〒596-0021 大阪府岸和田市松風町１４−８","ステータス":"APP_DISPLAY","region":"Kishiwada","lat":34.484253,"lng":135.382339},{"店舗名":"吉野家 臨海岸和田店","住所":"〒596-0041 大阪府岸和田市下野町３丁目１０−３９","ステータス":"APP_DISPLAY","region":"Kishiwada","lat":34.471756,"lng":135.376022},{"店舗名":"STAR☆CAFE","住所":"〒596-0044 大阪府岸和田市西之内町","ステータス":"APP_DISPLAY","region":"Kishiwada","lat":34.466732,"lng":135.392868},{"店舗名":"ドミノ・ピザ 和泉大宮店","住所":"〒596-0044 大阪府岸和田市西之内町２７−１６","ステータス":"APP_DISPLAY","region":"Kishiwada","lat":34.468304,"lng":135.389389},{"店舗名":"大阪ふくちぁんラーメン 岸和田店","住所":"〒596-0044 大阪府岸和田市西之内町６５−３０ 大阪ふくちあん","ステータス":"APP_DISPLAY","region":"Kishiwada","lat":34.462105,"lng":135.393051},{"店舗名":"ラーメン男塾 岸和田店 Osaka Fukuchan Ramen, Kishiwadaten","住所":"〒596-0044 大阪府岸和田市西之内町６５−３０ 大阪ふくちあん","ステータス":"APP_DISPLAY","region":"Kishiwada","lat":34.462105,"lng":135.393051},{"店舗名":"焼肉　扇","住所":"〒596-0045 大阪府岸和田市別所町２丁目","ステータス":"APP_DISPLAY","region":"Kishiwada","lat":34.459366,"lng":135.383499},{"店舗名":"おばんざいTANUKI","住所":"〒596-0046 大阪府岸和田市藤井町１丁目１６−２９","ステータス":"APP_DISPLAY","region":"Kishiwada","lat":34.466698,"lng":135.385727},{"店舗名":"BAR Q'laso","住所":"〒596-0046 大阪府岸和田市藤井町１丁目１９−１４","ステータス":"APP_DISPLAY","region":"Kishiwada","lat":34.467606,"lng":135.385696},{"店舗名":"一力寿司","住所":"〒596-0047 大阪府岸和田市上野町東","ステータス":"APP_DISPLAY","region":"Kishiwada","lat":34.467754,"lng":135.382996},{"店舗名":"恋するフワラ","住所":"〒596-0047 大阪府岸和田市上野町東１３","ステータス":"APP_DISPLAY","region":"Kishiwada","lat":34.467819,"lng":135.384674},{"店舗名":"BAR UCHIYAMA","住所":"〒596-0047 大阪府岸和田市上野町東１３−８−１０４","ステータス":"APP_DISPLAY","region":"Kishiwada","lat":34.467865,"lng":135.384521},{"店舗名":"CLAIR","住所":"〒596-0047 大阪府岸和田市上野町東６−１２","ステータス":"APP_DISPLAY","region":"Kishiwada","lat":34.467785,"lng":135.382202},{"店舗名":"ケンタッキーフライドチキン Ｒ２６岸和田店","住所":"〒596-0049 大阪府岸和田市八阪町１丁目１０−４７","ステータス":"APP_DISPLAY","region":"Kishiwada","lat":34.459007,"lng":135.39006},{"店舗名":"吉野家 26号線岸和田八阪店","住所":"〒596-0049 大阪府岸和田市八阪町１丁目７−１３","ステータス":"APP_DISPLAY","region":"Kishiwada","lat":34.456951,"lng":135.388031},{"店舗名":"いしづち岸和田店","住所":"〒596-0052","ステータス":"RECEIPT","region":"Kishiwada","lat":34.467468,"lng":135.375534},{"店舗名":"インド・ネパール料理カリスマ","住所":"〒596-0054","ステータス":"APP_DISPLAY","region":"Kishiwada","lat":34.460697,"lng":135.375885},{"店舗名":"インドネパール料理KARISHMA","住所":"〒596-0054","ステータス":"RECEIPT","region":"Kishiwada","lat":34.460697,"lng":135.375885},{"店舗名":"山内農場 岸和田駅前通商店街店","住所":"〒596-0054 大阪府岸和田市宮本町１２−２５ ファームビル","ステータス":"APP_DISPLAY","region":"Kishiwada","lat":34.461376,"lng":135.377075},{"店舗名":"韓国クリスピーチキン＆HOTドッグ　チキンモッコパ 岸和田駅前通商店街店","住所":"〒596-0054 大阪府岸和田市宮本町１２−２５ ファームビル","ステータス":"APP_DISPLAY","region":"Kishiwada","lat":34.461376,"lng":135.377075},{"店舗名":"カルビ丼・赤チゲ グンチャン 岸和田駅前通商店街店","住所":"〒596-0054 大阪府岸和田市宮本町１２−２５ ファームビル","ステータス":"APP_DISPLAY","region":"Kishiwada","lat":34.461376,"lng":135.377075},{"店舗名":"とんかつの和吉 南海岸和田西口駅前店","住所":"〒596-0054 大阪府岸和田市宮本町１６−２１","ステータス":"APP_DISPLAY","region":"Kishiwada","lat":34.460754,"lng":135.377655},{"店舗名":"目利きの銀次 南海岸和田西口駅前店","住所":"〒596-0054 大阪府岸和田市宮本町１６−２１","ステータス":"APP_DISPLAY","region":"Kishiwada","lat":34.460754,"lng":135.377655},{"店舗名":"ジャンボ酒場 岸和田駅前店","住所":"〒596-0054 大阪府岸和田市宮本町１６−２１","ステータス":"APP_DISPLAY","region":"Kishiwada","lat":34.460754,"lng":135.377655},{"店舗名":"濃厚鶏白湯つけ麺 どっかん 南海岸和田西口駅前店","住所":"〒596-0054 大阪府岸和田市宮本町１６−２１ 岸和田駅前長岡店舗 1階","ステータス":"APP_DISPLAY","region":"Kishiwada","lat":34.460754,"lng":135.377655},{"店舗名":"鰻人-UNAJIN-","住所":"〒596-0055 大阪府岸和田市五軒屋町","ステータス":"RECEIPT","region":"Kishiwada","lat":34.462948,"lng":135.374603},{"店舗名":"たこ焼得心　森野店","住所":"〒596-0055 大阪府岸和田市五軒屋町５−４","ステータス":"APP_DISPLAY","region":"Kishiwada","lat":34.463665,"lng":135.374908},{"店舗名":"懐石季乃陣","住所":"〒596-0073 大阪府岸和田市岸城町","ステータス":"RECEIPT","region":"Kishiwada","lat":34.458885,"lng":135.37114},{"店舗名":"公諷庵","住所":"〒596-0073 大阪府岸和田市岸城町６−１０ 杉江能楽堂","ステータス":"RECEIPT","region":"Kishiwada","lat":34.461121,"lng":135.371719},{"店舗名":"ROKU","住所":"〒596-0076 大阪府岸和田市野田町３丁目４−９−201","ステータス":"APP_DISPLAY","region":"Kishiwada","lat":34.455818,"lng":135.383774},{"店舗名":"NISYANTA","住所":"〒596-0077 大阪府岸和田市上町３４－３４","ステータス":"APP_DISPLAY","region":"Kishiwada","lat":34.454712,"lng":135.376862},{"店舗名":"インド料理ティナインビテーション岸和田店","住所":"〒596-0803 大阪府岸和田市東大路町83-3","ステータス":"APP_DISPLAY","region":"Kishiwada","lat":34.470352,"lng":135.417435},{"店舗名":"ラーメンまこと屋岸和田三田店","住所":"〒596-0808 大阪府岸和田市三田町４９−１","ステータス":"APP_DISPLAY","region":"Kishiwada","lat":34.459835,"lng":135.429855},{"店舗名":"岸和田チーナ邸","住所":"〒596-0812 大阪府岸和田市大町１丁目１１−２５","ステータス":"APP_DISPLAY","region":"Kishiwada","lat":34.468334,"lng":135.408798},{"店舗名":"食パン専門店 デアイ ザ ベーカリー ワタワン店","住所":"〒596-0817 大阪府岸和田市岸の丘町１丁目３２−１","ステータス":"RECEIPT","region":"Kishiwada","lat":34.431866,"lng":135.430313},{"店舗名":"食パン専門店 デアイ ザ ベーカリー ワタワン店","住所":"〒596-0817 大阪府岸和田市岸の丘町１丁目３２−１","ステータス":"APP_DISPLAY","region":"Kishiwada","lat":34.431866,"lng":135.430313},{"店舗名":"からあげ大吉 岸和田店","住所":"〒596-0821","ステータス":"APP_DISPLAY","region":"Kishiwada","lat":34.463177,"lng":135.402084},{"店舗名":"洋食屋桜亭","住所":"〒596-0821 大阪府岸和田市小松里町２１８８","ステータス":"APP_DISPLAY","region":"Kishiwada","lat":34.463837,"lng":135.399445},{"店舗名":"大起水産 回転寿司 岸和田店","住所":"〒596-0821 大阪府岸和田市小松里町２４１８","ステータス":"APP_DISPLAY","region":"Kishiwada","lat":34.467442,"lng":135.398575},{"店舗名":"Sports bar yasuke","住所":"〒596-0821 大阪府岸和田市小松里町２４３４ シャトレーコマツリ","ステータス":"RECEIPT","region":"Kishiwada","lat":34.467163,"lng":135.399139},{"店舗名":"みらいや","住所":"〒596-0823 大阪府岸和田市下松町１丁目１７−１０ プラザ21 1F","ステータス":"APP_DISPLAY","region":"Kishiwada","lat":34.458527,"lng":135.396484},{"店舗名":"炭火焼鳥・おでん・次男坊","住所":"〒596-0823 大阪府岸和田市下松町３丁目１−８","ステータス":"APP_DISPLAY","region":"Kishiwada","lat":34.457603,"lng":135.397903},{"店舗名":"粉もん凛","住所":"〒596-0825","ステータス":"RECEIPT","region":"Kishiwada","lat":34.444019,"lng":135.392944},{"店舗名":"肉玉そば おとど 岸和田店","住所":"〒596-0825","ステータス":"RECEIPT","region":"Kishiwada","lat":34.444019,"lng":135.392944},{"店舗名":"ファーフォ","住所":"〒596-0825","ステータス":"APP_DISPLAY","region":"Kishiwada","lat":34.444019,"lng":135.392944},{"店舗名":"肉玉そば おとど 岸和田店","住所":"〒596-0825","ステータス":"RECEIPT","region":"Kishiwada","lat":34.444019,"lng":135.392944},{"店舗名":"ミートショップ　はしば　黒毛和牛専門店","住所":"〒596-0825","ステータス":"APP_DISPLAY","region":"Kishiwada","lat":34.444019,"lng":135.392944},{"店舗名":"パティスリー・ド・パトリス","住所":"〒596-0825","ステータス":"APP_DISPLAY","region":"Kishiwada","lat":34.444019,"lng":135.392944},{"店舗名":"肉玉そば おとど 岸和田店","住所":"〒596-0825 大阪府岸和田市土生町","ステータス":"RECEIPT","region":"Kishiwada","lat":34.444019,"lng":135.392944},{"店舗名":"ほっかほっか亭 岸和田土生町店","住所":"〒596-0825 大阪府岸和田市土生町１３丁目１−５１","ステータス":"APP_DISPLAY","region":"Kishiwada","lat":34.441929,"lng":135.394135},{"店舗名":"ROUTE25","住所":"〒596-0825 大阪府岸和田市土生町２丁目１０−７","ステータス":"APP_DISPLAY","region":"Kishiwada","lat":34.450695,"lng":135.381607},{"店舗名":"喫茶　自泉","住所":"〒596-0825 大阪府岸和田市土生町２丁目３２−５","ステータス":"APP_DISPLAY","region":"Kishiwada","lat":34.447617,"lng":135.381485},{"店舗名":"牛ハラミ亭","住所":"〒596-0825 大阪府岸和田市土生町３丁目３−８","ステータス":"APP_DISPLAY","region":"Kishiwada","lat":34.450508,"lng":135.382797},{"店舗名":"とりさし梅松　キタガンキン店","住所":"〒596-0825 大阪府岸和田市土生町４丁目","ステータス":"APP_DISPLAY","region":"Kishiwada","lat":34.448212,"lng":135.385635},{"店舗名":"濃厚鶏白湯つけ麺 どっかん JR東岸和田東口駅前店","住所":"〒596-0825 大阪府岸和田市土生町４丁目３−１ マスターズ東岸和田駅前","ステータス":"APP_DISPLAY","region":"Kishiwada","lat":34.448284,"lng":135.386093},{"店舗名":"からあげの鉄人 JR東岸和田東口駅前店","住所":"〒596-0825 大阪府岸和田市土生町４丁目３−１ マスターズ東岸和田駅前","ステータス":"APP_DISPLAY","region":"Kishiwada","lat":34.448284,"lng":135.386093},{"店舗名":"とんかつの和吉 JR東岸和田東口駅前店","住所":"〒596-0825 大阪府岸和田市土生町４丁目３−１ マスターズ東岸和田駅前","ステータス":"APP_DISPLAY","region":"Kishiwada","lat":34.448284,"lng":135.386093},{"店舗名":"目利きの銀次 JR東岸和田東口駅前店","住所":"〒596-0825 大阪府岸和田市土生町４丁目３−１ マスターズ東岸和田駅前","ステータス":"APP_DISPLAY","region":"Kishiwada","lat":34.448284,"lng":135.386093},{"店舗名":"Donchan's Tacos","住所":"〒596-0826 大阪府岸和田市作才町１１３５","ステータス":"APP_DISPLAY","region":"Kishiwada","lat":34.453568,"lng":135.385391},{"店舗名":"Twenty five","住所":"〒596-0826 大阪府岸和田市作才町1162-1","ステータス":"APP_DISPLAY","region":"Kishiwada","lat":34.453938,"lng":135.386688},{"店舗名":"ピザハット 岸和田店","住所":"〒596-0827 大阪府岸和田市上松町３丁目１０−３５","ステータス":"APP_DISPLAY","region":"Kishiwada","lat":34.450932,"lng":135.391724},{"店舗名":"チキン・ウイングストリート 岸和田店","住所":"〒596-0827 大阪府岸和田市上松町３丁目１０−３５","ステータス":"APP_DISPLAY","region":"Kishiwada","lat":34.450932,"lng":135.391724},{"店舗名":"トスカーニパスタ 岸和田店","住所":"〒596-0827 大阪府岸和田市上松町３丁目１０−３５","ステータス":"APP_DISPLAY","region":"Kishiwada","lat":34.450932,"lng":135.391724},{"店舗名":"愛のべーかりーかふぇ","住所":"〒596-0844 大阪府岸和田市土生滝町１５３３−１","ステータス":"APP_DISPLAY","region":"Kishiwada","lat":34.423573,"lng":135.410599},{"店舗名":"愛のべーかりーかふぇ","住所":"〒596-0844 大阪府岸和田市土生滝町１５３３−１","ステータス":"APP_DISPLAY","region":"Kishiwada","lat":34.423573,"lng":135.410599}]