[{"店舗名":"斉藤珈琲","住所":"〒364-0006 埼玉県北本市北本１丁目９６","ステータス":"RECEIPT","region":"Kitamoto","lat":36.03035,"lng":139.53511},{"店舗名":"利久庵","住所":"〒364-0006 埼玉県北本市北本３丁目６２","ステータス":"RECEIPT","region":"Kitamoto","lat":36.035748,"lng":139.536407},{"店舗名":"山アジアンレストラン","住所":"〒364-0024 埼玉県北本市石戸","ステータス":"RECEIPT","region":"Kitamoto","lat":36.022961,"lng":139.52327},{"店舗名":"山アジアンレストラン北本店","住所":"〒364-0024 埼玉県北本市石戸４丁目","ステータス":"RECEIPT","region":"Kitamoto","lat":36.021847,"lng":139.521072},{"店舗名":"柴ドーナツ＆ドッグラン shiba donut dog run","住所":"〒364-0026 埼玉県北本市荒井４丁目","ステータス":"RECEIPT","region":"Kitamoto","lat":36.017735,"lng":139.511261},{"店舗名":"インド料理ヘブン北本西口店","住所":"〒364-0031 埼玉県北本市中央１丁目６１ アーバンSt","ステータス":"RECEIPT","region":"Kitamoto","lat":36.029854,"lng":139.534805},{"店舗名":"コーヒーとタイヤキのカラク","住所":"〒364-0031 埼玉県北本市中央１丁目８−１","ステータス":"RECEIPT","region":"Kitamoto","lat":36.028549,"lng":139.532181},{"店舗名":"タパさんのカレー屋さん","住所":"〒364-0031 埼玉県北本市中央３丁目７３−１","ステータス":"RECEIPT","region":"Kitamoto","lat":36.031479,"lng":139.532501}]