[{"店舗名":"たいやき喫茶「蓮」れん","住所":"〒619-0201 京都府木津川市山城町綺田綾杉１１","ステータス":"APP_DISPLAY","region":"Kizugawa","lat":34.780216,"lng":135.811752},{"店舗名":"インド・ネパールレストランオーム","住所":"〒619-0201 京都府木津川市山城町綺田川久保４５−１","ステータス":"APP_DISPLAY","region":"Kizugawa","lat":34.78537,"lng":135.807129},{"店舗名":"eight B","住所":"〒619-0214","ステータス":"APP_DISPLAY","region":"Kizugawa","lat":34.73457,"lng":135.820892},{"店舗名":"【鳥丼が豊富！】 鳥肉専門店 ナカムラポートリー 木津店 【木津 池田】","住所":"〒619-0214 京都府木津川市木津池田１９−９","ステータス":"APP_DISPLAY","region":"Kizugawa","lat":34.735657,"lng":135.822052},{"店舗名":"ベトナム料理コーベオ店","住所":"〒619-0214 京都府木津川市木津清水７４−３","ステータス":"APP_DISPLAY","region":"Kizugawa","lat":34.735981,"lng":135.820618},{"店舗名":"だし巻き専門店　京こっこ","住所":"〒619-0214 京都府木津川市木津八色","ステータス":"APP_DISPLAY","region":"Kizugawa","lat":34.731121,"lng":135.820953},{"店舗名":"御菓子司　長盛堂","住所":"〒619-0214 京都府木津川市木津八色３９","ステータス":"APP_DISPLAY","region":"Kizugawa","lat":34.731121,"lng":135.820953},{"店舗名":"【パンケーキが人気】Hawaiian CafeレストランMAHOPAN 木津川店","住所":"〒619-0216 京都府木津川市州見台１丁目３−７","ステータス":"APP_DISPLAY","region":"Kizugawa","lat":34.717861,"lng":135.818085},{"店舗名":"【フルーツたっぷりアサイーボウル】ワイキキ・ボウルズ 木津川店","住所":"〒619-0216 京都府木津川市州見台１丁目３−７","ステータス":"RECEIPT","region":"Kizugawa","lat":34.717861,"lng":135.818085},{"店舗名":"かつ福 木津川店","住所":"〒619-0218 京都府木津川市城山台１０丁目３６−１","ステータス":"APP_DISPLAY","region":"Kizugawa","lat":34.728554,"lng":135.832794},{"店舗名":"焼肉やまだ 木津川店","住所":"〒619-0218 京都府木津川市城山台１０丁目３６−２","ステータス":"APP_DISPLAY","region":"Kizugawa","lat":34.728554,"lng":135.832794},{"店舗名":"木馬cafe＆restaurant","住所":"〒619-0218 京都府木津川市城山台１０丁目4−１１","ステータス":"APP_DISPLAY","region":"Kizugawa","lat":34.728554,"lng":135.832794},{"店舗名":"Bifuku","住所":"〒619-0218 京都府木津川市城山台１丁目３６−２","ステータス":"RECEIPT","region":"Kizugawa","lat":34.738262,"lng":135.833588},{"店舗名":"リヤナキッチン","住所":"〒619-0223 京都府木津川市相楽台","ステータス":"APP_DISPLAY","region":"Kizugawa","lat":34.726128,"lng":135.790176},{"店舗名":"ケンタッキーフライドチキン イオンモール高の原店","住所":"〒619-0223 京都府木津川市相楽台１丁目１","ステータス":"APP_DISPLAY","region":"Kizugawa","lat":34.725586,"lng":135.790634},{"店舗名":"リンガーハット イオンモール高の原店","住所":"〒619-0223 京都府木津川市相楽台１丁目１−１","ステータス":"APP_DISPLAY","region":"Kizugawa","lat":34.725586,"lng":135.790634},{"店舗名":"インド・ネパール料理 RAJA","住所":"〒619-1154 京都府木津川市加茂町駅東２丁目５−３ Preste 加茂 Tower","ステータス":"APP_DISPLAY","region":"Kizugawa","lat":34.752502,"lng":135.871216},{"店舗名":"SNOBCafe","住所":"〒619-1154 京都府木津川市加茂町駅東２丁目５−３ Preste 加茂 Tower","ステータス":"APP_DISPLAY","region":"Kizugawa","lat":34.752502,"lng":135.871216}]