[{"店舗名":"酒場 夏目","住所":"〒400-0015 山梨県甲府市大手３丁目１−４０","ステータス":"RECEIPT","region":"Kofu","lat":35.683609,"lng":138.57637},{"店舗名":"1to8 coffee","住所":"〒400-0016 山梨県甲府市武田２丁目６−１２","ステータス":"RECEIPT","region":"Kofu","lat":35.671715,"lng":138.572647},{"店舗名":"韓国料理マンナ","住所":"〒400-0016 山梨県甲府市武田３丁目","ステータス":"RECEIPT","region":"Kofu","lat":35.675087,"lng":138.57193},{"店舗名":"インドネパールレストランNEW MAHAL 甲府北店","住所":"〒400-0024 山梨県甲府市北口1-4-12","ステータス":"RECEIPT","region":"Kofu","lat":35.668678,"lng":138.569275},{"店舗名":"台湾夜市小吃店","住所":"〒400-0025 山梨県甲府市朝日５丁目","ステータス":"RECEIPT","region":"Kofu","lat":35.673367,"lng":138.566284},{"店舗名":"キムゴヤ","住所":"〒400-0026 山梨県甲府市塩部４丁目３−３","ステータス":"RECEIPT","region":"Kofu","lat":35.674759,"lng":138.553604},{"店舗名":"SEN NOODLE & DINING","住所":"〒400-0031","ステータス":"RECEIPT","region":"Kofu","lat":35.664951,"lng":138.570312},{"店舗名":"breezy treats","住所":"〒400-0031","ステータス":"RECEIPT","region":"Kofu","lat":35.664951,"lng":138.570312},{"店舗名":"Pizza Bar NAPOLI","住所":"〒400-0031","ステータス":"RECEIPT","region":"Kofu","lat":35.664951,"lng":138.570312},{"店舗名":"麺屋　甲武信","住所":"〒400-0031 山梨県甲府市丸の内","ステータス":"RECEIPT","region":"Kofu","lat":35.664951,"lng":138.570312},{"店舗名":"PIZZERIA Ryu","住所":"〒400-0031 山梨県甲府市丸の内１丁目１−２５","ステータス":"RECEIPT","region":"Kofu","lat":35.666954,"lng":138.572327},{"店舗名":"MARLU SOUP","住所":"〒400-0031 山梨県甲府市丸の内１丁目１５−２","ステータス":"RECEIPT","region":"Kofu","lat":35.662651,"lng":138.570679},{"店舗名":"無双タピオカ 蘭州牛肉ラーメン","住所":"〒400-0031 山梨県甲府市丸の内１丁目２−８","ステータス":"RECEIPT","region":"Kofu","lat":35.66592,"lng":138.568176},{"店舗名":"出汁まる","住所":"〒400-0031 山梨県甲府市丸の内１丁目８−１５","ステータス":"RECEIPT","region":"Kofu","lat":35.664803,"lng":138.568192},{"店舗名":"ザンギ鳥正 本店 zangi torimasa","住所":"〒400-0031 山梨県甲府市丸の内２丁目１６−１８","ステータス":"RECEIPT","region":"Kofu","lat":35.66534,"lng":138.567459},{"店舗名":"むすびのき","住所":"〒400-0032 山梨県甲府市中央１丁目１８−１","ステータス":"RECEIPT","region":"Kofu","lat":35.659283,"lng":138.570831},{"店舗名":"アジア製麺所333","住所":"〒400-0032 山梨県甲府市中央２丁目１２−７","ステータス":"RECEIPT","region":"Kofu","lat":35.660725,"lng":138.574448},{"店舗名":"インド  レストラン&バー ミラン","住所":"〒400-0032 山梨県甲府市中央４丁目３−２５","ステータス":"RECEIPT","region":"Kofu","lat":35.660912,"lng":138.571777},{"店舗名":"手打ちそば奥村本店　Handmade Soba Okumura Main Store","住所":"〒400-0032 山梨県甲府市中央４丁目８−１６","ステータス":"RECEIPT","region":"Kofu","lat":35.658413,"lng":138.570984},{"店舗名":"YAMANASHI INDIAN KITCHEN","住所":"〒400-0034 山梨県甲府市宝","ステータス":"RECEIPT","region":"Kofu","lat":35.666084,"lng":138.562256},{"店舗名":"すし・うまいもの処 伊津美","住所":"〒400-0035 山梨県甲府市飯田４丁目１−４","ステータス":"RECEIPT","region":"Kofu","lat":35.667542,"lng":138.557144},{"店舗名":"おにぎり専門店RAN","住所":"〒400-0041","ステータス":"RECEIPT","region":"Kofu","lat":35.657799,"lng":138.552322},{"店舗名":"韓の食卓","住所":"〒400-0042 山梨県甲府市高畑１丁目２−３４","ステータス":"RECEIPT","region":"Kofu","lat":35.653255,"lng":138.561172},{"店舗名":"お菓子工房 mimi","住所":"〒400-0042 山梨県甲府市高畑１丁目２−３５","ステータス":"RECEIPT","region":"Kofu","lat":35.653362,"lng":138.561279},{"店舗名":"甲斐豚骨らーめん ぶーちゃん","住所":"〒400-0043 山梨県甲府市国母８丁目１−５","ステータス":"RECEIPT","region":"Kofu","lat":35.637253,"lng":138.551682},{"店舗名":"甲斐豚骨ラーメン ぶーちゃん","住所":"〒400-0043 山梨県甲府市国母８丁目１−５","ステータス":"RECEIPT","region":"Kofu","lat":35.637253,"lng":138.551682},{"店舗名":"幸楽 本店","住所":"〒400-0045","ステータス":"RECEIPT","region":"Kofu","lat":35.628704,"lng":138.563034},{"店舗名":"India Nepal Restaurant Maharaja インド・ネパールレストラン マハラジャ","住所":"〒400-0045 山梨県甲府市後屋町３７１−３","ステータス":"RECEIPT","region":"Kofu","lat":35.632023,"lng":138.562424},{"店舗名":"幸楽 本店","住所":"〒400-0045 山梨県甲府市後屋町６６８−２","ステータス":"RECEIPT","region":"Kofu","lat":35.628056,"lng":138.560196},{"店舗名":"PHO18","住所":"〒400-0046","ステータス":"RECEIPT","region":"Kofu","lat":35.647324,"lng":138.552597},{"店舗名":"バズーカ弁当","住所":"〒400-0046 山梨県甲府市下石田２丁目１５−４","ステータス":"RECEIPT","region":"Kofu","lat":35.647915,"lng":138.551285},{"店舗名":"mana cafe","住所":"〒400-0046 山梨県甲府市下石田２丁目２０−１","ステータス":"RECEIPT","region":"Kofu","lat":35.646561,"lng":138.552765},{"店舗名":"アジアン レストラン リオン てんまや","住所":"〒400-0046 山梨県甲府市下石田２丁目２２−７ サンエイビル","ステータス":"RECEIPT","region":"Kofu","lat":35.644695,"lng":138.554016},{"店舗名":"Bowls","住所":"〒400-0047","ステータス":"RECEIPT","region":"Kofu","lat":35.653881,"lng":138.543793},{"店舗名":"居酒屋肉祭り","住所":"〒400-0047","ステータス":"RECEIPT","region":"Kofu","lat":35.653881,"lng":138.543793},{"店舗名":"秀マン","住所":"〒400-0047 山梨県甲府市徳行１丁目２−１８","ステータス":"RECEIPT","region":"Kofu","lat":35.655819,"lng":138.544998},{"店舗名":"甲州芋徹","住所":"〒400-0053 山梨県甲府市大里町２９９０−１６７","ステータス":"RECEIPT","region":"Kofu","lat":35.62534,"lng":138.569046},{"店舗名":"クレープmelody","住所":"〒400-0064","ステータス":"RECEIPT","region":"Kofu","lat":35.667423,"lng":138.546005},{"店舗名":"タイ・ジャスミン","住所":"〒400-0065 山梨県甲府市貢川２丁目２−１８","ステータス":"RECEIPT","region":"Kofu","lat":35.662407,"lng":138.535309},{"店舗名":"39レストラン","住所":"〒400-0081 山梨県甲府市上帯那町１３５５","ステータス":"RECEIPT","region":"Kofu","lat":35.751774,"lng":138.590576},{"店舗名":"ELOISEs Cafe KOFU","住所":"〒400-0802 山梨県甲府市横根町４８０−１","ステータス":"RECEIPT","region":"Kofu","lat":35.65485,"lng":138.614746},{"店舗名":"ヒマラヤ","住所":"〒400-0805","ステータス":"RECEIPT","region":"Kofu","lat":35.65683,"lng":138.597427},{"店舗名":"Gatosoreiyu (ガトーソレイユ)","住所":"〒400-0805 山梨県甲府市酒折","ステータス":"RECEIPT","region":"Kofu","lat":35.65683,"lng":138.597427},{"店舗名":"RINCHA 鈴茶","住所":"〒400-0805 山梨県甲府市酒折２丁目３０６−２","ステータス":"RECEIPT","region":"Kofu","lat":35.657234,"lng":138.602386},{"店舗名":"サガル・ラトナ","住所":"〒400-0806 山梨県甲府市善光寺１丁目","ステータス":"RECEIPT","region":"Kofu","lat":35.658257,"lng":138.592667},{"店舗名":"自家製麺 太宰食堂","住所":"〒400-0806 山梨県甲府市善光寺２丁目４−１６","ステータス":"RECEIPT","region":"Kofu","lat":35.661518,"lng":138.591446},{"店舗名":"らーめん次郎冠者","住所":"〒400-0814","ステータス":"RECEIPT","region":"Kofu","lat":35.646393,"lng":138.606735},{"店舗名":"【アサイー&グリークヨーグルト】GREEKSPOON 甲府上阿原店","住所":"〒400-0814 山梨県甲府市上阿原町３１２−６","ステータス":"RECEIPT","region":"Kofu","lat":35.644478,"lng":138.609665},{"店舗名":"【フルーツたっぷりアサイーボウル】ワイキキ・ボウルズ 甲府上阿原店","住所":"〒400-0814 山梨県甲府市上阿原町３１２−６","ステータス":"RECEIPT","region":"Kofu","lat":35.644478,"lng":138.609665},{"店舗名":"バターステーキ『Re』 甲府店","住所":"〒400-0814 山梨県甲府市上阿原町３１２−６","ステータス":"RECEIPT","region":"Kofu","lat":35.644478,"lng":138.609665},{"店舗名":"極太麻婆春雨 上阿原町店","住所":"〒400-0814 山梨県甲府市上阿原町３１２−６","ステータス":"RECEIPT","region":"Kofu","lat":35.644478,"lng":138.609665},{"店舗名":"X饅　広東料理","住所":"〒400-0815 山梨県甲府市国玉町２９４−１","ステータス":"RECEIPT","region":"Kofu","lat":35.653988,"lng":138.604324},{"店舗名":"僕のキッチンカー","住所":"〒400-0822 山梨県甲府市里吉３丁目１０−１６","ステータス":"RECEIPT","region":"Kofu","lat":35.646439,"lng":138.586487},{"店舗名":"Wafflepop","住所":"〒400-0836 山梨県甲府市小瀬町６８−６","ステータス":"RECEIPT","region":"Kofu","lat":35.627476,"lng":138.575912},{"店舗名":"東京麺珍亭本舗 甲府南店","住所":"〒400-0845 山梨県甲府市上今井町１９１−１","ステータス":"RECEIPT","region":"Kofu","lat":35.625881,"lng":138.57048},{"店舗名":"オーシマドーナツ×オーシマアゲパン　甲府店","住所":"〒400-0855","ステータス":"RECEIPT","region":"Kofu","lat":35.635193,"lng":138.571136},{"店舗名":"レストラン＆カラオケ Xin Chao（シンチャオ）","住所":"〒400-0858 山梨県甲府市相生２丁目２−１２","ステータス":"RECEIPT","region":"Kofu","lat":35.657482,"lng":138.569229},{"店舗名":"カフェ OFF COFFEE","住所":"〒400-0862 山梨県甲府市朝気３丁目１−１２","ステータス":"RECEIPT","region":"Kofu","lat":35.650261,"lng":138.584091},{"店舗名":"ゴリ食堂 手作り弁当 ゴリ弁","住所":"〒400-0863 山梨県甲府市南口町２−２０","ステータス":"RECEIPT","region":"Kofu","lat":35.647205,"lng":138.579987},{"店舗名":"cafe de taison","住所":"〒400-0867 山梨県甲府市青沼２丁目２５−５","ステータス":"RECEIPT","region":"Kofu","lat":35.652927,"lng":138.576523},{"店舗名":"RVくれーぷ","住所":"〒400-1508","ステータス":"RECEIPT","region":"Kofu","lat":35.593948,"lng":138.572632},{"店舗名":"RVクレープ","住所":"〒400-1508","ステータス":"RECEIPT","region":"Kofu","lat":35.593948,"lng":138.572632}]