[{"店舗名":"【本格インドカレー】ジョティ JYOTY","住所":"〒306-0011 茨城県古河市東","ステータス":"RECEIPT","region":"Koga","lat":36.196213,"lng":139.7117},{"店舗名":"そば善","住所":"〒306-0016 茨城県古河市古河５２７−４","ステータス":"RECEIPT","region":"Koga","lat":36.191624,"lng":139.713135},{"店舗名":"smile cafe","住所":"〒306-0025 茨城県古河市原町９−２","ステータス":"RECEIPT","region":"Koga","lat":36.185616,"lng":139.707077},{"店舗名":"スパイスキッチン","住所":"〒306-0033 茨城県古河市中央町","ステータス":"RECEIPT","region":"Koga","lat":36.195862,"lng":139.703445},{"店舗名":"【本格インドカレー】ジョティ 三和 JYOTY SANWA","住所":"〒306-0042 茨城県古河市三和","ステータス":"RECEIPT","region":"Koga","lat":36.164925,"lng":139.706253},{"店舗名":"炭火串焼 あじ仙","住所":"〒306-0042 茨城県古河市三和１１","ステータス":"RECEIPT","region":"Koga","lat":36.167049,"lng":139.708023},{"店舗名":"焼肉　大門","住所":"〒306-0051 茨城県古河市茶屋新田３４８−５","ステータス":"RECEIPT","region":"Koga","lat":36.166485,"lng":139.715622},{"店舗名":"ル　カフェ　ヌフ  Le Café Neuf","住所":"〒306-0052 茨城県古河市大山","ステータス":"RECEIPT","region":"Koga","lat":36.146519,"lng":139.722916},{"店舗名":"ＮＥＷ　ＤＵＮＩＹＡ　ＲＥＳＴＡＵＲＡＮＴ　ＰＡＫＩＳＴＡＮＩ＆ＩＮＤＩＡＮ　ＦＯＯＤ","住所":"〒306-0112","ステータス":"RECEIPT","region":"Koga","lat":36.162651,"lng":139.823624},{"店舗名":"ＧＲＥＥＮ　ＲＥＳＴＡＵＲＡＮＴ　ＩＮＤＩＡＮ　ＰＡＫＩＳＴＡＮＩ　ＦＯＯＤ","住所":"〒306-0112","ステータス":"RECEIPT","region":"Koga","lat":36.162651,"lng":139.823624},{"店舗名":"ＰＩＺＺＡ　ＯＮＥ","住所":"〒306-0112","ステータス":"RECEIPT","region":"Koga","lat":36.162651,"lng":139.823624},{"店舗名":"ＣＩＮＴＡ　ＮＵＳＡＮＴＡＲＡ","住所":"〒306-0125","ステータス":"RECEIPT","region":"Koga","lat":36.183945,"lng":139.815811},{"店舗名":"タイレストラントンオー","住所":"〒306-0125 茨城県古河市仁連","ステータス":"RECEIPT","region":"Koga","lat":36.183945,"lng":139.815811},{"店舗名":"アラジン ハラル レストラン","住所":"〒306-0126","ステータス":"RECEIPT","region":"Koga","lat":36.205173,"lng":139.808289},{"店舗名":"ALADDIN","住所":"〒306-0126 茨城県古河市諸川４７３","ステータス":"RECEIPT","region":"Koga","lat":36.200554,"lng":139.822052},{"店舗名":"アマン　レストラン","住所":"〒306-0126 茨城県古河市諸川863-1","ステータス":"RECEIPT","region":"Koga","lat":36.196663,"lng":139.817245},{"店舗名":"ＡＬＴＡＦ＇Ｓ　ＫＥＢＡＢ","住所":"〒306-0221","ステータス":"RECEIPT","region":"Koga","lat":36.166512,"lng":139.758011},{"店舗名":"ラーメン酒場　雅喜屋　古河店","住所":"〒306-0225 茨城県古河市磯部","ステータス":"RECEIPT","region":"Koga","lat":36.165321,"lng":139.741196},{"店舗名":"Spicy O’ Clock ネパール&インドレストラン","住所":"〒306-0231 茨城県古河市小堤２０１０−１２","ステータス":"RECEIPT","region":"Koga","lat":36.208122,"lng":139.75676},{"店舗名":"立川マシマシ古河125号店","住所":"〒306-0233 茨城県古河市西牛谷２７６","ステータス":"RECEIPT","region":"Koga","lat":36.205025,"lng":139.743835},{"店舗名":"フィリピン料理　Ｓｅｒｅｎｅ（セリーン）","住所":"〒306-0234 茨城県古河市上辺見３３７６","ステータス":"RECEIPT","region":"Koga","lat":36.17926,"lng":139.72963},{"店舗名":"らーめん壱輝","住所":"〒306-0236 茨城県古河市大堤６１７","ステータス":"RECEIPT","region":"Koga","lat":36.182228,"lng":139.718857},{"店舗名":"麺屋特級　金乃虎","住所":"〒306-0236 茨城県古河市大堤６２０−６","ステータス":"RECEIPT","region":"Koga","lat":36.182816,"lng":139.717957},{"店舗名":"和菜ダイニングとも","住所":"〒811-3101 福岡県古賀市天神","ステータス":"RECEIPT","region":"Koga","lat":33.730774,"lng":130.463974},{"店舗名":"【絶品バーガー！】CREATESPACE MIRACO クリエイトスペースミラコ","住所":"〒811-3101 福岡県古賀市天神１丁目１２−２５","ステータス":"RECEIPT","region":"Koga","lat":33.731636,"lng":130.464355},{"店舗名":"NEW PUBLIC SALOON","住所":"〒811-3101 福岡県古賀市天神１丁目２−６","ステータス":"RECEIPT","region":"Koga","lat":33.732235,"lng":130.466187},{"店舗名":"マルゲリータ古賀","住所":"〒811-3101 福岡県古賀市天神４丁目１２−２６","ステータス":"RECEIPT","region":"Koga","lat":33.738266,"lng":130.466309},{"店舗名":"永吉からあげ","住所":"〒811-3101 福岡県古賀市天神４丁目９−４２","ステータス":"RECEIPT","region":"Koga","lat":33.736679,"lng":130.46582},{"店舗名":"Eikichi Bakery","住所":"〒811-3101 福岡県古賀市天神４丁目９−４２","ステータス":"RECEIPT","region":"Koga","lat":33.736679,"lng":130.46582},{"店舗名":"元祖トマトラーメンと辛麺　三昧(333）古賀店","住所":"〒811-3102 福岡県古賀市駅東１丁目５−１１","ステータス":"RECEIPT","region":"Koga","lat":33.729912,"lng":130.465759},{"店舗名":"ひがわり屋","住所":"〒811-3102 福岡県古賀市駅東３丁目３−１","ステータス":"RECEIPT","region":"Koga","lat":33.735775,"lng":130.469833},{"店舗名":"古賀一麺庵","住所":"〒811-3103 福岡県古賀市中央","ステータス":"RECEIPT","region":"Koga","lat":33.730038,"lng":130.471756},{"店舗名":"ハーブカフェファルム HerbCafe falmu","住所":"〒811-3103 福岡県古賀市中央２丁目","ステータス":"RECEIPT","region":"Koga","lat":33.732182,"lng":130.472031},{"店舗名":"【お弁当がおすすめ】veggie食堂船出屋","住所":"〒811-3106 福岡県古賀市日吉","ステータス":"RECEIPT","region":"Koga","lat":33.726379,"lng":130.460922},{"店舗名":"インド食堂ママカレー","住所":"〒811-3114 福岡県古賀市舞の里","ステータス":"RECEIPT","region":"Koga","lat":33.749027,"lng":130.482147},{"店舗名":"まりもの溶岩とり焼き","住所":"〒811-3116 福岡県古賀市庄３４ 1d","ステータス":"RECEIPT","region":"Koga","lat":33.727837,"lng":130.481796},{"店舗名":"勝れつ亭","住所":"〒811-3116 福岡県古賀市庄34−１","ステータス":"RECEIPT","region":"Koga","lat":33.727837,"lng":130.481796},{"店舗名":"博多麺王 古賀店","住所":"〒811-3116 福岡県古賀市庄34−１","ステータス":"RECEIPT","region":"Koga","lat":33.727837,"lng":130.481796},{"店舗名":"辛味噌鉄板　すたみな亭","住所":"〒811-3116 福岡県古賀市庄３４−１","ステータス":"RECEIPT","region":"Koga","lat":33.727837,"lng":130.481796},{"店舗名":"私ん家のごはん","住所":"〒811-3116 福岡県古賀市庄３４−１","ステータス":"RECEIPT","region":"Koga","lat":33.727837,"lng":130.481796},{"店舗名":"Moon ice夜アイス専門店","住所":"〒811-3117","ステータス":"RECEIPT","region":"Koga","lat":33.730694,"lng":130.47493}]