[{"店舗名":"キッチン オニオン","住所":"〒860-0004 熊本県熊本市中央区新町","ステータス":"RECEIPT","region":"Kumamoto","lat":32.802906,"lng":130.698074},{"店舗名":"ハニービーひつじ屋","住所":"〒860-0017 熊本県熊本市中央区練兵町５４","ステータス":"RECEIPT","region":"Kumamoto","lat":32.797791,"lng":130.703247},{"店舗名":"POOJA INDIAN AND NEPALI RESTAURANT","住所":"〒860-0029 熊本県熊本市中央区米屋町２丁目１５","ステータス":"RECEIPT","region":"Kumamoto","lat":32.79512,"lng":130.698349},{"店舗名":"中華厨房 唐朝","住所":"〒860-0047","ステータス":"RECEIPT","region":"Kumamoto","lat":32.792549,"lng":130.692154},{"店舗名":"匠味家","住所":"〒860-0047 熊本県熊本市西区春日","ステータス":"RECEIPT","region":"Kumamoto","lat":32.792549,"lng":130.692154},{"店舗名":"インド料理ビスヌ アミュプラザ熊本店","住所":"〒860-0047 熊本県熊本市西区春日3-15-26","ステータス":"RECEIPT","region":"Kumamoto","lat":32.788967,"lng":130.688232},{"店舗名":"富喜製麺研究所 熊本駅店","住所":"〒860-0047 熊本県熊本市西区春日３丁目１５−３０","ステータス":"RECEIPT","region":"Kumamoto","lat":32.788967,"lng":130.688232},{"店舗名":"博多とよ唐亭 熊本田崎店","住所":"〒860-0047 熊本県熊本市西区春日７丁目１９−２６","ステータス":"RECEIPT","region":"Kumamoto","lat":32.784729,"lng":130.681946},{"店舗名":"たこやき&からあげ専門店　フリーダムスマイル","住所":"〒860-0051","ステータス":"RECEIPT","region":"Kumamoto","lat":32.787899,"lng":130.691925},{"店舗名":"カレーハウスHanmer","住所":"〒860-0058","ステータス":"RECEIPT","region":"Kumamoto","lat":32.782566,"lng":130.676361},{"店舗名":"熊本家系ラーメン十五家","住所":"〒860-0058 熊本県熊本市西区田崎町４３０−９","ステータス":"RECEIPT","region":"Kumamoto","lat":32.781658,"lng":130.676132},{"店舗名":"ちょぼ焼　末広","住所":"〒860-0058 熊本県熊本市西区田崎町４３０−９","ステータス":"RECEIPT","region":"Kumamoto","lat":32.781658,"lng":130.676132},{"店舗名":"熊本弁当 TAKE2","住所":"〒860-0059 熊本県熊本市西区野中","ステータス":"RECEIPT","region":"Kumamoto","lat":32.777035,"lng":130.679947},{"店舗名":"おぐらの唐揚 城山店","住所":"〒860-0066 熊本県熊本市西区城山下代２丁目５−７","ステータス":"RECEIPT","region":"Kumamoto","lat":32.778,"lng":130.656448},{"店舗名":"twinkle cafe&food","住所":"〒860-0066 熊本県熊本市西区城山下代２丁目７−７−１０２","ステータス":"RECEIPT","region":"Kumamoto","lat":32.777355,"lng":130.654053},{"店舗名":"たこ焼大◯","住所":"〒860-0073","ステータス":"RECEIPT","region":"Kumamoto","lat":32.8064,"lng":130.693008},{"店舗名":"マグロノドン 熊本","住所":"〒860-0074 熊本県熊本市西区出町７−１０","ステータス":"RECEIPT","region":"Kumamoto","lat":32.827198,"lng":130.709396},{"店舗名":"麺屋とらい","住所":"〒860-0079 熊本県熊本市西区上熊本３丁目３−５","ステータス":"RECEIPT","region":"Kumamoto","lat":32.819168,"lng":130.700378},{"店舗名":"豚と脂。京町本丁店","住所":"〒860-0081 熊本県熊本市中央区京町本丁１０−６","ステータス":"RECEIPT","region":"Kumamoto","lat":32.816425,"lng":130.705673},{"店舗名":"油そばどんちゃん京町本丁店","住所":"〒860-0081 熊本県熊本市中央区京町本丁１０−６ 鮨こてつ","ステータス":"RECEIPT","region":"Kumamoto","lat":32.816425,"lng":130.705673},{"店舗名":"まるはちベーグル ワークス","住所":"〒860-0085 熊本県熊本市北区高平２丁目","ステータス":"RECEIPT","region":"Kumamoto","lat":32.833755,"lng":130.717438},{"店舗名":"Ulu熊本下通店","住所":"〒860-0801 熊本県熊本市中央区安政町１−２","ステータス":"RECEIPT","region":"Kumamoto","lat":32.802357,"lng":130.709671},{"店舗名":"富喜製麺研究所 駕町店","住所":"〒860-0801 熊本県熊本市中央区安政町５−１６","ステータス":"RECEIPT","region":"Kumamoto","lat":32.801323,"lng":130.709564},{"店舗名":"とりだるま熊本下通店","住所":"〒860-0801 熊本県熊本市中央区安政町５−２０","ステータス":"RECEIPT","region":"Kumamoto","lat":32.801434,"lng":130.709152},{"店舗名":"裏庭食堂サカナバ","住所":"〒860-0801 熊本県熊本市中央区安政町6-1","ステータス":"RECEIPT","region":"Kumamoto","lat":32.80154,"lng":130.710098},{"店舗名":"めん処 ぼんぼんめん","住所":"〒860-0801 熊本県熊本市中央区安政町６−１０","ステータス":"RECEIPT","region":"Kumamoto","lat":32.8013,"lng":130.71106},{"店舗名":"cafeHanamori熊本安政町店","住所":"〒860-0801 熊本県熊本市中央区安政町６−３ Tm11ビル","ステータス":"RECEIPT","region":"Kumamoto","lat":32.801487,"lng":130.710327},{"店舗名":"熊本餃子楼","住所":"〒860-0802 熊本県熊本市中央区中央街２−１","ステータス":"RECEIPT","region":"Kumamoto","lat":32.800804,"lng":130.711243},{"店舗名":"あじ彩","住所":"〒860-0803","ステータス":"RECEIPT","region":"Kumamoto","lat":32.798714,"lng":130.706207},{"店舗名":"九州郷土料理 どんぶり 9 DON 新市街店","住所":"〒860-0803","ステータス":"RECEIPT","region":"Kumamoto","lat":32.798714,"lng":130.706207},{"店舗名":"九州郷土料理 どんぶり 9 DON 新市街店","住所":"〒860-0803 熊本県熊本市中央区新市街１−２２","ステータス":"RECEIPT","region":"Kumamoto","lat":32.799263,"lng":130.705276},{"店舗名":"にぼしらーめん にぼらや 西銀座通り店","住所":"〒860-0803 熊本県熊本市中央区新市街２−２ 西銀座ビル","ステータス":"RECEIPT","region":"Kumamoto","lat":32.800072,"lng":130.706284},{"店舗名":"手羽先Ｔ","住所":"〒860-0803 熊本県熊本市中央区新市街3-1","ステータス":"RECEIPT","region":"Kumamoto","lat":32.800007,"lng":130.706787},{"店舗名":"KND CAFE","住所":"〒860-0803 熊本県熊本市中央区新市街３−１２","ステータス":"RECEIPT","region":"Kumamoto","lat":32.799625,"lng":130.707764},{"店舗名":"Janiスリランカキッチン","住所":"〒860-0804 熊本県熊本市中央区辛島町７３−２ 2f","ステータス":"RECEIPT","region":"Kumamoto","lat":32.799015,"lng":130.702682},{"店舗名":"富喜製麺研究所 サクラマチ店","住所":"〒860-0805 熊本県熊本市中央区桜町３−１０","ステータス":"RECEIPT","region":"Kumamoto","lat":32.800598,"lng":130.7043},{"店舗名":"旬魚酒菜 HAKATA屋","住所":"〒860-0806","ステータス":"RECEIPT","region":"Kumamoto","lat":32.801342,"lng":130.705902},{"店舗名":"たこ焼き ベリーズ TAKOYAKI Belize","住所":"〒860-0806 熊本県熊本市中央区花畑町10-5","ステータス":"RECEIPT","region":"Kumamoto","lat":32.802254,"lng":130.707199},{"店舗名":"鍋やTAMARI nabeyatamari","住所":"〒860-0806 熊本県熊本市中央区花畑町１１−２０ 水田ビル ３F もつ鍋","ステータス":"RECEIPT","region":"Kumamoto","lat":32.801189,"lng":130.706802},{"店舗名":"酒場 梟 sakaba fukuro","住所":"〒860-0806 熊本県熊本市中央区花畑町１１−２９ RS−5ビル ３階A","ステータス":"RECEIPT","region":"Kumamoto","lat":32.801773,"lng":130.706909},{"店舗名":"お好み焼き 都一","住所":"〒860-0806 熊本県熊本市中央区花畑町13-20","ステータス":"RECEIPT","region":"Kumamoto","lat":32.800163,"lng":130.706161},{"店舗名":"Honor.","住所":"〒860-0807","ステータス":"RECEIPT","region":"Kumamoto","lat":32.801311,"lng":130.708328},{"店舗名":"KimpaPrince","住所":"〒860-0807","ステータス":"RECEIPT","region":"Kumamoto","lat":32.801311,"lng":130.708328},{"店舗名":"瓦そば MONSTER","住所":"〒860-0807","ステータス":"RECEIPT","region":"Kumamoto","lat":32.801311,"lng":130.708328},{"店舗名":"路地灯り","住所":"〒860-0807","ステータス":"RECEIPT","region":"Kumamoto","lat":32.801311,"lng":130.708328},{"店舗名":"uraniwa","住所":"〒860-0807","ステータス":"RECEIPT","region":"Kumamoto","lat":32.801311,"lng":130.708328},{"店舗名":"和処慎兵衛","住所":"〒860-0807 熊本県熊本市中央区下通","ステータス":"RECEIPT","region":"Kumamoto","lat":32.801311,"lng":130.708328},{"店舗名":"たなかの唐揚げ","住所":"〒860-0807 熊本県熊本市中央区下通１丁目１１−３４","ステータス":"RECEIPT","region":"Kumamoto","lat":32.800137,"lng":130.707367},{"店舗名":"ドイケバブ","住所":"〒860-0807 熊本県熊本市中央区下通１丁目１２−２８","ステータス":"RECEIPT","region":"Kumamoto","lat":32.799942,"lng":130.708069},{"店舗名":"拉麺中毒","住所":"〒860-0807 熊本県熊本市中央区下通1丁目12-3","ステータス":"RECEIPT","region":"Kumamoto","lat":32.800083,"lng":130.708405},{"店舗名":"Restaurant＆Bar Peace","住所":"〒860-0807 熊本県熊本市中央区下通１丁目２-4","ステータス":"RECEIPT","region":"Kumamoto","lat":32.802467,"lng":130.708405},{"店舗名":"ミーハーカルビ〜オレのワッフルとジュース〜","住所":"〒860-0807 熊本県熊本市中央区下通1丁目4-3","ステータス":"RECEIPT","region":"Kumamoto","lat":32.802082,"lng":130.708008},{"店舗名":"満月のお好み焼熊本下通店","住所":"〒860-0807 熊本県熊本市中央区下通１丁目４−８","ステータス":"RECEIPT","region":"Kumamoto","lat":32.801941,"lng":130.708542},{"店舗名":"にぼしらーめん にぼらや 酒場通り店","住所":"〒860-0807 熊本県熊本市中央区下通１丁目５−１０","ステータス":"RECEIPT","region":"Kumamoto","lat":32.801544,"lng":130.708542},{"店舗名":"21時にアイス 下通店 Ice at 21:00","住所":"〒860-0807 熊本県熊本市中央区下通１丁目７","ステータス":"RECEIPT","region":"Kumamoto","lat":32.801079,"lng":130.707779},{"店舗名":"元祖どないや熊本店","住所":"〒860-0807 熊本県熊本市中央区下通１丁目８−１１","ステータス":"RECEIPT","region":"Kumamoto","lat":32.800819,"lng":130.709641},{"店舗名":"麺屋かもめ","住所":"〒860-0807 熊本県熊本市中央区下通１丁目８−２７ 1f","ステータス":"RECEIPT","region":"Kumamoto","lat":32.800804,"lng":130.708435},{"店舗名":"ジャクション スパイスハウス","住所":"〒860-0807 熊本県熊本市中央区下通２丁目７−２５","ステータス":"RECEIPT","region":"Kumamoto","lat":32.797195,"lng":130.707092},{"店舗名":"YAKITORI dining いちごお","住所":"〒860-0808 熊本県熊本市中央区手取本町３−１４","ステータス":"RECEIPT","region":"Kumamoto","lat":32.803303,"lng":130.708511},{"店舗名":"Pizza.肉.ワイン.イルフォルノド","住所":"〒860-0808 熊本県熊本市中央区手取本町３−９","ステータス":"RECEIPT","region":"Kumamoto","lat":32.802998,"lng":130.708664},{"店舗名":"クマモトカラヒ","住所":"〒860-0812","ステータス":"RECEIPT","region":"Kumamoto","lat":32.790497,"lng":130.711304},{"店舗名":"れんこん食堂","住所":"〒860-0812 熊本県熊本市中央区南熊本","ステータス":"RECEIPT","region":"Kumamoto","lat":32.790497,"lng":130.711304},{"店舗名":"LUNCH MARKET","住所":"〒860-0812 熊本県熊本市中央区南熊本１丁目３−６ 塚本ビル 103","ステータス":"RECEIPT","region":"Kumamoto","lat":32.791183,"lng":130.71254},{"店舗名":"YAKITORI dining にごお YAKITORI dining nigo","住所":"〒860-0812 熊本県熊本市中央区南熊本１丁目９−２７","ステータス":"RECEIPT","region":"Kumamoto","lat":32.790009,"lng":130.710663},{"店舗名":"3つの扉","住所":"〒860-0817 熊本県熊本市中央区迎町１丁目","ステータス":"RECEIPT","region":"Kumamoto","lat":32.792252,"lng":130.70195},{"店舗名":"本格料理インド料理 ナマステ熊本店 NAMASTE KUMAMOTO","住所":"〒860-0827 熊本県熊本市中央区世安","ステータス":"RECEIPT","region":"Kumamoto","lat":32.782871,"lng":130.699112},{"店舗名":"唐揚げ百姓","住所":"〒860-0831 熊本県熊本市中央区八王寺町５−１４","ステータス":"RECEIPT","region":"Kumamoto","lat":32.786446,"lng":130.718048},{"店舗名":"お弁当とお惣菜の店　カマドノゴハン　Japanese food restaurant Kamado No Gohan","住所":"〒860-0833 熊本県熊本市南区平成２丁目５−１５","ステータス":"RECEIPT","region":"Kumamoto","lat":32.777897,"lng":130.70224},{"店舗名":"極太麻婆春雨 平成3丁目店","住所":"〒860-0833 熊本県熊本市中央区平成３丁目２３−３０","ステータス":"RECEIPT","region":"Kumamoto","lat":32.777542,"lng":130.704041},{"店舗名":"おぐらの唐揚 江越店","住所":"〒860-0834 熊本県熊本市南区江越１丁目２０−３５ まいどおおきに食堂熊本江越食堂","ステータス":"RECEIPT","region":"Kumamoto","lat":32.776947,"lng":130.700241},{"店舗名":"ナマステ 熊本流通団地店","住所":"〒860-0834 熊本県熊本市南区江越２丁目３−２０","ステータス":"RECEIPT","region":"Kumamoto","lat":32.772415,"lng":130.702682},{"店舗名":"養生カレー","住所":"〒860-0842","ステータス":"RECEIPT","region":"Kumamoto","lat":32.806732,"lng":130.716248},{"店舗名":"農家のおにぎり ichi kara juu","住所":"〒860-0844 熊本県熊本市中央区水道町12-5","ステータス":"RECEIPT","region":"Kumamoto","lat":32.804279,"lng":130.713913},{"店舗名":"わらびもち専門店 甘味処 鎌倉熊本城上通店","住所":"〒860-0845 熊本県熊本市中央区上通町２−８","ステータス":"RECEIPT","region":"Kumamoto","lat":32.803799,"lng":130.710739},{"店舗名":"假鬼假怪","住所":"〒860-0845 熊本県熊本市中央区上通町9-6","ステータス":"RECEIPT","region":"Kumamoto","lat":32.805862,"lng":130.711533},{"店舗名":"AMAKUSAYA （あまくさや）","住所":"〒860-0846 熊本県熊本市中央区城東町","ステータス":"RECEIPT","region":"Kumamoto","lat":32.805473,"lng":130.709885},{"店舗名":"炭火焼鳥 てんまや","住所":"〒860-0846 熊本県熊本市中央区城東町","ステータス":"RECEIPT","region":"Kumamoto","lat":32.805473,"lng":130.709885},{"店舗名":"タピキング オークス通り店","住所":"〒860-0846 熊本県熊本市中央区城東町２−１２","ステータス":"RECEIPT","region":"Kumamoto","lat":32.80402,"lng":130.710068},{"店舗名":"SOFULL並木坂店","住所":"〒860-0847 熊本県熊本市中央区上林町１−２３","ステータス":"RECEIPT","region":"Kumamoto","lat":32.807404,"lng":130.711914},{"店舗名":"ルワニ　スリランカ　レストラン","住所":"〒860-0847 熊本県熊本市中央区上林町３−３４ 上通ニューコーポ","ステータス":"RECEIPT","region":"Kumamoto","lat":32.808147,"lng":130.712097},{"店舗名":"kitchen & bar 音の庭","住所":"〒860-0848","ステータス":"RECEIPT","region":"Kumamoto","lat":32.807499,"lng":130.713379},{"店舗名":"博多鉄板よかろうもん","住所":"〒860-0851 熊本県熊本市中央区子飼本町１−１２","ステータス":"RECEIPT","region":"Kumamoto","lat":32.812553,"lng":130.720947},{"店舗名":"熊本油大学","住所":"〒860-0851 熊本県熊本市中央区子飼本町2-1","ステータス":"RECEIPT","region":"Kumamoto","lat":32.812878,"lng":130.722397},{"店舗名":"Back","住所":"〒860-0851 熊本県熊本市中央区子飼本町２−２","ステータス":"RECEIPT","region":"Kumamoto","lat":32.812931,"lng":130.722473},{"店舗名":"SPICE　AROMA(インドレストラン　スパイスアロマ)","住所":"〒860-0854 熊本県熊本市中央区東子飼町８−４１","ステータス":"RECEIPT","region":"Kumamoto","lat":32.81197,"lng":130.720032},{"店舗名":"カフェふとりねこ","住所":"〒860-0854 熊本県熊本市中央区東子飼町８−４３","ステータス":"RECEIPT","region":"Kumamoto","lat":32.812096,"lng":130.720169},{"店舗名":"インドカレー パンジャブレストラン","住所":"〒860-0862","ステータス":"RECEIPT","region":"Kumamoto","lat":32.816673,"lng":130.718475},{"店舗名":"ピザよし","住所":"〒860-0862 熊本県熊本市中央区黒髪２丁目","ステータス":"RECEIPT","region":"Kumamoto","lat":32.814289,"lng":130.726212},{"店舗名":"唐揚のPLUS NINE","住所":"〒860-0862 熊本県熊本市中央区黒髪２丁目３１−２０ サニーポイント佐藤ビル","ステータス":"RECEIPT","region":"Kumamoto","lat":32.813919,"lng":130.723892},{"店舗名":"Cafe Hayashida（カフェ林田）","住所":"〒860-0862 熊本県熊本市中央区黒髪２丁目３３−２","ステータス":"RECEIPT","region":"Kumamoto","lat":32.813755,"lng":130.723785},{"店舗名":"今を楽しめ熊本大学前店","住所":"〒860-0862 熊本県熊本市中央区黒髪２丁目３３−３","ステータス":"RECEIPT","region":"Kumamoto","lat":32.813793,"lng":130.723892},{"店舗名":"ナマステ 熊本植木店","住所":"〒861-0117 熊本県熊本市北区植木町正清１１０５","ステータス":"RECEIPT","region":"Kumamoto","lat":32.962433,"lng":130.713303},{"店舗名":"支那そば北熊 植木店","住所":"〒861-0132 熊本県熊本市北区植木町植木４４５−２","ステータス":"RECEIPT","region":"Kumamoto","lat":32.89854,"lng":130.6922},{"店舗名":"淡路島バーガー 熊本植木店","住所":"〒861-0142","ステータス":"RECEIPT","region":"Kumamoto","lat":32.877354,"lng":130.690186},{"店舗名":"ガネーシャ","住所":"〒861-0142 熊本県熊本市北区植木町鐙田１０３７","ステータス":"RECEIPT","region":"Kumamoto","lat":32.881042,"lng":130.692657},{"店舗名":"串揚げ 壱","住所":"〒861-2106 熊本県熊本市東区東野","ステータス":"RECEIPT","region":"Kumamoto","lat":32.776577,"lng":130.76741},{"店舗名":"レトロ居酒屋 219","住所":"〒861-4101 熊本県熊本市南区近見","ステータス":"RECEIPT","region":"Kumamoto","lat":32.768398,"lng":130.690414},{"店舗名":"アリカ　インド・ネパール料理","住所":"〒861-4101 熊本県熊本市南区近見2丁目14-6","ステータス":"RECEIPT","region":"Kumamoto","lat":32.762608,"lng":130.685806},{"店舗名":"鰻の成瀬 西熊本店","住所":"〒861-4135 熊本県熊本市南区鳶町","ステータス":"RECEIPT","region":"Kumamoto","lat":32.758522,"lng":130.676682},{"店舗名":"Broad tree cafe","住所":"〒861-5514 熊本県熊本市北区飛田３丁目１−４６","ステータス":"RECEIPT","region":"Kumamoto","lat":32.849384,"lng":130.717773},{"店舗名":"インドレストラン サンジ　Indian Restaurant SANJI","住所":"〒861-8001 熊本県熊本市北区武蔵ケ丘７丁目","ステータス":"RECEIPT","region":"Kumamoto","lat":32.854515,"lng":130.776489},{"店舗名":"おぐらの唐揚 龍田店","住所":"〒861-8006 熊本県熊本市北区龍田８丁目１５−７５","ステータス":"RECEIPT","region":"Kumamoto","lat":32.84454,"lng":130.760162},{"店舗名":"おぐらの唐揚 長嶺店","住所":"〒861-8037 熊本県熊本市東区長嶺西１丁目１−３","ステータス":"RECEIPT","region":"Kumamoto","lat":32.808945,"lng":130.759262},{"店舗名":"TRUFFLE DONUT 熊本長嶺店","住所":"〒861-8037 熊本県熊本市東区長嶺西１丁目５−１ シュロアモール長嶺内","ステータス":"RECEIPT","region":"Kumamoto","lat":32.810551,"lng":130.763138},{"店舗名":"海鮮家shimajiro－丼丸長嶺店","住所":"〒861-8038 熊本県熊本市東区長嶺東２丁目４−１","ステータス":"RECEIPT","region":"Kumamoto","lat":32.815392,"lng":130.773285},{"店舗名":"【創作居酒屋】 旬酔かなで","住所":"〒861-8039","ステータス":"RECEIPT","region":"Kumamoto","lat":32.810307,"lng":130.764603},{"店舗名":"博多とよ唐亭　熊本小峯店","住所":"〒861-8039 熊本県熊本市東区長嶺南５丁目３−１５","ステータス":"RECEIPT","region":"Kumamoto","lat":32.807167,"lng":130.7798},{"店舗名":"濃厚アサイーボウル店（nico lab)","住所":"〒861-8039 熊本県熊本市東東区長嶺南４丁目１−７","ステータス":"RECEIPT","region":"Kumamoto","lat":32.780514,"lng":130.768082},{"店舗名":"【米粉のエッグワッフル】𝐅𝐔𝐍𝐍𝐘 𝐒𝐓𝐎𝐑𝐘","住所":"〒861-8039 熊本県熊本市東東区長嶺南４丁目１−７","ステータス":"RECEIPT","region":"Kumamoto","lat":32.780514,"lng":130.768082},{"店舗名":"ナマステ 熊本戸島店","住所":"〒861-8041 熊本県熊本市東区戸島４丁目２−４５","ステータス":"RECEIPT","region":"Kumamoto","lat":32.822781,"lng":130.790894},{"店舗名":"クイーン・バワナ","住所":"〒861-8043","ステータス":"RECEIPT","region":"Kumamoto","lat":32.809643,"lng":130.785065},{"店舗名":"横浜家系ラーメン初の家 戸島店 yokohamaiekeiramenhatsunoya tojimaten","住所":"〒861-8043 熊本県熊本市東区戸島西２丁目４−２５","ステータス":"RECEIPT","region":"Kumamoto","lat":32.81311,"lng":130.782639},{"店舗名":"MABONO","住所":"〒861-8064","ステータス":"RECEIPT","region":"Kumamoto","lat":32.846577,"lng":130.722839},{"店舗名":"おぐらの唐揚 清水新地店","住所":"〒861-8075 熊本県熊本市北区清水新地５丁目１５−１０ オグラのお弁当","ステータス":"RECEIPT","region":"Kumamoto","lat":32.854908,"lng":130.744431},{"店舗名":"多酒多菜 満月","住所":"〒861-8081 熊本県熊本市北区麻生田２丁目１６−１","ステータス":"RECEIPT","region":"Kumamoto","lat":32.849094,"lng":130.748337},{"店舗名":"焼肉ブラザーズ","住所":"〒862-0806 熊本県熊本市中央区花畑町１０−４","ステータス":"RECEIPT","region":"Kumamoto","lat":32.802311,"lng":130.707169},{"店舗名":"スパイシーサンジ","住所":"〒862-0903 熊本県熊本市東区若葉１丁目１３−１１","ステータス":"RECEIPT","region":"Kumamoto","lat":32.776886,"lng":130.761047},{"店舗名":"めん屋　大仙健軍店","住所":"〒862-0903 熊本県熊本市東区若葉１丁目２−８","ステータス":"RECEIPT","region":"Kumamoto","lat":32.778217,"lng":130.761261},{"店舗名":"背徳の極み唐揚げ","住所":"〒862-0903 熊本県熊本市東区若葉３丁目１４−１２","ステータス":"RECEIPT","region":"Kumamoto","lat":32.775414,"lng":130.764038},{"店舗名":"カレーハウス GHEE","住所":"〒862-0909 熊本県熊本市東区湖東２丁目５−４０","ステータス":"RECEIPT","region":"Kumamoto","lat":32.778618,"lng":130.74382},{"店舗名":"博多とよ唐亭 熊本健軍店","住所":"〒862-0911 熊本県熊本市東区健軍３丁目４３−１５","ステータス":"RECEIPT","region":"Kumamoto","lat":32.782028,"lng":130.760925},{"店舗名":"CHERISH","住所":"〒862-0913 熊本県熊本市東区尾ノ上３丁目１３−１０","ステータス":"RECEIPT","region":"Kumamoto","lat":32.797218,"lng":130.757858},{"店舗名":"本家かまどや 尾ノ上3丁目店","住所":"〒862-0913 熊本県熊本市東区尾ノ上３丁目１３−３","ステータス":"RECEIPT","region":"Kumamoto","lat":32.796997,"lng":130.757156},{"店舗名":"どんぶり亭 ドン!!!と食え","住所":"〒862-0914 熊本県熊本市東区山ノ内３丁目３−５２ コーポのはら101","ステータス":"RECEIPT","region":"Kumamoto","lat":32.795113,"lng":130.768951},{"店舗名":"にぼしらーめん にぼらや 花立店","住所":"〒862-0918 熊本県熊本市東区花立５丁目９−１９","ステータス":"RECEIPT","region":"Kumamoto","lat":32.789021,"lng":130.772873},{"店舗名":"おむすび処ひらた","住所":"〒862-0920 熊本県熊本市東区月出2丁目6-22","ステータス":"RECEIPT","region":"Kumamoto","lat":32.804199,"lng":130.764542},{"店舗名":"管理栄養士監修カレー　レシピサロンCoco","住所":"〒862-0920 熊本県熊本市東区月出４丁目４−１１８","ステータス":"RECEIPT","region":"Kumamoto","lat":32.802906,"lng":130.767288},{"店舗名":"カレー研究所BONGA","住所":"〒862-0924 熊本県熊本市中央区帯山","ステータス":"RECEIPT","region":"Kumamoto","lat":32.801014,"lng":130.741364},{"店舗名":"シャシ　スリランカレストラン","住所":"〒862-0924 熊本県熊本市中央区帯山3丁目19−11","ステータス":"RECEIPT","region":"Kumamoto","lat":32.800369,"lng":130.753891},{"店舗名":"ティラミス専門店CIAO tiramisusennmonntenn CIAO","住所":"〒862-0924 熊本県熊本市中央区帯山７丁目１９−２９ 三光ビル","ステータス":"RECEIPT","region":"Kumamoto","lat":32.806164,"lng":130.758881},{"店舗名":"LUNA BURGER","住所":"〒862-0933 熊本県熊本市東区小峯２丁目２−１４７","ステータス":"RECEIPT","region":"Kumamoto","lat":32.802258,"lng":130.776138},{"店舗名":"ナンカレー専門店トルネード/アサイーボウルBullu Cafe EZU","住所":"〒862-0942 熊本県熊本市東区江津","ステータス":"RECEIPT","region":"Kumamoto","lat":32.779209,"lng":130.73761},{"店舗名":"鰻の成瀬 江津店","住所":"〒862-0946 熊本県熊本市東区画図町大字所島","ステータス":"RECEIPT","region":"Kumamoto","lat":32.766094,"lng":130.733765},{"店舗名":"焼鳥どらみ yakirotidorami","住所":"〒862-0949","ステータス":"RECEIPT","region":"Kumamoto","lat":32.79174,"lng":130.727386},{"店舗名":"ガッチャーミ Gatchami","住所":"〒862-0949","ステータス":"RECEIPT","region":"Kumamoto","lat":32.79174,"lng":130.727386},{"店舗名":"ｅ-たこ家","住所":"〒862-0949 熊本県熊本市中央区国府３丁目１２−５０","ステータス":"RECEIPT","region":"Kumamoto","lat":32.786999,"lng":130.72377},{"店舗名":"インドカレー すいぜんじ","住所":"〒862-0950","ステータス":"RECEIPT","region":"Kumamoto","lat":32.795158,"lng":130.729645},{"店舗名":"串焼き一月三日","住所":"〒862-0950","ステータス":"RECEIPT","region":"Kumamoto","lat":32.795158,"lng":130.729645},{"店舗名":"星降るクレープ　水前寺店","住所":"〒862-0950 熊本県熊本市中央区水前寺","ステータス":"RECEIPT","region":"Kumamoto","lat":32.795158,"lng":130.729645},{"店舗名":"インド ネパール レストラン＆バー REMU","住所":"〒862-0950 熊本県熊本市中央区水前寺５丁目２９−１１","ステータス":"RECEIPT","region":"Kumamoto","lat":32.797237,"lng":130.743896},{"店舗名":"かど屋もつ煮込み テイクアウト専門店","住所":"〒862-0950 熊本県熊本市中央区水前寺６丁目５１−１１","ステータス":"RECEIPT","region":"Kumamoto","lat":32.792778,"lng":130.744385},{"店舗名":"あたみちゃん","住所":"〒862-0956 熊本県熊本市中央区水前寺公園１５−２８","ステータス":"RECEIPT","region":"Kumamoto","lat":32.78756,"lng":130.737396},{"店舗名":"藁焼き てんまや","住所":"〒862-0962 熊本県熊本市南区田迎","ステータス":"RECEIPT","region":"Kumamoto","lat":32.776913,"lng":130.709641},{"店舗名":"支那そば 北熊 浜線店","住所":"〒862-0963 熊本県熊本市南区出仲間９丁目２−１","ステータス":"RECEIPT","region":"Kumamoto","lat":32.773731,"lng":130.719376},{"店舗名":"博多とよ唐亭 熊本田井島店","住所":"〒862-0965","ステータス":"RECEIPT","region":"Kumamoto","lat":32.770588,"lng":130.725906},{"店舗名":"鉄板ダイニング和","住所":"〒862-0965 熊本県熊本市南区田井島","ステータス":"RECEIPT","region":"Kumamoto","lat":32.770588,"lng":130.725906},{"店舗名":"Bon's Crepe 　ゆめタウンはません店","住所":"〒862-0965 熊本県熊本市南区田井島１丁目２−１","ステータス":"RECEIPT","region":"Kumamoto","lat":32.773132,"lng":130.723999},{"店舗名":"Bスリランカ","住所":"〒862-0969 熊本県熊本市南区良町１丁目６−３４","ステータス":"RECEIPT","region":"Kumamoto","lat":32.763172,"lng":130.719818},{"店舗名":"金源飯店","住所":"〒862-0969 熊本県熊本市南区良町１丁目８−５","ステータス":"RECEIPT","region":"Kumamoto","lat":32.761292,"lng":130.72197},{"店舗名":"唐揚げ専門店 ヒゴドリ","住所":"〒862-0970","ステータス":"RECEIPT","region":"Kumamoto","lat":32.806309,"lng":130.733109},{"店舗名":"GOLDEN BURGER","住所":"〒862-0970","ステータス":"RECEIPT","region":"Kumamoto","lat":32.806309,"lng":130.733109},{"店舗名":"DelicaWhim","住所":"〒862-0970 熊本県熊本市東区渡鹿９丁目２−４０","ステータス":"RECEIPT","region":"Kumamoto","lat":32.813488,"lng":130.744293},{"店舗名":"【オーバーライス&ホットドッグ】ワンファイブドッグ 味噌天神店","住所":"〒862-0971","ステータス":"RECEIPT","region":"Kumamoto","lat":32.808914,"lng":130.726685},{"店舗名":"鶏王","住所":"〒862-0971 熊本県熊本市中央区大江","ステータス":"RECEIPT","region":"Kumamoto","lat":32.808914,"lng":130.726685},{"店舗名":"スパイス・ワンズ","住所":"〒862-0971 熊本県熊本市中央区大江１丁目１０−４１ 1f","ステータス":"RECEIPT","region":"Kumamoto","lat":32.808834,"lng":130.723602},{"店舗名":"台湾料理 栄昌縁","住所":"〒862-0971 熊本県熊本市中央区大江１丁目２６−１５","ステータス":"RECEIPT","region":"Kumamoto","lat":32.806622,"lng":130.726669},{"店舗名":"台湾料理栄昌縁","住所":"〒862-0971 熊本県熊本市中央区大江１丁目２６−１５ 緒方ビル","ステータス":"RECEIPT","region":"Kumamoto","lat":32.806622,"lng":130.726669},{"店舗名":"唐揚げ むらた ゆめマート大江店","住所":"〒862-0971 熊本県熊本市中央区大江３丁目２−４０","ステータス":"RECEIPT","region":"Kumamoto","lat":32.803261,"lng":130.72644},{"店舗名":"街角饅頭店吉祥天","住所":"〒862-0971 熊本県熊本市中央区大江４丁目１８ー１８","ステータス":"RECEIPT","region":"Kumamoto","lat":32.799915,"lng":130.722397},{"店舗名":"星降るはたけ","住所":"〒862-0971 熊本県熊本市中央区大江５丁目５−３６","ステータス":"RECEIPT","region":"Kumamoto","lat":32.796143,"lng":130.722733},{"店舗名":"みそら","住所":"〒862-0971 熊本県熊本市中央区大江６－２２－１２","ステータス":"RECEIPT","region":"Kumamoto","lat":32.796818,"lng":130.725555},{"店舗名":"one's place","住所":"〒862-0972","ステータス":"RECEIPT","region":"Kumamoto","lat":32.798866,"lng":130.729813},{"店舗名":"Tartelette","住所":"〒862-0972 熊本県熊本市中央区新大江３丁目６−４５ ＶＩＤＥＯ ＳＴＡＴＩＯＮ ＡＱＵＡ","ステータス":"RECEIPT","region":"Kumamoto","lat":32.804813,"lng":130.739014},{"店舗名":"Pizzazzip","住所":"〒862-0975","ステータス":"RECEIPT","region":"Kumamoto","lat":32.803108,"lng":130.718002},{"店舗名":"亜久里","住所":"〒862-0975","ステータス":"RECEIPT","region":"Kumamoto","lat":32.803108,"lng":130.718002},{"店舗名":"亜久里","住所":"〒862-0975 熊本県熊本市中央区新屋敷２丁目２−２３","ステータス":"RECEIPT","region":"Kumamoto","lat":32.805656,"lng":130.719406},{"店舗名":"タピキング南熊本店 Tapiking Minami-kumamoto","住所":"〒862-0976 熊本県熊本市中央区九品寺","ステータス":"RECEIPT","region":"Kumamoto","lat":32.798748,"lng":130.714737},{"店舗名":"【厳選スープ】麺や樂笑","住所":"〒862-0976 熊本県熊本市中央区九品寺","ステータス":"RECEIPT","region":"Kumamoto","lat":32.798748,"lng":130.714737},{"店舗名":"BURGER&CRAFT BEER  VOYAGER 九品寺","住所":"〒862-0976 熊本県熊本市中央区九品寺","ステータス":"RECEIPT","region":"Kumamoto","lat":32.798748,"lng":130.714737},{"店舗名":"Re:)break","住所":"〒862-0976 熊本県熊本市中央区九品寺1丁目7-5","ステータス":"RECEIPT","region":"Kumamoto","lat":32.799637,"lng":130.715668},{"店舗名":"ラーメン太る","住所":"〒862-0976 熊本県熊本市中央区九品寺２丁目６−４５","ステータス":"RECEIPT","region":"Kumamoto","lat":32.79652,"lng":130.718567},{"店舗名":"ゆめカフェ","住所":"〒862-0976 熊本県熊本市中央区九品寺３丁目１７−１７","ステータス":"RECEIPT","region":"Kumamoto","lat":32.79348,"lng":130.717407},{"店舗名":"boulangerie1pain","住所":"〒862-0976 熊本県熊本市中央区九品寺4丁目21-8","ステータス":"RECEIPT","region":"Kumamoto","lat":32.793392,"lng":130.715591},{"店舗名":"ソリーゾ","住所":"〒862-0976 熊本県熊本市中央区九品寺4丁目21-8","ステータス":"RECEIPT","region":"Kumamoto","lat":32.793392,"lng":130.715591},{"店舗名":"TasteOne【味一】","住所":"〒862-0976 熊本県熊本市中央区九品寺４丁目２１−８","ステータス":"RECEIPT","region":"Kumamoto","lat":32.793392,"lng":130.715591},{"店舗名":"熊本串カツわさもん酒場","住所":"熊本県熊本市東区若葉","ステータス":"RECEIPT","region":"Kumamoto","lat":32.777088,"lng":130.761093},{"店舗名":"淡路島バーガー 熊本植木店","住所":"〒861-0142","ステータス":"RECEIPT","region":"Kumamoto","lat":32.877354,"lng":130.690186}]