[{"店舗名":"江戸前びっくり寿司 つくし野店","住所":"〒194-0001 東京都町田市つくし野３丁目","ステータス":"APP_DISPLAY","region":"Machida","lat":35.521084,"lng":139.481125},{"店舗名":"【本場沖縄のタコライス】THE TACORICE HOUSE つくし野3丁目店","住所":"〒194-0001 東京都町田市つくし野３丁目２１−１","ステータス":"APP_DISPLAY","region":"Machida","lat":35.520119,"lng":139.483292},{"店舗名":"極太重厚ブリトー つくし野3丁目店","住所":"〒194-0001 東京都町田市つくし野３丁目２１−１","ステータス":"APP_DISPLAY","region":"Machida","lat":35.520119,"lng":139.483292},{"店舗名":"ハラミとローストビーフ丼 ハラミと米 つくし野3丁目店","住所":"〒194-0001 東京都町田市つくし野３丁目２１−１","ステータス":"APP_DISPLAY","region":"Machida","lat":35.520119,"lng":139.483292},{"店舗名":"アサイーヨーグルト Beauty Greek つくし野3丁目店","住所":"〒194-0001 東京都町田市つくし野３丁目２１−１","ステータス":"APP_DISPLAY","region":"Machida","lat":35.520119,"lng":139.483292},{"店舗名":"【豚マシ・ニンニク・アブラ】豚メシ どストライク つくし野3丁目店","住所":"〒194-0001 東京都町田市つくし野３丁目２１−１","ステータス":"APP_DISPLAY","region":"Machida","lat":35.520119,"lng":139.483292},{"店舗名":"〈ごはん大盛まで無料〉ハンバーグ亭 沢村 つくし野3丁目店","住所":"〒194-0001 東京都町田市つくし野３丁目２１−１","ステータス":"APP_DISPLAY","region":"Machida","lat":35.520119,"lng":139.483292},{"店舗名":"煮豚チャーハン宝徳 つくし野3丁目店","住所":"〒194-0001 東京都町田市つくし野３丁目２１−１","ステータス":"APP_DISPLAY","region":"Machida","lat":35.520119,"lng":139.483292},{"店舗名":"〈ごはん特盛まで無料〉超熟豚とろ煮 豚盛軒 つくし野3丁目店","住所":"〒194-0001 東京都町田市つくし野３丁目２１−１","ステータス":"APP_DISPLAY","region":"Machida","lat":35.520119,"lng":139.483292},{"店舗名":"【本格麻辣×自家製春雨】白虎麻辣湯 つくし野店","住所":"〒194-0001 東京都町田市つくし野３丁目２１−１","ステータス":"APP_DISPLAY","region":"Machida","lat":35.520119,"lng":139.483292},{"店舗名":"究極のソーセージエッグ丼 つくし野店","住所":"〒194-0001 東京都町田市つくし野３丁目２１−１","ステータス":"APP_DISPLAY","region":"Machida","lat":35.520119,"lng":139.483292},{"店舗名":"たこ焼き がってん蛸之介 つくし野3丁目店","住所":"〒194-0001 東京都町田市つくし野３丁目２１−１","ステータス":"APP_DISPLAY","region":"Machida","lat":35.520119,"lng":139.483292},{"店舗名":"〈ごはん特盛まで無料〉豚亭 つくし野3丁目店","住所":"〒194-0001 東京都町田市つくし野３丁目２１−１","ステータス":"APP_DISPLAY","region":"Machida","lat":35.520119,"lng":139.483292},{"店舗名":"豚汁とほかほかごはん時々豚飯  つくし野3丁目店","住所":"〒194-0001 東京都町田市つくし野３丁目２１−１","ステータス":"APP_DISPLAY","region":"Machida","lat":35.520119,"lng":139.483292},{"店舗名":"(宅配専門店)ゴーゴーカレー つくし野店","住所":"〒194-0001 東京都町田市つくし野３丁目２１−１","ステータス":"APP_DISPLAY","region":"Machida","lat":35.520119,"lng":139.483292},{"店舗名":"Tapps’Cafe(タップスカフェ)","住所":"〒194-0001東京都町田市つくし野１丁目２２−１","ステータス":"RECEIPT","region":"Machida","lat":35.528618,"lng":139.484131},{"店舗名":"デニーズ 南つくし野店","住所":"〒194-0002 東京都町田市南つくし野４丁目１７−１６","ステータス":"APP_DISPLAY","region":"Machida","lat":35.524666,"lng":139.47583},{"店舗名":"吉野家 町田小川店","住所":"〒194-0003 東京都町田市小川３丁目２−１","ステータス":"APP_DISPLAY","region":"Machida","lat":35.525124,"lng":139.467804},{"店舗名":"油そば 豚魂 町田小川店 TON-KON Abura Soba with a Giant Slice of Roasted Pork Machidaogawa","住所":"〒194-0003 東京都町田市小川５丁目１７−１５","ステータス":"APP_DISPLAY","region":"Machida","lat":35.52261,"lng":139.47023},{"店舗名":"ムキヤキッチン町田","住所":"〒194-0003 東京都町田市小川6丁目29−17","ステータス":"APP_DISPLAY","region":"Machida","lat":35.517662,"lng":139.473251},{"店舗名":"Bread & Soup Patonki (パトンキ)","住所":"〒194-0003 東京都町田市小川６丁目２９−１７ すずかけ台ビル","ステータス":"APP_DISPLAY","region":"Machida","lat":35.517662,"lng":139.473251},{"店舗名":"サンズバーガー","住所":"〒194-0003 東京都町田市小川７丁目１−５７","ステータス":"APP_DISPLAY","region":"Machida","lat":35.516705,"lng":139.473526},{"店舗名":"フィッシュテイルアジアンダイニング Fishtail asian daining","住所":"〒194-0003 東京都町田市小川五丁目17番15号","ステータス":"APP_DISPLAY","region":"Machida","lat":35.52261,"lng":139.47023},{"店舗名":"アジアンフード","住所":"〒194-0003 東京都町田市小川五丁目17番15号","ステータス":"APP_DISPLAY","region":"Machida","lat":35.52261,"lng":139.47023},{"店舗名":"BEER &CAFEつるま食堂","住所":"〒194-0004 東京都町田市鶴間２丁目５−１３","ステータス":"APP_DISPLAY","region":"Machida","lat":35.508583,"lng":139.467499},{"店舗名":"【旨辛&濃厚&野菜たっぷり】天才のタコライス 南町田店","住所":"〒194-0004 東京都町田市鶴間３丁目","ステータス":"APP_DISPLAY","region":"Machida","lat":35.50914,"lng":139.470779},{"店舗名":"ベーカリーカフェ G’RANBAKE南町田","住所":"〒194-0004 東京都町田市鶴間３丁目１５−２","ステータス":"APP_DISPLAY","region":"Machida","lat":35.507927,"lng":139.470947},{"店舗名":"アサイー&グリークヨーグルト GREEK DAYS 南町田店","住所":"〒194-0004 東京都町田市鶴間３丁目１５−２２","ステータス":"APP_DISPLAY","region":"Machida","lat":35.507927,"lng":139.470947},{"店舗名":"【理想の自分へ】まめたまのアサイーボウル 南町田店","住所":"〒194-0004 東京都町田市鶴間３丁目１５−２２","ステータス":"APP_DISPLAY","region":"Machida","lat":35.507927,"lng":139.470947},{"店舗名":"大衆鰻 うな銀 南町田グランベリーパーク口駅前店","住所":"〒194-0004 東京都町田市鶴間３丁目２−２","ステータス":"APP_DISPLAY","region":"Machida","lat":35.51096,"lng":139.469559},{"店舗名":"山内農場 南町田グランベリーパーク口駅前店","住所":"〒194-0004 東京都町田市鶴間３丁目２−２","ステータス":"APP_DISPLAY","region":"Machida","lat":35.51096,"lng":139.469559},{"店舗名":"とんかつの和吉 南町田グランベリーパーク口駅前店","住所":"〒194-0004 東京都町田市鶴間３丁目2−２ アーベイン細野 1階","ステータス":"APP_DISPLAY","region":"Machida","lat":35.51096,"lng":139.469559},{"店舗名":"築地銀だこ 南町田グランベリーパーク店","住所":"〒194-0004 東京都町田市鶴間３丁目３−１","ステータス":"APP_DISPLAY","region":"Machida","lat":35.511024,"lng":139.47139},{"店舗名":"BAGEL&BAGEL南町田グランベリーパーク BAGEL&BAGEL Minamimachida GranberryPark","住所":"〒194-0004 東京都町田市鶴間３丁目４−１","ステータス":"APP_DISPLAY","region":"Machida","lat":35.510033,"lng":139.470398},{"店舗名":"ウマミバーガー 南町田グランベリーパーク店 UMAMI BURGER MINAMI MACHIDA Grandberry Park","住所":"〒194-0004 東京都町田市鶴間３丁目４−１","ステータス":"APP_DISPLAY","region":"Machida","lat":35.510033,"lng":139.470398},{"店舗名":"パンダエクスプレス 南町田グランベリーパーク店","住所":"〒194-0004 東京都町田市鶴間三丁目4番地1","ステータス":"APP_DISPLAY","region":"Machida","lat":35.510033,"lng":139.470398},{"店舗名":"THE TOKYO BURGER ザ・トウキョウ・バーガー","住所":"〒194-0005 東京都町田市南町田１丁目４−９","ステータス":"APP_DISPLAY","region":"Machida","lat":35.52179,"lng":139.46991},{"店舗名":"6889cafe","住所":"〒194-0005 東京都町田市南町田５丁目４−１０","ステータス":"APP_DISPLAY","region":"Machida","lat":35.513145,"lng":139.474106},{"店舗名":"会津ラーメン ばんない","住所":"〒194-0011 東京都町田市成瀬が丘２丁目１−５ スカイパールビル","ステータス":"APP_DISPLAY","region":"Machida","lat":35.534962,"lng":139.47319},{"店舗名":"本格インド・ネパール・タイ料理レストラン YABIN 成瀬駅前店","住所":"〒194-0011 東京都町田市成瀬が丘２丁目２３−１１","ステータス":"APP_DISPLAY","region":"Machida","lat":35.535164,"lng":139.472214},{"店舗名":"焼物　ばんない","住所":"〒194-0011 東京都町田市成瀬が丘２丁目２−６","ステータス":"APP_DISPLAY","region":"Machida","lat":35.534641,"lng":139.473083},{"店舗名":"ブーランジェリーアイミ成瀬店","住所":"〒194-0011 東京都町田市成瀬が丘２丁目２８−２","ステータス":"APP_DISPLAY","region":"Machida","lat":35.535454,"lng":139.471405},{"店舗名":"やっぱりステーキ町田駅中央口店","住所":"〒194-0013","ステータス":"APP_DISPLAY","region":"Machida","lat":35.539173,"lng":139.449005},{"店舗名":"沖縄家庭料理赤嶺町田店","住所":"〒194-0013","ステータス":"APP_DISPLAY","region":"Machida","lat":35.539173,"lng":139.449005},{"店舗名":"麻辣刀削麺森","住所":"〒194-0013","ステータス":"APP_DISPLAY","region":"Machida","lat":35.539173,"lng":139.449005},{"店舗名":"エビンJR町田駅前店","住所":"〒194-0013 東京都町田市原町田１丁目３−６","ステータス":"APP_DISPLAY","region":"Machida","lat":35.540977,"lng":139.446747},{"店舗名":"インドカレー専門店 好き SUKI","住所":"〒194-0013 東京都町田市原町田２−５−３","ステータス":"APP_DISPLAY","region":"Machida","lat":35.53801,"lng":139.454193},{"店舗名":"美と健康10salad(テンサラダ) 町田店","住所":"〒194-0013 東京都町田市原町田２丁目３−５","ステータス":"APP_DISPLAY","region":"Machida","lat":35.538689,"lng":139.453079},{"店舗名":"高たんぱく・糖質制限カオマンガイ 東京鶏飯食堂 町田店","住所":"〒194-0013 東京都町田市原町田２丁目３−５","ステータス":"APP_DISPLAY","region":"Machida","lat":35.538689,"lng":139.453079},{"店舗名":"オリジナルガパオライス アロイ・ガパオ 町田店","住所":"〒194-0013 東京都町田市原町田２丁目３−５","ステータス":"APP_DISPLAY","region":"Machida","lat":35.538689,"lng":139.453079},{"店舗名":"チキンオーバーライス【NY CHICKEN STAND】 町田店","住所":"〒194-0013 東京都町田市原町田２丁目３−５","ステータス":"APP_DISPLAY","region":"Machida","lat":35.538689,"lng":139.453079},{"店舗名":"オリジナルタコライス【Taco feliz】 町田店","住所":"〒194-0013 東京都町田市原町田２丁目３−５","ステータス":"APP_DISPLAY","region":"Machida","lat":35.538689,"lng":139.453079},{"店舗名":"タイダイニング町田Thai Dining","住所":"〒194-0013 東京都町田市原町田２丁目５−３","ステータス":"APP_DISPLAY","region":"Machida","lat":35.53801,"lng":139.454193},{"店舗名":"秀吉町田店","住所":"〒194-0013 東京都町田市原町田３丁目２−７","ステータス":"APP_DISPLAY","region":"Machida","lat":35.540882,"lng":139.450089},{"店舗名":"純手打ちうどん町田タロー庵","住所":"〒194-0013 東京都町田市原町田３丁目８−２３","ステータス":"APP_DISPLAY","region":"Machida","lat":35.541985,"lng":139.451416},{"店舗名":"グリークヨーグルト and the greek 町田店","住所":"〒194-0013 東京都町田市原町田３丁目９−６","ステータス":"APP_DISPLAY","region":"Machida","lat":35.542053,"lng":139.452347},{"店舗名":"サーモンマーケット 町田店","住所":"〒194-0013 東京都町田市原町田３丁目９−６","ステータス":"APP_DISPLAY","region":"Machida","lat":35.542053,"lng":139.452347},{"店舗名":"【全量麹あまさけアサイーボウル】どりどり 町田店","住所":"〒194-0013 東京都町田市原町田３丁目９−６","ステータス":"APP_DISPLAY","region":"Machida","lat":35.542053,"lng":139.452347},{"店舗名":"炭火焼魚 焼き魚と味噌汁 町田店","住所":"〒194-0013 東京都町田市原町田３丁目９−６","ステータス":"APP_DISPLAY","region":"Machida","lat":35.542053,"lng":139.452347},{"店舗名":"漢のギャング飯 町田店","住所":"〒194-0013 東京都町田市原町田３丁目９−６","ステータス":"APP_DISPLAY","region":"Machida","lat":35.542053,"lng":139.452347},{"店舗名":"冷麺ラボ 町田店 REI-MEN LABO. MACHIDA","住所":"〒194-0013 東京都町田市原町田３丁目９−６","ステータス":"APP_DISPLAY","region":"Machida","lat":35.542053,"lng":139.452347},{"店舗名":"粗挽き肉汁ハンバーグ じゅわ亭 町田店","住所":"〒194-0013 東京都町田市原町田３丁目９−６","ステータス":"APP_DISPLAY","region":"Machida","lat":35.542053,"lng":139.452347},{"店舗名":"豚盛りラーメン はし本 町田店","住所":"〒194-0013 東京都町田市原町田３丁目９−６","ステータス":"APP_DISPLAY","region":"Machida","lat":35.542053,"lng":139.452347},{"店舗名":"ギャングまぜそば 町田店","住所":"〒194-0013 東京都町田市原町田３丁目９−６","ステータス":"APP_DISPLAY","region":"Machida","lat":35.542053,"lng":139.452347},{"店舗名":"【美味しくヘルシー】やみつき海鮮ポキ丼 町田店","住所":"〒194-0013 東京都町田市原町田３丁目９−６","ステータス":"APP_DISPLAY","region":"Machida","lat":35.542053,"lng":139.452347},{"店舗名":"元祖台湾まぜそば麺屋はなびエクスプレス 町田店","住所":"〒194-0013 東京都町田市原町田３丁目９−６","ステータス":"APP_DISPLAY","region":"Machida","lat":35.542053,"lng":139.452347},{"店舗名":"ケバブボックスジェイ 町田店","住所":"〒194-0013 東京都町田市原町田３丁目９−６","ステータス":"APP_DISPLAY","region":"Machida","lat":35.542053,"lng":139.452347},{"店舗名":"健康志向のねばとろ日和 町田店","住所":"〒194-0013 東京都町田市原町田３丁目９−６","ステータス":"APP_DISPLAY","region":"Machida","lat":35.542053,"lng":139.452347},{"店舗名":"横浜家系ラーメン 村田屋 町田店","住所":"〒194-0013 東京都町田市原町田３丁目９−６","ステータス":"APP_DISPLAY","region":"Machida","lat":35.542053,"lng":139.452347},{"店舗名":"アサイーボウル ALOHA KAILA 町田店","住所":"〒194-0013 東京都町田市原町田３丁目９−６","ステータス":"APP_DISPLAY","region":"Machida","lat":35.542053,"lng":139.452347},{"店舗名":"本気のねぎとろ市場 鬼塚 町田店","住所":"〒194-0013 東京都町田市原町田３丁目９−６","ステータス":"APP_DISPLAY","region":"Machida","lat":35.542053,"lng":139.452347},{"店舗名":"元祖大阪たこ焼き たこ八 町田店","住所":"〒194-0013 東京都町田市原町田３丁目９−６","ステータス":"APP_DISPLAY","region":"Machida","lat":35.542053,"lng":139.452347},{"店舗名":"純豆腐厨房 町田店","住所":"〒194-0013 東京都町田市原町田３丁目９−６","ステータス":"APP_DISPLAY","region":"Machida","lat":35.542053,"lng":139.452347},{"店舗名":"東京タコライス 町田店","住所":"〒194-0013 東京都町田市原町田３丁目９−６","ステータス":"APP_DISPLAY","region":"Machida","lat":35.542053,"lng":139.452347},{"店舗名":"Dr.Smoothie 町田店","住所":"〒194-0013 東京都町田市原町田３丁目９−６ コーポレリア 103","ステータス":"APP_DISPLAY","region":"Machida","lat":35.542053,"lng":139.452347},{"店舗名":"東京冷麺 しゅんちゃん　町田店","住所":"〒194-0013 東京都町田市原町田３丁目９−６ コーポレリア 103","ステータス":"APP_DISPLAY","region":"Machida","lat":35.542053,"lng":139.452347},{"店舗名":"韓国屋台 熱烈純豆腐食堂　町田店","住所":"〒194-0013 東京都町田市原町田３丁目９−６ コーポレリア 103","ステータス":"APP_DISPLAY","region":"Machida","lat":35.542053,"lng":139.452347},{"店舗名":"自家製出汁 焼きそば・お好み焼き だしや 町田店","住所":"〒194-0013 東京都町田市原町田４−１７−１８","ステータス":"APP_DISPLAY","region":"Machida","lat":35.542572,"lng":139.451096},{"店舗名":"Dining&Bar Dude","住所":"〒194-0013 東京都町田市原町田４丁目","ステータス":"APP_DISPLAY","region":"Machida","lat":35.543541,"lng":139.452515},{"店舗名":"ラーメンつづき 町田店","住所":"〒194-0013 東京都町田市原町田４丁目１−１","ステータス":"APP_DISPLAY","region":"Machida","lat":35.541607,"lng":139.446732},{"店舗名":"うらやましか町田店","住所":"〒194-0013 東京都町田市原町田４丁目１−１０","ステータス":"APP_DISPLAY","region":"Machida","lat":35.541199,"lng":139.447922},{"店舗名":"らーめん ぎょうてん屋 町田店","住所":"〒194-0013 東京都町田市原町田４丁目１１−１４","ステータス":"APP_DISPLAY","region":"Machida","lat":35.542286,"lng":139.448578},{"店舗名":"Lovers ROCK 町田 Machida","住所":"〒194-0013 東京都町田市原町田４丁目１−７","ステータス":"APP_DISPLAY","region":"Machida","lat":35.541435,"lng":139.44754},{"店舗名":"ケンタッキーフライドチキン 町田駅前通り店","住所":"〒194-0013 東京都町田市原町田４丁目１−７","ステータス":"APP_DISPLAY","region":"Machida","lat":35.541435,"lng":139.44754},{"店舗名":"伊豆のひもの 魚恵","住所":"〒194-0013 東京都町田市原町田４丁目１−８","ステータス":"APP_DISPLAY","region":"Machida","lat":35.541378,"lng":139.447662},{"店舗名":"串カツ田中 町田駅前通り店","住所":"〒194-0013 東京都町田市原町田４丁目２−１４","ステータス":"APP_DISPLAY","region":"Machida","lat":35.541622,"lng":139.447571},{"店舗名":"大盛スタミナ肉丼 ニンニク野郎 町田駅前通り店","住所":"〒194-0013 東京都町田市原町田４丁目２−１４","ステータス":"APP_DISPLAY","region":"Machida","lat":35.541622,"lng":139.447571},{"店舗名":"香港厨房 風香園 町田店","住所":"〒194-0013 東京都町田市原町田４丁目２−８","ステータス":"APP_DISPLAY","region":"Machida","lat":35.542091,"lng":139.447723},{"店舗名":"しんぱち食堂町田店","住所":"〒194-0013 東京都町田市原町田４丁目２−９","ステータス":"APP_DISPLAY","region":"Machida","lat":35.542004,"lng":139.447784},{"店舗名":"韓国屋台ハンサム 町田店","住所":"〒194-0013 東京都町田市原町田４丁目３−１","ステータス":"APP_DISPLAY","region":"Machida","lat":35.541626,"lng":139.447647},{"店舗名":"豚ギャング町田店","住所":"〒194-0013 東京都町田市原町田４丁目３−６−１","ステータス":"APP_DISPLAY","region":"Machida","lat":35.541489,"lng":139.448135},{"店舗名":"Erciyes Kebab","住所":"〒194-0013 東京都町田市原町田４丁目４−１６","ステータス":"APP_DISPLAY","region":"Machida","lat":35.542114,"lng":139.447769},{"店舗名":"粉や 町田店","住所":"〒194-0013 東京都町田市原町田４丁目４−２","ステータス":"APP_DISPLAY","region":"Machida","lat":35.542313,"lng":139.447906},{"店舗名":"百味麻辣湯 町田店","住所":"〒194-0013 東京都町田市原町田４丁目５−２０","ステータス":"RECEIPT","region":"Machida","lat":35.541534,"lng":139.448166},{"店舗名":"焼肉やまと　町田店","住所":"〒194-0013 東京都町田市原町田４丁目５−６","ステータス":"APP_DISPLAY","region":"Machida","lat":35.542072,"lng":139.44873},{"店舗名":"元祖 辛麺屋桝元 町田店　Ganso Karamenya Masumoto Machida","住所":"〒194-0013 東京都町田市原町田４丁目５−７","ステータス":"APP_DISPLAY","region":"Machida","lat":35.541988,"lng":139.448837},{"店舗名":"串焼き酒場 焼プラス 町田店","住所":"〒194-0013 東京都町田市原町田４丁目６−８","ステータス":"APP_DISPLAY","region":"Machida","lat":35.541523,"lng":139.449402},{"店舗名":"串と馬肉-梯子-","住所":"〒194-0013 東京都町田市原町田４丁目６−８ ステラ D区画","ステータス":"RECEIPT","region":"Machida","lat":35.541523,"lng":139.449402},{"店舗名":"いきなりステーキ 町田店","住所":"〒194-0013 東京都町田市原町田４丁目９−１６","ステータス":"APP_DISPLAY","region":"Machida","lat":35.541664,"lng":139.449295},{"店舗名":"島野豆腐店","住所":"〒194-0013 東京都町田市原町田５丁目５−１０","ステータス":"APP_DISPLAY","region":"Machida","lat":35.544659,"lng":139.450745},{"店舗名":"なまいき　肉乃町田店","住所":"〒194-0013 東京都町田市原町田６丁目１０−１０ 東京ビルディング第３５東京ビル","ステータス":"APP_DISPLAY","region":"Machida","lat":35.543686,"lng":139.446884},{"店舗名":"一心堂 　鶏ゴロー","住所":"〒194-0013 東京都町田市原町田６丁目１０−１０ 東京ビルディング第３５東京ビル 5f","ステータス":"APP_DISPLAY","region":"Machida","lat":35.543686,"lng":139.446884},{"店舗名":"肉ときどきレモンサワー。町田駅前店","住所":"〒194-0013 東京都町田市原町田6丁目10-17 町田アバックビル","ステータス":"APP_DISPLAY","region":"Machida","lat":35.543415,"lng":139.446152},{"店舗名":"GU-CHAN","住所":"〒194-0013 東京都町田市原町田６丁目１０−２","ステータス":"APP_DISPLAY","region":"Machida","lat":35.543724,"lng":139.446014},{"店舗名":"リンガーハット 小田急マルシェ町田店","住所":"〒194-0013 東京都町田市原町田６丁目１−１","ステータス":"APP_DISPLAY","region":"Machida","lat":35.542873,"lng":139.44429},{"店舗名":"東京純豆腐ルミネ町田店","住所":"〒194-0013 東京都町田市原町田６丁目１−１１","ステータス":"APP_DISPLAY","region":"Machida","lat":35.542339,"lng":139.44574},{"店舗名":"大戸屋ごはん処 小田急町田東口店","住所":"〒194-0013 東京都町田市原町田６丁目１１−１０","ステータス":"APP_DISPLAY","region":"Machida","lat":35.544483,"lng":139.446243},{"店舗名":"鴨と大山鶏スープの淡麗醤油らぁ麺　はやし田　町田店","住所":"〒194-0013 東京都町田市原町田６丁目１１−１３","ステータス":"APP_DISPLAY","region":"Machida","lat":35.544098,"lng":139.446487},{"店舗名":"SHOGUN BURGER 町田店","住所":"〒194-0013 東京都町田市原町田６丁目１１−１４ 菊甚ビル","ステータス":"APP_DISPLAY","region":"Machida","lat":35.543995,"lng":139.446487},{"店舗名":"横濱家系ラーメン 七代目野中家","住所":"〒194-0013 東京都町田市原町田６丁目１１−１６","ステータス":"APP_DISPLAY","region":"Machida","lat":35.543858,"lng":139.446198},{"店舗名":"蜀味軒 本店","住所":"〒194-0013 東京都町田市原町田６丁目１１−１７","ステータス":"APP_DISPLAY","region":"Machida","lat":35.543793,"lng":139.446045},{"店舗名":"鉄板焼き大ちゃん","住所":"〒194-0013 東京都町田市原町田６丁目１１−１７","ステータス":"APP_DISPLAY","region":"Machida","lat":35.543793,"lng":139.446045},{"店舗名":"韓国焼肉 吾照里 町田店","住所":"〒194-0013 東京都町田市原町田６丁目１１−１７","ステータス":"APP_DISPLAY","region":"Machida","lat":35.543793,"lng":139.446045},{"店舗名":"油そば　日本油党　町田支部","住所":"〒194-0013 東京都町田市原町田６丁目１１−１７","ステータス":"APP_DISPLAY","region":"Machida","lat":35.543793,"lng":139.446045},{"店舗名":"伝説のすた丼屋 町田店","住所":"〒194-0013 東京都町田市原町田６丁目１１−７","ステータス":"APP_DISPLAY","region":"Machida","lat":35.544296,"lng":139.445801},{"店舗名":"吉野家 小田急町田駅南口店","住所":"〒194-0013 東京都町田市原町田６丁目１１−７","ステータス":"APP_DISPLAY","region":"Machida","lat":35.544296,"lng":139.445801},{"店舗名":"伝説のすた丼屋町田店","住所":"〒194-0013 東京都町田市原町田６丁目１１−７ 第４１東京ビル","ステータス":"RECEIPT","region":"Machida","lat":35.544296,"lng":139.445801},{"店舗名":"【本格麻辣×自家製春雨】白虎麻辣湯 町田駅店","住所":"〒194-0013 東京都町田市原町田６丁目１４ 萩原・重南ビル b1f","ステータス":"RECEIPT","region":"Machida","lat":35.544716,"lng":139.446533},{"店舗名":"ごはんがすすむ！油淋鶏飯店 町田店","住所":"〒194-0013 東京都町田市原町田６丁目１４−１３","ステータス":"APP_DISPLAY","region":"Machida","lat":35.544521,"lng":139.446289},{"店舗名":"ごはんが進む！『チキン南蛮本舗』町田店","住所":"〒194-0013 東京都町田市原町田６丁目１４−１３","ステータス":"APP_DISPLAY","region":"Machida","lat":35.544521,"lng":139.446289},{"店舗名":"果茶果茶町田店","住所":"〒194-0013 東京都町田市原町田６丁目１４−１３","ステータス":"APP_DISPLAY","region":"Machida","lat":35.544521,"lng":139.446289},{"店舗名":"果茶果茶 小田急町田駅前店","住所":"〒194-0013 東京都町田市原町田６丁目１４−１３","ステータス":"APP_DISPLAY","region":"Machida","lat":35.544521,"lng":139.446289},{"店舗名":"『油そば桐ちゃん』～食べログ百名店 桐麺監修～ 小田急町田駅前店","住所":"〒194-0013 東京都町田市原町田６丁目１４−１３","ステータス":"APP_DISPLAY","region":"Machida","lat":35.544521,"lng":139.446289},{"店舗名":"わらび餅茶屋 小田急町田駅前店","住所":"〒194-0013 東京都町田市原町田６丁目１４−１３","ステータス":"APP_DISPLAY","region":"Machida","lat":35.544521,"lng":139.446289},{"店舗名":"ビックエコーデリバリー 小田急町田駅前店","住所":"〒194-0013 東京都町田市原町田６丁目１４−１３ ビッグエコー","ステータス":"APP_DISPLAY","region":"Machida","lat":35.544521,"lng":139.446289},{"店舗名":"ミルゼリッチ 小田急町田駅前店","住所":"〒194-0013 東京都町田市原町田６丁目１４−１３ ビッグエコー","ステータス":"APP_DISPLAY","region":"Machida","lat":35.544521,"lng":139.446289},{"店舗名":"ナポリデイズ 小田急町田駅前店","住所":"〒194-0013 東京都町田市原町田６丁目１４−１３ ビッグエコー","ステータス":"APP_DISPLAY","region":"Machida","lat":35.544521,"lng":139.446289},{"店舗名":"二段仕込み唐揚げ『鶏の福』 小田急町田駅前店","住所":"〒194-0013 東京都町田市原町田６丁目１４−１３ ビッグエコー","ステータス":"APP_DISPLAY","region":"Machida","lat":35.544521,"lng":139.446289},{"店舗名":"【町田 中華】蜀味軒 別館","住所":"〒194-0013 東京都町田市原町田６丁目１５−１１","ステータス":"APP_DISPLAY","region":"Machida","lat":35.544941,"lng":139.446609},{"店舗名":"七宝麻辣湯(チーパオマーラータン) 町田東口店","住所":"〒194-0013 東京都町田市原町田６丁目１５−１６","ステータス":"APP_DISPLAY","region":"Machida","lat":35.544964,"lng":139.44603},{"店舗名":"代官山 Candy Apple 町田マルイ店","住所":"〒194-0013 東京都町田市原町田６丁目１−６","ステータス":"APP_DISPLAY","region":"Machida","lat":35.542702,"lng":139.444992},{"店舗名":"クリスピー・クリーム・ドーナツ 町田マルイ店","住所":"〒194-0013 東京都町田市原町田６丁目１−６","ステータス":"APP_DISPLAY","region":"Machida","lat":35.542702,"lng":139.444992},{"店舗名":"PRONTO　町田マルイ店","住所":"〒194-0013 東京都町田市原町田６丁目１−６","ステータス":"APP_DISPLAY","region":"Machida","lat":35.542702,"lng":139.444992},{"店舗名":"築地銀だこ 町田マルイ店","住所":"〒194-0013 東京都町田市原町田６丁目１−６","ステータス":"APP_DISPLAY","region":"Machida","lat":35.542702,"lng":139.444992},{"店舗名":"香椒園","住所":"〒194-0013 東京都町田市原町田６丁目１７−１９","ステータス":"APP_DISPLAY","region":"Machida","lat":35.545185,"lng":139.447632},{"店舗名":"ラホンバン マーラータン 町田店","住所":"〒194-0013 東京都町田市原町田６丁目１７−３","ステータス":"APP_DISPLAY","region":"Machida","lat":35.54504,"lng":139.446884},{"店舗名":"七志ラーメン町田店","住所":"〒194-0013 東京都町田市原町田６丁目１８−１７","ステータス":"APP_DISPLAY","region":"Machida","lat":35.544476,"lng":139.446976},{"店舗名":"炒飯極七志 町田店","住所":"〒194-0013 東京都町田市原町田６丁目１８−１７ 東亜町田ビル III","ステータス":"APP_DISPLAY","region":"Machida","lat":35.544476,"lng":139.446976},{"店舗名":"【牛タン弁当】焼肉 Meat it","住所":"〒194-0013 東京都町田市原町田６丁目１９−１５","ステータス":"APP_DISPLAY","region":"Machida","lat":35.543808,"lng":139.44722},{"店舗名":"韓国居酒屋いる Korean Izakaya Iru","住所":"〒194-0013 東京都町田市原町田６丁目２０−１３","ステータス":"APP_DISPLAY","region":"Machida","lat":35.543617,"lng":139.447586},{"店舗名":"ウェンディーズ・ファーストキッチン町田パークアベニュー店","住所":"〒194-0013 東京都町田市原町田６丁目３−１１","ステータス":"APP_DISPLAY","region":"Machida","lat":35.543312,"lng":139.446152},{"店舗名":"バインクオンナン","住所":"〒194-0013 東京都町田市原町田６丁目４−１","ステータス":"APP_DISPLAY","region":"Machida","lat":35.542442,"lng":139.44606},{"店舗名":"あいみパン","住所":"〒194-0013 東京都町田市原町田６丁目４−１","ステータス":"APP_DISPLAY","region":"Machida","lat":35.542442,"lng":139.44606},{"店舗名":"バーガーキング町田ジョルナ店","住所":"〒194-0013 東京都町田市原町田６丁目６−１４","ステータス":"APP_DISPLAY","region":"Machida","lat":35.542152,"lng":139.447571},{"店舗名":"元祖ヤンニョムチキン屋 町田店 Original Yangnyeom Chicken Machida","住所":"〒194-0013 東京都町田市原町田６丁目６−１４","ステータス":"APP_DISPLAY","region":"Machida","lat":35.542152,"lng":139.447571},{"店舗名":"やきとりセンター 町田東急前店","住所":"〒194-0013 東京都町田市原町田６丁目７−１６","ステータス":"APP_DISPLAY","region":"Machida","lat":35.542561,"lng":139.447266},{"店舗名":"ゴーゴーカレー 町田店","住所":"〒194-0013 東京都町田市原町田６丁目７−８","ステータス":"APP_DISPLAY","region":"Machida","lat":35.542603,"lng":139.448105},{"店舗名":"肉汁餃子のダンダダン 町田店","住所":"〒194-0013 東京都町田市原町田６丁目８−１","ステータス":"APP_DISPLAY","region":"Machida","lat":35.542896,"lng":139.446884},{"店舗名":"あげ丸 町田店","住所":"〒194-0013 東京都町田市原町田６丁目９−８","ステータス":"APP_DISPLAY","region":"Machida","lat":35.543526,"lng":139.447052},{"店舗名":"韓国屋台酒場 韓兵衛 町田レンガ通り一番街店","住所":"〒194-0013 東京都町田市原町田六丁目11番17号","ステータス":"APP_DISPLAY","region":"Machida","lat":35.543793,"lng":139.446045},{"店舗名":"中華酒場 福包酒場 町田レンガ通り一番街店","住所":"〒194-0013 東京都町田市原町田六丁目11番17号","ステータス":"APP_DISPLAY","region":"Machida","lat":35.543793,"lng":139.446045},{"店舗名":"韓兵衛 町田店","住所":"〒194-0013 東京都町田市原町田六丁目6番14号","ステータス":"APP_DISPLAY","region":"Machida","lat":35.542152,"lng":139.447571},{"店舗名":"町田ベビーカステラ Johnny's","住所":"〒194-0013 東京都町田市原町田四丁目５番１８号","ステータス":"APP_DISPLAY","region":"Machida","lat":35.541328,"lng":139.448364},{"店舗名":"そば処 満屋","住所":"〒194-0014 東京都町田市高ヶ坂５丁目１２−３","ステータス":"APP_DISPLAY","region":"Machida","lat":35.542091,"lng":139.459656},{"店舗名":"ぷち窯","住所":"〒194-0015","ステータス":"RECEIPT","region":"Machida","lat":35.535881,"lng":139.460876},{"店舗名":"伊勢うどんきまぐれ","住所":"〒194-0015 東京都町田市金森東１丁目１１−１","ステータス":"APP_DISPLAY","region":"Machida","lat":35.534843,"lng":139.458908},{"店舗名":"カレーハウス CoCo壱番屋 町田金森店","住所":"〒194-0015 東京都町田市金森東２丁目１０−１１","ステータス":"APP_DISPLAY","region":"Machida","lat":35.531384,"lng":139.462067},{"店舗名":"Boulangerie des singes","住所":"〒194-0015 東京都町田市金森東４丁目２−２４","ステータス":"APP_DISPLAY","region":"Machida","lat":35.52755,"lng":139.464798},{"店舗名":"カレーハウス CoCo壱番屋 町田中町店","住所":"〒194-0021 東京都町田市中町１丁目１６−１１","ステータス":"APP_DISPLAY","region":"Machida","lat":35.546619,"lng":139.446808},{"店舗名":"串カツ田中 町田店","住所":"〒194-0021 東京都町田市中町１丁目１６−１３","ステータス":"APP_DISPLAY","region":"Machida","lat":35.546364,"lng":139.446686},{"店舗名":"大盛スタミナ肉丼 ニンニク野郎 町田店","住所":"〒194-0021 東京都町田市中町１丁目１６−１３ 伊藤ビル","ステータス":"APP_DISPLAY","region":"Machida","lat":35.546364,"lng":139.446686},{"店舗名":"Masr kebab","住所":"〒194-0021 東京都町田市中町１丁目１８−１","ステータス":"APP_DISPLAY","region":"Machida","lat":35.546394,"lng":139.446762},{"店舗名":"貝ガラ屋 町田","住所":"〒194-0021 東京都町田市中町１丁目１９−６","ステータス":"APP_DISPLAY","region":"Machida","lat":35.547981,"lng":139.447433},{"店舗名":"ヌードボウルマゼ","住所":"〒194-0021 東京都町田市中町１丁目２１−１１ 中１ビル","ステータス":"APP_DISPLAY","region":"Machida","lat":35.549438,"lng":139.446487},{"店舗名":"【豚角煮のおいしいお店】和が家 町田店 Japanese boiled dishes","住所":"〒194-0021 東京都町田市中町１丁目２−３","ステータス":"APP_DISPLAY","region":"Machida","lat":35.54604,"lng":139.445282},{"店舗名":"京都北白川 ラーメン魁力屋 町田中町店","住所":"〒194-0021 東京都町田市中町２丁目１７−１０","ステータス":"APP_DISPLAY","region":"Machida","lat":35.554119,"lng":139.443573},{"店舗名":"インドレストラン KITCHEN KING","住所":"〒194-0021 東京都町田市中町２丁目６−１４","ステータス":"APP_DISPLAY","region":"Machida","lat":35.552891,"lng":139.44191},{"店舗名":"ピザハット 町田中町店","住所":"〒194-0021 東京都町田市中町３丁目２４−８","ステータス":"APP_DISPLAY","region":"Machida","lat":35.550766,"lng":139.452042},{"店舗名":"トスカーニパスタ 町田中町店","住所":"〒194-0021 東京都町田市中町３丁目２４−８","ステータス":"APP_DISPLAY","region":"Machida","lat":35.550766,"lng":139.452042},{"店舗名":"チキン・ウイングストリート 町田中町店","住所":"〒194-0021 東京都町田市中町３丁目２４−８","ステータス":"APP_DISPLAY","region":"Machida","lat":35.550766,"lng":139.452042},{"店舗名":"焼き鳥いろは","住所":"〒194-0021 東京都町田市中町３丁目７−２１","ステータス":"APP_DISPLAY","region":"Machida","lat":35.551548,"lng":139.44812},{"店舗名":"DINING BAR SUU","住所":"〒194-0022 東京都町田市森野１丁目１１−９","ステータス":"RECEIPT","region":"Machida","lat":35.545292,"lng":139.441849},{"店舗名":"パシャケバブ","住所":"〒194-0022 東京都町田市森野１丁目２２−１","ステータス":"APP_DISPLAY","region":"Machida","lat":35.544449,"lng":139.442795},{"店舗名":"三百楽","住所":"〒194-0022 東京都町田市森野１丁目２６−２３","ステータス":"APP_DISPLAY","region":"Machida","lat":35.546131,"lng":139.443954},{"店舗名":"トラットリア シェ ラパン trattoria chez lapin","住所":"〒194-0022 東京都町田市森野１丁目-３４-１６Taiyo Bld15","ステータス":"APP_DISPLAY","region":"Machida","lat":35.546116,"lng":139.444565},{"店舗名":"ジャミジャミバーガー森野店 Jami Jami burger Morino","住所":"〒194-0022 東京都町田市森野１丁目３４−１８","ステータス":"APP_DISPLAY","region":"Machida","lat":35.545948,"lng":139.44429},{"店舗名":"シーフード＆ステーキ ジーニーズ町田","住所":"〒194-0022 東京都町田市森野１丁目３５−８","ステータス":"APP_DISPLAY","region":"Machida","lat":35.545872,"lng":139.444672},{"店舗名":"飯とおかずと汁 小田急町田北口店","住所":"〒194-0022 東京都町田市森野１丁目３９−１","ステータス":"APP_DISPLAY","region":"Machida","lat":35.544537,"lng":139.445129},{"店舗名":"カレーの横綱 小田急町田北口店","住所":"〒194-0022 東京都町田市森野１丁目３９−１","ステータス":"APP_DISPLAY","region":"Machida","lat":35.544537,"lng":139.445129},{"店舗名":"たこやき道場 小田急町田北口店","住所":"〒194-0022 東京都町田市森野１丁目３９−１","ステータス":"APP_DISPLAY","region":"Machida","lat":35.544537,"lng":139.445129},{"店舗名":"炭と香りと飯 小田急町田北口店","住所":"〒194-0022 東京都町田市森野１丁目３９−１","ステータス":"APP_DISPLAY","region":"Machida","lat":35.544537,"lng":139.445129},{"店舗名":"【台湾フルーツティーとフライドポテト】果茶ポテ 小田急町田北口店","住所":"〒194-0022 東京都町田市森野１丁目３９−１","ステータス":"APP_DISPLAY","region":"Machida","lat":35.544537,"lng":139.445129},{"店舗名":"丼ぶり一丁 小田急町田北口店","住所":"〒194-0022 東京都町田市森野１丁目３９−１","ステータス":"APP_DISPLAY","region":"Machida","lat":35.544537,"lng":139.445129},{"店舗名":"チキンとタルタル小田急町田北口店","住所":"〒194-0022 東京都町田市森野１丁目３９−１","ステータス":"APP_DISPLAY","region":"Machida","lat":35.544537,"lng":139.445129},{"店舗名":"ヤムヤムポテト 小田急町田北口店","住所":"〒194-0022 東京都町田市森野１丁目３９−１","ステータス":"APP_DISPLAY","region":"Machida","lat":35.544537,"lng":139.445129},{"店舗名":"バニラ&チェリー 小田急町田北口店","住所":"〒194-0022 東京都町田市森野１丁目３９−１","ステータス":"APP_DISPLAY","region":"Machida","lat":35.544537,"lng":139.445129},{"店舗名":"水果汽泡 小田急町田北口店","住所":"〒194-0022 東京都町田市森野１丁目３９−１","ステータス":"APP_DISPLAY","region":"Machida","lat":35.544537,"lng":139.445129},{"店舗名":"もつ焼き道場 小田急町田北口店","住所":"〒194-0022 東京都町田市森野１丁目３９−１","ステータス":"APP_DISPLAY","region":"Machida","lat":35.544537,"lng":139.445129},{"店舗名":"デニーズ 町田北口店","住所":"〒194-0022 東京都町田市森野１丁目３９−１","ステータス":"APP_DISPLAY","region":"Machida","lat":35.544537,"lng":139.445129},{"店舗名":"【大盛りお肉のお弁当】肉が一番 小田急町田北口店","住所":"〒194-0022 東京都町田市森野１丁目３９−１ 4f","ステータス":"APP_DISPLAY","region":"Machida","lat":35.544537,"lng":139.445129},{"店舗名":"しんぱち食堂小田急町田店","住所":"〒194-0022 東京都町田市森野１丁目３９−１５","ステータス":"APP_DISPLAY","region":"Machida","lat":35.544891,"lng":139.445572},{"店舗名":"ベトナム料理・ハンちゃん","住所":"〒194-0022 東京都町田市森野１丁目９−１８","ステータス":"APP_DISPLAY","region":"Machida","lat":35.545204,"lng":139.441681},{"店舗名":"Lea sandwich【町田フルーツサンドのお店】レアサンドイッチ","住所":"〒194-0022 東京都町田市森野３丁目１５−１９","ステータス":"APP_DISPLAY","region":"Machida","lat":35.55463,"lng":139.436905},{"店舗名":"大衆菜館","住所":"〒194-0022 東京都町田市森野４丁目１５−１６","ステータス":"RECEIPT","region":"Machida","lat":35.555931,"lng":139.435242},{"店舗名":"ケンタッキーフライドチキン 町田街道森野店","住所":"〒194-0022 東京都町田市森野４丁目１７−１９","ステータス":"APP_DISPLAY","region":"Machida","lat":35.555557,"lng":139.435776},{"店舗名":"発酵玄米朧おぼろ","住所":"〒194-0022 東京都町田市森野一丁目１３番２２号","ステータス":"APP_DISPLAY","region":"Machida","lat":35.544075,"lng":139.443832},{"店舗名":"ドミノ・ピザ 町田旭町店","住所":"〒194-0023 東京都町田市旭町１丁目２３−６ 町田園マンション","ステータス":"APP_DISPLAY","region":"Machida","lat":35.555527,"lng":139.441452},{"店舗名":"Machi Cafe","住所":"〒194-0032 東京都町田市本町田","ステータス":"APP_DISPLAY","region":"Machida","lat":35.565037,"lng":139.443542},{"店舗名":"肉の和楽堂","住所":"〒194-0032 東京都町田市本町田２５０７−７","ステータス":"APP_DISPLAY","region":"Machida","lat":35.56699,"lng":139.435638},{"店舗名":"東京アルパカベーカリー","住所":"〒194-0032 東京都町田市本町田２９７３−７ マリノ １０２","ステータス":"APP_DISPLAY","region":"Machida","lat":35.571987,"lng":139.441406},{"店舗名":"Que será, será ケ･セラ･セラ","住所":"〒194-0032 東京都町田市本町田３０３１−１","ステータス":"APP_DISPLAY","region":"Machida","lat":35.574532,"lng":139.44249},{"店舗名":"風鈴Cafe & Restaurant CHUÔNG GIÓ MACHIDA","住所":"〒194-0032 東京都町田市本町田４３６７－８","ステータス":"APP_DISPLAY","region":"Machida","lat":35.560387,"lng":139.452988},{"店舗名":"吉野家 町田根岸店","住所":"〒194-0034 東京都町田市根岸町１０１９−８","ステータス":"APP_DISPLAY","region":"Machida","lat":35.578026,"lng":139.410126},{"店舗名":"ル・シーニ","住所":"〒194-0035","ステータス":"APP_DISPLAY","region":"Machida","lat":35.574314,"lng":139.42186},{"店舗名":"昭和食道","住所":"〒194-0035 東京都町田市忠生１−２７−３７","ステータス":"APP_DISPLAY","region":"Machida","lat":35.575214,"lng":139.418488},{"店舗名":"Cafe&Deli IMOKICHIYA","住所":"〒194-0035 東京都町田市忠生４丁目５−８","ステータス":"APP_DISPLAY","region":"Machida","lat":35.580326,"lng":139.410751},{"店舗名":"さち吉海鮮丼丸境川店","住所":"〒194-0036 東京都町田市木曽東１丁目３６−１５","ステータス":"APP_DISPLAY","region":"Machida","lat":35.558548,"lng":139.424789},{"店舗名":"ミライ 南インド料理","住所":"〒194-0036 東京都町田市木曽東２丁目２−１","ステータス":"APP_DISPLAY","region":"Machida","lat":35.555241,"lng":139.427155},{"店舗名":"さち吉 海鮮丼丸 町田店 sachikichi","住所":"〒194-0036 東京都町田市木曽東２丁目５−１ ラポール町田","ステータス":"APP_DISPLAY","region":"Machida","lat":35.555866,"lng":139.426666},{"店舗名":"クレープ専門店 カフェ・ド・チワワ","住所":"〒194-0036 東京都町田市木曽東３丁目３３−５−６","ステータス":"APP_DISPLAY","region":"Machida","lat":35.564278,"lng":139.425568},{"店舗名":"リンガーハット 町田木曽町店","住所":"〒194-0036 東京都町田市木曽東３丁目８−２４","ステータス":"APP_DISPLAY","region":"Machida","lat":35.561901,"lng":139.428131},{"店舗名":"ちいさなレストラン Time flies","住所":"〒194-0037","ステータス":"APP_DISPLAY","region":"Machida","lat":35.565212,"lng":139.417313},{"店舗名":"米家きゅうさん境川店","住所":"〒194-0037 東京都町田市木曽西１丁目２−２９","ステータス":"APP_DISPLAY","region":"Machida","lat":35.563202,"lng":139.420959},{"店舗名":"オールドヒッコリー境川 OLD HICKORY SAKAIGAWA","住所":"〒194-0037 東京都町田市木曽西１丁目２−３２","ステータス":"RECEIPT","region":"Machida","lat":35.562965,"lng":139.421127},{"店舗名":"インドレストラン ザイカ","住所":"〒194-0037 東京都町田市木曽西１丁目２７−５","ステータス":"APP_DISPLAY","region":"Machida","lat":35.567497,"lng":139.417969},{"店舗名":"博多天ぷらなぐや 町田店","住所":"〒194-0037 東京都町田市木曽西４丁目３５−１","ステータス":"APP_DISPLAY","region":"Machida","lat":35.569172,"lng":139.422119},{"店舗名":"麺屋 やっとこ 町田木曽店","住所":"〒194-0037 東京都町田市木曽西４丁目３６−４","ステータス":"APP_DISPLAY","region":"Machida","lat":35.570244,"lng":139.421555},{"店舗名":"百味苑","住所":"〒194-0037 東京都町田市木曽西５丁目２０−８","ステータス":"APP_DISPLAY","region":"Machida","lat":35.568359,"lng":139.422729},{"店舗名":"カレーハウス CoCo壱番屋 町田木曽店","住所":"〒194-0037 東京都町田市木曽西５丁目２７−１ カレーハウスココ壱番屋","ステータス":"APP_DISPLAY","region":"Machida","lat":35.569111,"lng":139.422318},{"店舗名":"【本格麻辣×自家製春雨】白虎麻辣湯 藤の台1丁目店","住所":"〒194-0039 東京都町田市藤の台１丁目１−４９ 107","ステータス":"RECEIPT","region":"Machida","lat":35.569939,"lng":139.447952},{"店舗名":"本町田厨房らな","住所":"〒194-0039 東京都町田市藤の台１丁目１−４９－１０７","ステータス":"APP_DISPLAY","region":"Machida","lat":35.569939,"lng":139.447952},{"店舗名":"UME　CHAN","住所":"〒194-0039 東京都町田市藤の台１丁目１−５１","ステータス":"APP_DISPLAY","region":"Machida","lat":35.569939,"lng":139.447952},{"店舗名":"スパイスカレームビリンゴ","住所":"〒194-0041 東京都町田市玉川学園１丁目２１−１７","ステータス":"APP_DISPLAY","region":"Machida","lat":35.559479,"lng":139.461105},{"店舗名":"Pandora","住所":"〒194-0041 東京都町田市玉川学園１丁目２１－２１","ステータス":"APP_DISPLAY","region":"Machida","lat":35.559025,"lng":139.461121},{"店舗名":"花一輪","住所":"〒194-0041 東京都町田市玉川学園２丁目1-29","ステータス":"RECEIPT","region":"Machida","lat":35.560261,"lng":139.461334},{"店舗名":"とんかつごりこ玉川学園駅前店","住所":"〒194-0041 東京都町田市玉川学園２丁目２１−９","ステータス":"APP_DISPLAY","region":"Machida","lat":35.56337,"lng":139.463043},{"店舗名":"レンゲが止まらない！まーらーたん","住所":"〒194-0041 東京都町田市玉川学園２丁目２１−９","ステータス":"APP_DISPLAY","region":"Machida","lat":35.56337,"lng":139.463043},{"店舗名":"デリーマハル","住所":"〒194-0041 東京都町田市玉川学園２丁目７−５","ステータス":"APP_DISPLAY","region":"Machida","lat":35.561394,"lng":139.461884},{"店舗名":"マヘックケバブ","住所":"〒194-0041 東京都町田市玉川学園２丁目７−５","ステータス":"APP_DISPLAY","region":"Machida","lat":35.561394,"lng":139.461884},{"店舗名":"37de5 1/2","住所":"〒194-0041 東京都町田市玉川学園２丁目８−２８","ステータス":"APP_DISPLAY","region":"Machida","lat":35.56134,"lng":139.461685},{"店舗名":"N1CHE","住所":"〒194-0041 東京都町田市玉川学園５丁目１−５","ステータス":"APP_DISPLAY","region":"Machida","lat":35.56522,"lng":139.462692},{"店舗名":"うなぎ乃助 玉川学園店","住所":"〒194-0041 東京都町田市玉川学園７丁目５−１","ステータス":"APP_DISPLAY","region":"Machida","lat":35.563087,"lng":139.463593},{"店舗名":"皮パリチキンオーバーライス","住所":"〒194-0041 東京都町田市玉川学園７丁目５−１ イトービル","ステータス":"APP_DISPLAY","region":"Machida","lat":35.563087,"lng":139.463593},{"店舗名":"Pecora","住所":"〒194-0041 東京都町田市玉川学園７丁目８−３","ステータス":"APP_DISPLAY","region":"Machida","lat":35.564217,"lng":139.46434},{"店舗名":"ゑくぼのチーズケーキ","住所":"〒194-0042 東京都町田市東玉川学園","ステータス":"RECEIPT","region":"Machida","lat":35.558502,"lng":139.471741},{"店舗名":"どらねこ洞","住所":"〒194-0042 東京都町田市東玉川学園２丁目１３番２４号","ステータス":"APP_DISPLAY","region":"Machida","lat":35.556934,"lng":139.472107},{"店舗名":"こだわりとんかつ 神楽 成瀬","住所":"〒194-0044 東京都町田市成瀬","ステータス":"APP_DISPLAY","region":"Machida","lat":35.546665,"lng":139.474457},{"店舗名":"つきじ海賓 成瀬","住所":"〒194-0044 東京都町田市成瀬１丁目２−６","ステータス":"APP_DISPLAY","region":"Machida","lat":35.545925,"lng":139.473511},{"店舗名":"おすし日和 成瀬","住所":"〒194-0044 東京都町田市成瀬１丁目２−６","ステータス":"APP_DISPLAY","region":"Machida","lat":35.545925,"lng":139.473511},{"店舗名":"ななつぼし片瀬店","住所":"〒194-0044 東京都町田市成瀬１丁目２−６","ステータス":"APP_DISPLAY","region":"Machida","lat":35.545925,"lng":139.473511},{"店舗名":"ななつぼし成瀬店","住所":"〒194-0044 東京都町田市成瀬１丁目２−６","ステータス":"APP_DISPLAY","region":"Machida","lat":35.545925,"lng":139.473511},{"店舗名":"YUMEN成瀬店","住所":"〒194-0044 東京都町田市成瀬１丁目２−６","ステータス":"APP_DISPLAY","region":"Machida","lat":35.545925,"lng":139.473511},{"店舗名":"まつ乃成瀬店","住所":"〒194-0044 東京都町田市成瀬１丁目２−６","ステータス":"APP_DISPLAY","region":"Machida","lat":35.545925,"lng":139.473511},{"店舗名":"海のみち成瀬店","住所":"〒194-0044 東京都町田市成瀬１丁目２−６","ステータス":"APP_DISPLAY","region":"Machida","lat":35.545925,"lng":139.473511},{"店舗名":"丼ぶり 天晴 成瀬店","住所":"〒194-0044 東京都町田市成瀬１丁目２−６ エクセルメゾン壱番館","ステータス":"APP_DISPLAY","region":"Machida","lat":35.545925,"lng":139.473511},{"店舗名":"jun-peyra-men成瀬店","住所":"〒194-0044 東京都町田市成瀬１丁目４−２","ステータス":"APP_DISPLAY","region":"Machida","lat":35.547733,"lng":139.472733},{"店舗名":"セモア！","住所":"〒194-0044 東京都町田市成瀬７－１－３","ステータス":"APP_DISPLAY","region":"Machida","lat":35.542988,"lng":139.472366},{"店舗名":"炙りローストポーク丼 肉のドレス","住所":"〒194-0045 東京都町田市南成瀬1丁目2-1","ステータス":"APP_DISPLAY","region":"Machida","lat":35.536507,"lng":139.473557},{"店舗名":"ケンタッキーフライドチキン 相鉄ローゼン成瀬店","住所":"〒194-0045 東京都町田市南成瀬１丁目３−５","ステータス":"APP_DISPLAY","region":"Machida","lat":35.536594,"lng":139.470871},{"店舗名":"串カツ田中 成瀬店","住所":"〒194-0045 東京都町田市南成瀬５丁目１−１０","ステータス":"APP_DISPLAY","region":"Machida","lat":35.536213,"lng":139.47467},{"店舗名":"クリスピーチキンアンドトマト つくし野店 CRISPY CHICKEN n' TOMATO Tsukushino","住所":"〒194-0045 東京都町田市南成瀬５丁目１−１０","ステータス":"APP_DISPLAY","region":"Machida","lat":35.536213,"lng":139.47467},{"店舗名":"ドミノ・ピザ 成瀬駅北口店","住所":"〒194-0045 東京都町田市南成瀬５丁目１−１０ サンプラザ西之久保","ステータス":"APP_DISPLAY","region":"Machida","lat":35.536213,"lng":139.47467},{"店舗名":"大盛スタミナ肉丼 ニンニク野郎 成瀬店","住所":"〒194-0045 東京都町田市南成瀬５丁目１−１０ サンプラザ西之久保","ステータス":"APP_DISPLAY","region":"Machida","lat":35.536213,"lng":139.47467},{"店舗名":"鰻の成瀬 成瀬店","住所":"〒194-0045 東京都町田市南成瀬５丁目１−７","ステータス":"APP_DISPLAY","region":"Machida","lat":35.536213,"lng":139.47467},{"店舗名":"ＮＡＭＡＳＴＥ　ＮＡＮ　ＧＨＡＲ","住所":"〒194-0046","ステータス":"APP_DISPLAY","region":"Machida","lat":35.545387,"lng":139.467178},{"店舗名":"町田アキッチョランド","住所":"〒194-0203 東京都町田市図師町1379-1","ステータス":"APP_DISPLAY","region":"Machida","lat":35.584312,"lng":139.421204},{"店舗名":"吉野家 町田街道小山町店","住所":"〒194-0212 東京都町田市小山町３６４７−１","ステータス":"APP_DISPLAY","region":"Machida","lat":35.600986,"lng":139.353592},{"店舗名":"三ツ目珈琲","住所":"〒194-0212 東京都町田市小山町３６６９","ステータス":"APP_DISPLAY","region":"Machida","lat":35.600986,"lng":139.353592},{"店舗名":"クリティカルホット","住所":"〒194-0213 東京都町田市常盤町３１６６","ステータス":"APP_DISPLAY","region":"Machida","lat":35.587021,"lng":139.393143},{"店舗名":"ピザハット 桜美林学園前店","住所":"〒194-0214 東京都町田市矢部町２６９３−４","ステータス":"APP_DISPLAY","region":"Machida","lat":35.58007,"lng":139.40448},{"店舗名":"トスカーニパスタ 桜美林学園前店","住所":"〒194-0214 東京都町田市矢部町２６９３−４","ステータス":"APP_DISPLAY","region":"Machida","lat":35.58007,"lng":139.40448},{"店舗名":"チキン・ウイングストリート 桜美林学園前店","住所":"〒194-0214 東京都町田市矢部町２６９３−４","ステータス":"APP_DISPLAY","region":"Machida","lat":35.58007,"lng":139.40448},{"店舗名":"ウェンディーズ・ファーストキッチン 町田多摩境ミスターマックスSC店","住所":"〒194-0215 東京都町田市小山ヶ丘６丁目１−１０","ステータス":"APP_DISPLAY","region":"Machida","lat":35.607174,"lng":139.347885},{"店舗名":"ケンタッキーフライドチキン ミスターマックス町田多摩境ショッピングセンター店","住所":"〒194-0215 東京都町田市小山ヶ丘６丁目１−１０","ステータス":"APP_DISPLAY","region":"Machida","lat":35.607174,"lng":139.347885},{"店舗名":"リンガーハット ミスターマックス町田多摩境店","住所":"〒194-0215 東京都町田市小山ケ丘６丁目１−１０","ステータス":"APP_DISPLAY","region":"Machida","lat":35.607174,"lng":139.347885},{"店舗名":"ベトナムリゾートレストラン HaNoi Machi","住所":"〒194-8501 東京都町田市原町田６丁目４－１","ステータス":"APP_DISPLAY","region":"Machida","lat":35.542442,"lng":139.44606},{"店舗名":"海鮮処寿し常 町田東急ツインズ店","住所":"〒194-8501 東京都町田市原町田６丁目４−１","ステータス":"APP_DISPLAY","region":"Machida","lat":35.542442,"lng":139.44606},{"店舗名":"クリスプサラダワークス 南町田グランベリーパーク店","住所":"〒194-8589 東京都町田市鶴間３丁目４−１","ステータス":"APP_DISPLAY","region":"Machida","lat":35.510033,"lng":139.470398},{"店舗名":"パクモグキッチン","住所":"〒195-0023 東京都町田市能ヶ谷１丁目１４−５ コーポ東信 1F","ステータス":"APP_DISPLAY","region":"Machida","lat":35.582397,"lng":139.479538},{"店舗名":"居酒屋 大関","住所":"〒195-0053 東京都町田市能ヶ谷","ステータス":"RECEIPT","region":"Machida","lat":35.582962,"lng":139.480927},{"店舗名":"居酒屋 大関","住所":"〒195-0053 東京都町田市能ヶ谷１丁目５－８","ステータス":"APP_DISPLAY","region":"Machida","lat":35.58342,"lng":139.480591},{"店舗名":"吉野家 小田急鶴川駅店","住所":"〒195-0053 東京都町田市能ヶ谷１丁目６−２","ステータス":"APP_DISPLAY","region":"Machida","lat":35.583374,"lng":139.48114},{"店舗名":"リンガーハット 町田鶴川店","住所":"〒195-0053 東京都町田市能ケ谷４丁目１−１６","ステータス":"APP_DISPLAY","region":"Machida","lat":35.584988,"lng":139.484818},{"店舗名":"カレーハウス CoCo壱番屋 町田鶴川店","住所":"〒195-0053 東京都町田市能ヶ谷７丁目２−１２","ステータス":"APP_DISPLAY","region":"Machida","lat":35.589775,"lng":139.478424},{"店舗名":"ファーストキッチン 町田三輪島忠ホームズ店","住所":"〒195-0054 東京都町田市三輪町２８１−１","ステータス":"APP_DISPLAY","region":"Machida","lat":35.578678,"lng":139.500214},{"店舗名":"エアーズロック＆ダディドーナツ","住所":"〒195-0061","ステータス":"APP_DISPLAY","region":"Machida","lat":35.587193,"lng":139.477158},{"店舗名":"Tokyo 米粉 Cakes","住所":"〒195-0061","ステータス":"APP_DISPLAY","region":"Machida","lat":35.587193,"lng":139.477158},{"店舗名":"cafe Fuhs","住所":"〒195-0061 東京都町田市鶴川","ステータス":"APP_DISPLAY","region":"Machida","lat":35.587193,"lng":139.477158},{"店舗名":"プラスハートカフェ劇場","住所":"〒195-0061 東京都町田市鶴川６丁目７−４−１１０","ステータス":"APP_DISPLAY","region":"Machida","lat":35.590763,"lng":139.470062},{"店舗名":"デニーズ 町田大蔵店","住所":"〒195-0062 東京都町田市大蔵町２３６","ステータス":"APP_DISPLAY","region":"Machida","lat":35.585808,"lng":139.470963},{"店舗名":"MACHICOFFEE","住所":"〒195-0063 東京都町田市野津田町２７０−１３","ステータス":"APP_DISPLAY","region":"Machida","lat":35.585781,"lng":139.438492},{"店舗名":"ハンバーガー＆カフェ ARMANDO","住所":"〒195-0064 東京都町田市小野路町４４５２−５５","ステータス":"APP_DISPLAY","region":"Machida","lat":35.60619,"lng":139.430862},{"店舗名":"CAFE＆RESTAURANT ARMANDO","住所":"〒195-0064 東京都町田市小野路町４４５２−５５","ステータス":"APP_DISPLAY","region":"Machida","lat":35.60619,"lng":139.430862},{"店舗名":"ドミノ・ピザ 玉川学園店","住所":"〒195-0072 東京都町田市金井７丁目１−３","ステータス":"APP_DISPLAY","region":"Machida","lat":35.573029,"lng":139.461609},{"店舗名":"黄金鶏町田金井店","住所":"〒195-0072 東京都町田市金井８丁目５−７","ステータス":"APP_DISPLAY","region":"Machida","lat":35.574921,"lng":139.468079},{"店舗名":"もつ鍋処 さくら","住所":"〒195-0074","ステータス":"APP_DISPLAY","region":"Machida","lat":35.576187,"lng":139.43544},{"店舗名":"MILLION style","住所":"〒195-0074 東京都町田市山崎町１１４４−２５","ステータス":"APP_DISPLAY","region":"Machida","lat":35.577305,"lng":139.442429},{"店舗名":"お弁当とお惣菜のお店 ポコちゃん","住所":"〒195-0074 東京都町田市山崎町２２００","ステータス":"APP_DISPLAY","region":"Machida","lat":35.572918,"lng":139.43161},{"店舗名":"【癒しのクレープ＆アサイー】studio Lepta","住所":"〒195-0074 東京都町田市山崎町2200番地","ステータス":"APP_DISPLAY","region":"Machida","lat":35.572918,"lng":139.43161},{"店舗名":"ケンタッキーフライドチキン 町田金井店","住所":"〒195-0076 東京都町田市金井ヶ丘４丁目４７−２７","ステータス":"APP_DISPLAY","region":"Machida","lat":35.581543,"lng":139.470261},{"店舗名":"YUMEN片瀬店","住所":"〒251-0032 神奈川県藤沢市片瀬４丁目１５−７","ステータス":"APP_DISPLAY","region":"Machida","lat":35.314995,"lng":139.485886},{"店舗名":"カフェ・ベローチェ 原町田四丁目店","住所":"東京都町田市","ステータス":"APP_DISPLAY","region":"Machida","lat":35.546604,"lng":139.438644},{"店舗名":"カレーハウス CoCo壱番屋 町田成瀬店","住所":"東京都町田市南成瀬四丁目1番1号","ステータス":"APP_DISPLAY","region":"Machida","lat":35.537354,"lng":139.47496}]