[{"店舗名":"Cafe Creare","住所":"〒762-0081 香川県丸亀市飯山町東坂元１４８−１０","ステータス":"RECEIPT","region":"Marugame","lat":34.270725,"lng":133.855042},{"店舗名":"SOCAL TERRACE","住所":"〒762-0082 香川県丸亀市飯山町川原","ステータス":"RECEIPT","region":"Marugame","lat":34.262756,"lng":133.863434},{"店舗名":"丸亀名代 鰻の三谷","住所":"〒763-0013 香川県丸亀市城東町","ステータス":"RECEIPT","region":"Marugame","lat":34.286823,"lng":133.806686},{"店舗名":"インドダイニングスクーン 丸亀店","住所":"〒763-0024 香川県丸亀市塩飽町１１−１","ステータス":"RECEIPT","region":"Marugame","lat":34.289902,"lng":133.79393},{"店舗名":"インドダイニング スクーン丸亀店","住所":"〒763-0024 香川県丸亀市塩飽町１１−１","ステータス":"RECEIPT","region":"Marugame","lat":34.289902,"lng":133.79393},{"店舗名":"お芋スイーツ専門店いもまる","住所":"〒763-0033","ステータス":"RECEIPT","region":"Marugame","lat":34.278133,"lng":133.797348},{"店舗名":"近江焼肉ホルモン すだく丸亀店","住所":"〒763-0043 香川県丸亀市通町５２−２","ステータス":"RECEIPT","region":"Marugame","lat":34.289959,"lng":133.796387},{"店舗名":"あさひ堂","住所":"〒763-0054","ステータス":"RECEIPT","region":"Marugame","lat":34.280567,"lng":133.772369},{"店舗名":"【ギフトにもおすすめ！抹茶ロール・上生菓子・水ようかん】あさひ堂 Asahido【丸亀市 中津町】","住所":"〒763-0054 香川県丸亀市中津町","ステータス":"RECEIPT","region":"Marugame","lat":34.280567,"lng":133.772369},{"店舗名":"あさひ堂","住所":"〒763-0054 香川県丸亀市中津町５０８","ステータス":"RECEIPT","region":"Marugame","lat":34.281033,"lng":133.772125},{"店舗名":"あさひ堂","住所":"〒763-0054 香川県丸亀市中津町５０８−４","ステータス":"RECEIPT","region":"Marugame","lat":34.281033,"lng":133.772125},{"店舗名":"インド料理RASOI 丸亀ゆめタウン店","住所":"〒763-0055 香川県丸亀市新田町１５０","ステータス":"RECEIPT","region":"Marugame","lat":34.273121,"lng":133.785736},{"店舗名":"インド料理 ラソイ ゆめタウン丸亀店 Indo ryōri rasoi Yumetaun Marugame-ten","住所":"〒763-0055 香川県丸亀市新田町１５０","ステータス":"RECEIPT","region":"Marugame","lat":34.273121,"lng":133.785736},{"店舗名":"ナマステ・ガネーシャ丸亀店","住所":"〒763-0071 香川県丸亀市田村町","ステータス":"RECEIPT","region":"Marugame","lat":34.26733,"lng":133.795547},{"店舗名":"スパイシー ダルバル","住所":"〒763-0071 香川県丸亀市田村町1780-1","ステータス":"RECEIPT","region":"Marugame","lat":34.275188,"lng":133.795197}]