[{"店舗名":"河鹿荘","住所":"〒562-0001 大阪府箕面市箕面１丁目４−３","ステータス":"APP_DISPLAY","region":"Minoh","lat":34.837337,"lng":135.468384},{"店舗名":"イタリアンカフェ Per Caffe Bianco（ペル カフェ ビアンコ）","住所":"〒562-0001 大阪府箕面市箕面１丁目８−１","ステータス":"APP_DISPLAY","region":"Minoh","lat":34.835606,"lng":135.468658},{"店舗名":"箕面山麓ファーム","住所":"〒562-0001 大阪府箕面市箕面５丁目１−４５","ステータス":"APP_DISPLAY","region":"Minoh","lat":34.833988,"lng":135.471085},{"店舗名":"フォレストガーデン","住所":"〒562-0001 大阪府箕面市箕面６丁目１０−２１","ステータス":"APP_DISPLAY","region":"Minoh","lat":34.833664,"lng":135.468018},{"店舗名":"わらびもち専門店　甘味処鎌倉  箕面店","住所":"〒562-0001 大阪府箕面市箕面６丁目１−２１","ステータス":"RECEIPT","region":"Minoh","lat":34.833233,"lng":135.469284},{"店舗名":"串カツ田中 箕面店","住所":"〒562-0001 大阪府箕面市箕面６丁目１−３０","ステータス":"APP_DISPLAY","region":"Minoh","lat":34.832634,"lng":135.468903},{"店舗名":"大盛スタミナ肉丼 ニンニク野郎 箕面店","住所":"〒562-0001 大阪府箕面市箕面６丁目１−３０","ステータス":"APP_DISPLAY","region":"Minoh","lat":34.832634,"lng":135.468903},{"店舗名":"手作りのこだわり洋食オムライス&弁当 【フェリーチェ】","住所":"〒562-0001 大阪府箕面市箕面６丁目１−３２−１０３","ステータス":"APP_DISPLAY","region":"Minoh","lat":34.832638,"lng":135.468674},{"店舗名":"魁羅洲","住所":"〒562-0001 大阪府箕面市箕面６丁目５−１","ステータス":"APP_DISPLAY","region":"Minoh","lat":34.832561,"lng":135.469254},{"店舗名":"Cafe Perche","住所":"〒562-0003 大阪府箕面市西小路１丁目８−１１","ステータス":"RECEIPT","region":"Minoh","lat":34.829685,"lng":135.466949},{"店舗名":"創作居酒屋 こころ","住所":"〒562-0003 大阪府箕面市西小路２丁目７−１６","ステータス":"APP_DISPLAY","region":"Minoh","lat":34.829193,"lng":135.470413},{"店舗名":"洋采舎SHINON","住所":"〒562-0003 大阪府箕面市西小路３丁目５−１３","ステータス":"APP_DISPLAY","region":"Minoh","lat":34.827698,"lng":135.474518},{"店舗名":"cafe de 10番 箕面市役所前","住所":"〒562-0003 大阪府箕面市西小路５丁目４−１５","ステータス":"APP_DISPLAY","region":"Minoh","lat":34.82605,"lng":135.469223},{"店舗名":"DONUTS DEPT","住所":"〒562-0004","ステータス":"APP_DISPLAY","region":"Minoh","lat":34.824425,"lng":135.469925},{"店舗名":"BURGER +CAFE DINING KOHAFU","住所":"〒562-0004 大阪府箕面市牧落","ステータス":"RECEIPT","region":"Minoh","lat":34.824425,"lng":135.469925},{"店舗名":"ケンタッキーフライドチキン 箕面店","住所":"〒562-0004 大阪府箕面市牧落１−７−３６","ステータス":"APP_DISPLAY","region":"Minoh","lat":34.825325,"lng":135.471405},{"店舗名":"希望軒 箕面店","住所":"〒562-0004 大阪府箕面市牧落1丁目19-3","ステータス":"APP_DISPLAY","region":"Minoh","lat":34.823978,"lng":135.471329},{"店舗名":"ラーメンまこと屋箕面牧落店","住所":"〒562-0004 大阪府箕面市牧落１丁目８−２ ポラーノみのお","ステータス":"APP_DISPLAY","region":"Minoh","lat":34.82407,"lng":135.471054},{"店舗名":"大分からあげ わん 箕面牧落ライフ前店","住所":"〒562-0004 大阪府箕面市牧落３丁目７−１８","ステータス":"APP_DISPLAY","region":"Minoh","lat":34.826214,"lng":135.474838},{"店舗名":"まんぷく唐揚げ本舗　鶏剛","住所":"〒562-0004 大阪府箕面市牧落４丁目６−８","ステータス":"RECEIPT","region":"Minoh","lat":34.82317,"lng":135.474457},{"店舗名":"SHIMAUMA BURGER/まんぷく唐揚げ本舗 鶏剛","住所":"〒562-0004 大阪府箕面市牧落４丁目６−８","ステータス":"APP_DISPLAY","region":"Minoh","lat":34.82317,"lng":135.474457},{"店舗名":"ドミノ・ピザ 箕面牧落店","住所":"〒562-0004 大阪府箕面市牧落５丁目１−１ 丸山ビル","ステータス":"APP_DISPLAY","region":"Minoh","lat":34.817928,"lng":135.467453},{"店舗名":"インド料理シムラン","住所":"〒562-0004 大阪府箕面市牧落５丁目５−２２","ステータス":"APP_DISPLAY","region":"Minoh","lat":34.82098,"lng":135.472168},{"店舗名":"Nayutaka","住所":"〒562-0012 大阪府箕面市白島２丁目２８−８","ステータス":"APP_DISPLAY","region":"Minoh","lat":34.838436,"lng":135.487808},{"店舗名":"スンドゥブ専門店 OKKII 箕面本店","住所":"〒562-0013","ステータス":"RECEIPT","region":"Minoh","lat":34.830456,"lng":135.478668},{"店舗名":"焼肉たむらみのおキューズモール店","住所":"〒562-0013 大阪府箕面市坊島４丁目５−２０ みのおキューズモール WEST 1F","ステータス":"APP_DISPLAY","region":"Minoh","lat":34.833187,"lng":135.488419},{"店舗名":"510 deli","住所":"〒562-0014","ステータス":"APP_DISPLAY","region":"Minoh","lat":34.830063,"lng":135.482269},{"店舗名":"吉野家 171号線箕面店","住所":"〒562-0014 大阪府箕面市萱野４丁目２−１７","ステータス":"APP_DISPLAY","region":"Minoh","lat":34.829475,"lng":135.486938},{"店舗名":"大起水産 回転寿司 箕面店","住所":"〒562-0014 大阪府箕面市萱野４丁目３ 箕面野口ビル","ステータス":"APP_DISPLAY","region":"Minoh","lat":34.829113,"lng":135.488113},{"店舗名":"MAZARDINER","住所":"〒562-0015 大阪府箕面市稲１丁目５−２４","ステータス":"APP_DISPLAY","region":"Minoh","lat":34.827686,"lng":135.478516},{"店舗名":"ほっかほっか亭 箕面粟生間谷店","住所":"〒562-0022 大阪府箕面市粟生間谷東１丁目３１−２０","ステータス":"APP_DISPLAY","region":"Minoh","lat":34.846069,"lng":135.515381},{"店舗名":"ドミノ・ピザ 彩都粟生間谷店","住所":"〒562-0023 大阪府箕面市粟生間谷西３丁目１６−２７ センス森","ステータス":"APP_DISPLAY","region":"Minoh","lat":34.846863,"lng":135.513245},{"店舗名":"ケンタッキーフライドチキン 小野原店","住所":"〒562-0024 大阪府箕面市粟生新家３丁目３−２９","ステータス":"APP_DISPLAY","region":"Minoh","lat":34.835899,"lng":135.514801},{"店舗名":"yuj","住所":"〒562-0025","ステータス":"APP_DISPLAY","region":"Minoh","lat":34.837776,"lng":135.505096},{"店舗名":"grow cafe","住所":"〒562-0027 大阪府箕面市石丸","ステータス":"APP_DISPLAY","region":"Minoh","lat":34.836365,"lng":135.496582},{"店舗名":"TRUFFLE DONUT 大阪箕面店","住所":"〒562-0031","ステータス":"APP_DISPLAY","region":"Minoh","lat":34.834835,"lng":135.51915},{"店舗名":"【家庭料理】すまいる smile","住所":"〒562-0031 大阪府箕面市小野原東３丁目８−２７","ステータス":"APP_DISPLAY","region":"Minoh","lat":34.830441,"lng":135.520767},{"店舗名":"INDIAN KITCHEN","住所":"〒562-0031 大阪府箕面市小野原東５丁目８−５１","ステータス":"APP_DISPLAY","region":"Minoh","lat":34.830002,"lng":135.519028},{"店舗名":"カフェオリーブ","住所":"〒562-0032","ステータス":"APP_DISPLAY","region":"Minoh","lat":34.834812,"lng":135.513306},{"店舗名":"茶葉専門店 ティーテラス チャッパ","住所":"〒562-0032 大阪府箕面市小野原西4丁目10-5","ステータス":"APP_DISPLAY","region":"Minoh","lat":34.829121,"lng":135.510162},{"店舗名":"ほっかほっか亭 箕面小野原店","住所":"〒562-0032 大阪府箕面市小野原西５丁目１２−８","ステータス":"APP_DISPLAY","region":"Minoh","lat":34.830933,"lng":135.515915},{"店舗名":"マダムシンコ 箕面本店","住所":"〒562-0033 大阪府箕面市今宮","ステータス":"APP_DISPLAY","region":"Minoh","lat":34.833782,"lng":135.496338},{"店舗名":"明洞食堂","住所":"〒562-0034","ステータス":"APP_DISPLAY","region":"Minoh","lat":34.832043,"lng":135.491394},{"店舗名":"串カツ田中 みのおキューズモール店","住所":"〒562-0034 大阪府箕面市西宿１丁目１４−４０","ステータス":"APP_DISPLAY","region":"Minoh","lat":34.831688,"lng":135.488998},{"店舗名":"大盛スタミナ肉丼 ニンニク野郎 みのおキューズモール店","住所":"〒562-0034 大阪府箕面市西宿１丁目１４−４０","ステータス":"APP_DISPLAY","region":"Minoh","lat":34.831688,"lng":135.488998},{"店舗名":"バーガーキング みのおキューズモール店","住所":"〒562-0034 大阪府箕面市西宿１丁目１４−４０","ステータス":"APP_DISPLAY","region":"Minoh","lat":34.831688,"lng":135.488998},{"店舗名":"大起水産 街のみなと みのおキューズモール店","住所":"〒562-0034 大阪府箕面市西宿１丁目１５−３０","ステータス":"APP_DISPLAY","region":"Minoh","lat":34.832684,"lng":135.489944},{"店舗名":"リンガーハット みのおキューズモール店","住所":"〒562-0034 大阪府箕面市西宿１丁目１５−３０","ステータス":"APP_DISPLAY","region":"Minoh","lat":34.832684,"lng":135.489944},{"店舗名":"Jill","住所":"〒562-0034 大阪府箕面市西宿１丁目１－７","ステータス":"APP_DISPLAY","region":"Minoh","lat":34.830654,"lng":135.490601},{"店舗名":"【バリスタ監修のドリンク】sweets museum SIZUN","住所":"〒562-0034 大阪府箕面市西宿１丁目３","ステータス":"APP_DISPLAY","region":"Minoh","lat":34.831219,"lng":135.489243},{"店舗名":"ピザハット 箕面西宿店","住所":"〒562-0034 大阪府箕面市西宿３丁目１６−１","ステータス":"APP_DISPLAY","region":"Minoh","lat":34.828121,"lng":135.496948},{"店舗名":"トスカーニパスタ 箕面西宿店","住所":"〒562-0034 大阪府箕面市西宿３丁目１６−１","ステータス":"APP_DISPLAY","region":"Minoh","lat":34.828121,"lng":135.496948},{"店舗名":"チキン・ウイングストリート 箕面西宿店","住所":"〒562-0034 大阪府箕面市西宿３丁目１６−１","ステータス":"APP_DISPLAY","region":"Minoh","lat":34.828121,"lng":135.496948},{"店舗名":"CAFE Rico","住所":"〒562-0035","ステータス":"APP_DISPLAY","region":"Minoh","lat":34.826721,"lng":135.491837},{"店舗名":"情熱食堂　箕面船場西店","住所":"〒562-0036 大阪府箕面市船場西２丁目２−１８","ステータス":"APP_DISPLAY","region":"Minoh","lat":34.819523,"lng":135.490555},{"店舗名":"ニックアンドレネイ箕面店","住所":"〒562-0041 大阪府箕面市桜１丁目１−１","ステータス":"APP_DISPLAY","region":"Minoh","lat":34.825527,"lng":135.466034},{"店舗名":"ホログラフ","住所":"〒562-0043","ステータス":"APP_DISPLAY","region":"Minoh","lat":34.818935,"lng":135.461731},{"店舗名":"ALOHA ANGEL CAFE","住所":"〒562-0043","ステータス":"APP_DISPLAY","region":"Minoh","lat":34.818935,"lng":135.461731},{"店舗名":"本格四川料理　中村屋","住所":"〒562-0043 大阪府箕面市桜井","ステータス":"APP_DISPLAY","region":"Minoh","lat":34.818935,"lng":135.461731},{"店舗名":"Gelateria89","住所":"〒562-0043 大阪府箕面市桜井２丁目","ステータス":"APP_DISPLAY","region":"Minoh","lat":34.816586,"lng":135.46225},{"店舗名":"大阪うどん いなの路 桜井店","住所":"〒562-0043 大阪府箕面市桜井２丁目１０−３８","ステータス":"APP_DISPLAY","region":"Minoh","lat":34.816154,"lng":135.461929},{"店舗名":"夜に芋スイーツ","住所":"〒562-0043 大阪府箕面市桜井２丁目１９−３２","ステータス":"APP_DISPLAY","region":"Minoh","lat":34.816418,"lng":135.46431},{"店舗名":"ハラミとローストビーフとごはん箕面店","住所":"〒562-0043 大阪府箕面市桜井２丁目２−２２ 桜井駅前ビル","ステータス":"APP_DISPLAY","region":"Minoh","lat":34.817032,"lng":135.460922},{"店舗名":"オム玉唐揚げ丼　鶏爛漫　箕面店","住所":"〒562-0043 大阪府箕面市桜井２丁目２−２２ 桜井駅前ビル","ステータス":"APP_DISPLAY","region":"Minoh","lat":34.817032,"lng":135.460922},{"店舗名":"ハラミとガリバタライス　ガリガリ君　箕面店","住所":"〒562-0043 大阪府箕面市桜井２丁目２−２２ 桜井駅前ビル","ステータス":"APP_DISPLAY","region":"Minoh","lat":34.817032,"lng":135.460922},{"店舗名":"やみつき手羽唐旨手羽家　箕面店","住所":"〒562-0043 大阪府箕面市桜井２丁目２−２２ 桜井駅前ビル","ステータス":"APP_DISPLAY","region":"Minoh","lat":34.817032,"lng":135.460922},{"店舗名":"アンローゼ","住所":"〒562-0043 大阪府箕面市桜井２丁目５−２","ステータス":"APP_DISPLAY","region":"Minoh","lat":34.816048,"lng":135.461868},{"店舗名":"Beef＆Pork Dinning PLUS358","住所":"〒562-0043 大阪府箕面市桜井２丁目５−４","ステータス":"RECEIPT","region":"Minoh","lat":34.815872,"lng":135.461868},{"店舗名":"Monkey Wrench","住所":"〒562-0043 大阪府箕面市桜井２丁目６−６","ステータス":"RECEIPT","region":"Minoh","lat":34.814785,"lng":135.461731},{"店舗名":"DILKHUS","住所":"〒562-0043 大阪府箕面市桜井３丁目１−１５","ステータス":"APP_DISPLAY","region":"Minoh","lat":34.814846,"lng":135.462097},{"店舗名":"かっぱ寿司 箕面店","住所":"〒562-0043 大阪府箕面市桜井３丁目８−９","ステータス":"APP_DISPLAY","region":"Minoh","lat":34.816174,"lng":135.464127},{"店舗名":"箕面山麓ファーム MISOKA店","住所":"〒562-0044 大阪府箕面市半町３丁目１４−１３","ステータス":"RECEIPT","region":"Minoh","lat":34.813522,"lng":135.458862},{"店舗名":"讃岐製麺 箕面半町店","住所":"〒562-0044 大阪府箕面市半町３丁目１４−２７","ステータス":"RECEIPT","region":"Minoh","lat":34.813019,"lng":135.457474},{"店舗名":"Nimto Indian Nepali Restaurant & Mart","住所":"〒562-0045 大阪府箕面市瀬川５丁目","ステータス":"APP_DISPLAY","region":"Minoh","lat":34.809406,"lng":135.451004},{"店舗名":"シフォンケーキ専門店 chicchi","住所":"箕面市箕面6丁目4-41","ステータス":"RECEIPT","region":"Minoh","lat":34.833294,"lng":135.46933},{"店舗名":"キッチン晴レ","住所":"箕面市箕面6丁目4-43","ステータス":"RECEIPT","region":"Minoh","lat":34.833477,"lng":135.469345},{"店舗名":"Bakery Liberté","住所":"箕面市牧落5丁目5-23","ステータス":"RECEIPT","region":"Minoh","lat":34.82098,"lng":135.472168},{"店舗名":"ダンケ箕面","住所":"箕面市外院3丁目1-19","ステータス":"RECEIPT","region":"Minoh","lat":34.841972,"lng":135.498093},{"店舗名":"DUPLICATE SOURCE STORE","住所":"大阪府箕面市牧落１−７−３６","ステータス":"RECEIPT","region":"Minoh","lat":34.825325,"lng":135.471405}]