[{"店舗名":"チャハリレストラン","住所":"〒470-0201","ステータス":"APP_DISPLAY","region":"Miyoshi","lat":35.136581,"lng":137.096069},{"店舗名":"Enjoy Cafe","住所":"〒470-0202 愛知県みよし市三好丘１丁目13−３","ステータス":"APP_DISPLAY","region":"Miyoshi","lat":35.127575,"lng":137.110779},{"店舗名":"デウラリ","住所":"〒470-0213  愛知県みよし市打越町新池浦８２−５","ステータス":"APP_DISPLAY","region":"Miyoshi","lat":35.095749,"lng":137.105713},{"店舗名":"デウラリ","住所":"〒470-0213 愛知県みよし市打越町新池浦８２−５","ステータス":"RECEIPT","region":"Miyoshi","lat":35.095749,"lng":137.105713},{"店舗名":"自家製麺　手もみラーメン　来楽軒。みよし店","住所":"〒470-0214 愛知県みよし市明知町宝栄１２−２","ステータス":"APP_DISPLAY","region":"Miyoshi","lat":35.080826,"lng":137.088257},{"店舗名":"インドネパール料理 RaRa みよし店","住所":"〒470-0224 愛知県みよし市三好町西田30番地4、30番地5、30番地6","ステータス":"APP_DISPLAY","region":"Miyoshi","lat":35.081833,"lng":137.059525},{"店舗名":"ピザハット 三好店","住所":"〒470-0224 愛知県みよし市三好町中島３１","ステータス":"APP_DISPLAY","region":"Miyoshi","lat":35.091015,"lng":137.078781},{"店舗名":"チキン・ウイングストリート 三好店","住所":"〒470-0224 愛知県みよし市三好町中島３１","ステータス":"APP_DISPLAY","region":"Miyoshi","lat":35.091015,"lng":137.078781},{"店舗名":"トスカーニパスタ 三好店","住所":"〒470-0224 愛知県みよし市三好町中島３１","ステータス":"APP_DISPLAY","region":"Miyoshi","lat":35.091015,"lng":137.078781},{"店舗名":"DEAR DEARアイモール三好店","住所":"〒470-0224 愛知県みよし市三好町青木８８","ステータス":"APP_DISPLAY","region":"Miyoshi","lat":35.092922,"lng":137.078735},{"店舗名":"中国料理　九龍居　みよし店","住所":"〒470-0231 愛知県みよし市黒笹１丁目４−６","ステータス":"APP_DISPLAY","region":"Miyoshi","lat":35.1264,"lng":137.090607}]