[{"店舗名":"MUGAL MAHAL","住所":"〒570-0002","ステータス":"APP_DISPLAY","region":"Moriguchi","lat":34.756748,"lng":135.580994},{"店舗名":"ら～めん夢屋台 守口店","住所":"〒570-0002 大阪府守口市佐太中町３丁目１−１","ステータス":"RECEIPT","region":"Moriguchi","lat":34.754444,"lng":135.583466},{"店舗名":"鳥家　三吉　大日店","住所":"〒570-0003","ステータス":"RECEIPT","region":"Moriguchi","lat":34.751183,"lng":135.575928},{"店舗名":"ピザ小屋 tutti","住所":"〒570-0003 大阪府守口市大日町３丁目","ステータス":"APP_DISPLAY","region":"Moriguchi","lat":34.753284,"lng":135.581543},{"店舗名":"くれーぷくれーぷ","住所":"〒570-0005 大阪府守口市八雲中町１丁目１５−７","ステータス":"APP_DISPLAY","region":"Moriguchi","lat":34.743313,"lng":135.566605},{"店舗名":"グリークリー","住所":"〒570-0005 大阪府守口市八雲中町１丁目１５−７","ステータス":"APP_DISPLAY","region":"Moriguchi","lat":34.743313,"lng":135.566605},{"店舗名":"【フルーツたっぷりアサイーボウル】ワイキキ・ボウルズ 守口八雲中町店","住所":"〒570-0005 大阪府守口市八雲中町１丁目１５−７","ステータス":"APP_DISPLAY","region":"Moriguchi","lat":34.743313,"lng":135.566605},{"店舗名":"㈱芦田製作所 カレー事業部 守口店","住所":"〒570-0005 大阪府守口市八雲中町１丁目３−１０ コーポ守口","ステータス":"APP_DISPLAY","region":"Moriguchi","lat":34.74242,"lng":135.569092},{"店舗名":"から揚げ専門店 やま笑","住所":"〒570-0006 大阪府守口市八雲西町２丁目","ステータス":"APP_DISPLAY","region":"Moriguchi","lat":34.745316,"lng":135.565979},{"店舗名":"Yak i_Imo SONOTA","住所":"〒570-0006 大阪府守口市八雲西町２丁目１０−８","ステータス":"APP_DISPLAY","region":"Moriguchi","lat":34.745411,"lng":135.565781},{"店舗名":"インドネパールカレー　ジャラナ","住所":"〒570-0006 大阪府守口市八雲西町４丁目１２−４","ステータス":"APP_DISPLAY","region":"Moriguchi","lat":34.74852,"lng":135.566818},{"店舗名":"粉もん やまと","住所":"〒570-0011 大阪府守口市金田町","ステータス":"APP_DISPLAY","region":"Moriguchi","lat":34.753807,"lng":135.590714},{"店舗名":"ひまわり","住所":"〒570-0011 大阪府守口市金田町","ステータス":"RECEIPT","region":"Moriguchi","lat":34.753807,"lng":135.590714},{"店舗名":"【メガ盛り‼】1キロ弁当工房肉MAX!!大盛りからあげお弁当 守口市金田町店","住所":"〒570-0011 大阪府守口市金田町１丁目１８−１１","ステータス":"RECEIPT","region":"Moriguchi","lat":34.752552,"lng":135.591431},{"店舗名":"【サクッと爆上げ!!爆盛鶏唐丼】唐揚げ商店鳥一ミート 守口市金田町店","住所":"〒570-0011 大阪府守口市金田町１丁目１８−１１","ステータス":"RECEIPT","region":"Moriguchi","lat":34.752552,"lng":135.591431},{"店舗名":"【二郎系チャーシュー&唐揚げ丼】豚エース 守口市金田町店","住所":"〒570-0011 大阪府守口市金田町１丁目１８−１１","ステータス":"RECEIPT","region":"Moriguchi","lat":34.752552,"lng":135.591431},{"店舗名":"淡路屋","住所":"〒570-0011 大阪府守口市金田町１丁目５６−１１","ステータス":"APP_DISPLAY","region":"Moriguchi","lat":34.755199,"lng":135.592224},{"店舗名":"ドミノ・ピザ 守口金田店","住所":"〒570-0011 大阪府守口市金田町２丁目３−１６","ステータス":"APP_DISPLAY","region":"Moriguchi","lat":34.75563,"lng":135.590729},{"店舗名":"長崎ちゃんぽん とまと 守口大久保店","住所":"〒570-0012 大阪府守口市大久保町５丁目５３−１３","ステータス":"APP_DISPLAY","region":"Moriguchi","lat":34.753712,"lng":135.603546},{"店舗名":"Peach","住所":"〒570-0014","ステータス":"APP_DISPLAY","region":"Moriguchi","lat":34.747822,"lng":135.594543},{"店舗名":"母の味　アゲイン　守口藤田町店","住所":"〒570-0014","ステータス":"APP_DISPLAY","region":"Moriguchi","lat":34.747822,"lng":135.594543},{"店舗名":"鉄板居酒屋 繭〜まゆ〜","住所":"〒570-0014 大阪府守口市藤田町１丁目１５−９","ステータス":"RECEIPT","region":"Moriguchi","lat":34.747505,"lng":135.595367},{"店舗名":"インドネパール料理SAKURA","住所":"〒570-0014 大阪府守口市藤田町１丁目４３−１５","ステータス":"APP_DISPLAY","region":"Moriguchi","lat":34.748569,"lng":135.596039},{"店舗名":"(宅配専門店)ゴーゴーカレー 守口藤田町店","住所":"〒570-0014 大阪府守口市藤田町１丁目４３−１５","ステータス":"APP_DISPLAY","region":"Moriguchi","lat":34.748569,"lng":135.596039},{"店舗名":"Asian Foods Saathi","住所":"〒570-0014 大阪府守口市藤田町４丁目１−１７","ステータス":"APP_DISPLAY","region":"Moriguchi","lat":34.747799,"lng":135.59964},{"店舗名":"Booちゃんのカラアゲ","住所":"〒570-0014 大阪府守口市藤田町５丁目６−５","ステータス":"APP_DISPLAY","region":"Moriguchi","lat":34.746101,"lng":135.602631},{"店舗名":"名もなき店(仮)","住所":"〒570-0014 大阪府守口市藤田町５丁目７−６","ステータス":"APP_DISPLAY","region":"Moriguchi","lat":34.746189,"lng":135.602692},{"店舗名":"Kitchen MARIMO","住所":"〒570-0015 大阪府守口市梶町３丁目３３−５","ステータス":"APP_DISPLAY","region":"Moriguchi","lat":34.748779,"lng":135.593231},{"店舗名":"お弁当も絶品！ハルヒのサンドイッチ","住所":"〒570-0016","ステータス":"APP_DISPLAY","region":"Moriguchi","lat":34.749622,"lng":135.581345},{"店舗名":"Rcafe.","住所":"〒570-0016 大阪府守口市大日東町","ステータス":"RECEIPT","region":"Moriguchi","lat":34.749622,"lng":135.581345},{"店舗名":"ケンタッキーフライドチキン イオンモール大日店","住所":"〒570-0016 大阪府守口市大日東町１００−１","ステータス":"APP_DISPLAY","region":"Moriguchi","lat":34.749622,"lng":135.581345},{"店舗名":"ハルヒのサンドイッチ","住所":"〒570-0016 大阪府守口市大日東町３０−３１","ステータス":"RECEIPT","region":"Moriguchi","lat":34.750751,"lng":135.58255},{"店舗名":"からあげ専門店 鶏笑 守口大日店","住所":"〒570-0017 大阪府守口市佐太東町１丁目３８−９","ステータス":"APP_DISPLAY","region":"Moriguchi","lat":34.755711,"lng":135.586548},{"店舗名":"TRATTORIA WAGAYA","住所":"〒570-0021 大阪府守口市八雲東町","ステータス":"RECEIPT","region":"Moriguchi","lat":34.743572,"lng":135.573624},{"店舗名":"和風居酒屋在所","住所":"〒570-0021 大阪府守口市八雲東町２丁目５８−１６","ステータス":"APP_DISPLAY","region":"Moriguchi","lat":34.744484,"lng":135.576309},{"店舗名":"ナマステタージマハル 守口大日駅前店","住所":"〒570-0021 大阪府守口市八雲東町２丁目８２−４０","ステータス":"APP_DISPLAY","region":"Moriguchi","lat":34.747814,"lng":135.578781},{"店舗名":"ごはんやさん ぶた介","住所":"〒570-0027 大阪府守口市桜町６−１０","ステータス":"APP_DISPLAY","region":"Moriguchi","lat":34.736137,"lng":135.565781},{"店舗名":"こだわり肉酒場 ななハチ商店 守口市駅前店","住所":"〒570-0028","ステータス":"APP_DISPLAY","region":"Moriguchi","lat":34.735157,"lng":135.563782},{"店舗名":"高級焼肉の丼店","住所":"〒570-0028 大阪府守口市本町","ステータス":"APP_DISPLAY","region":"Moriguchi","lat":34.735157,"lng":135.563782},{"店舗名":"炉端焼き 一新 守口","住所":"〒570-0028 大阪府守口市本町1丁目3-10","ステータス":"RECEIPT","region":"Moriguchi","lat":34.735195,"lng":135.564224},{"店舗名":"居酒屋もきち","住所":"〒570-0028 大阪府守口市本町1丁目8-24","ステータス":"APP_DISPLAY","region":"Moriguchi","lat":34.735126,"lng":135.562851},{"店舗名":"STAR TAJMAHAL EVEREST","住所":"〒570-0032 大阪府守口市菊水通３丁目１５−１","ステータス":"APP_DISPLAY","region":"Moriguchi","lat":34.728928,"lng":135.577972},{"店舗名":"スタータジマハルエベレスト守口","住所":"〒570-0032 大阪府守口市菊水通３丁目１５−１","ステータス":"APP_DISPLAY","region":"Moriguchi","lat":34.728928,"lng":135.577972},{"店舗名":"ほっかほっか亭 西郷通店","住所":"〒570-0034 大阪府守口市西郷通２丁目１１−１８","ステータス":"APP_DISPLAY","region":"Moriguchi","lat":34.730614,"lng":135.573669},{"店舗名":"アサイーボール/ペゴパ","住所":"〒570-0034 大阪府守口市西郷通２丁目１１−１８","ステータス":"APP_DISPLAY","region":"Moriguchi","lat":34.730614,"lng":135.573669},{"店舗名":"forest pine one round","住所":"〒570-0035","ステータス":"APP_DISPLAY","region":"Moriguchi","lat":34.732529,"lng":135.570328},{"店舗名":"こだわり焼肉侑","住所":"〒570-0036 大阪府守口市大枝東町13-6","ステータス":"APP_DISPLAY","region":"Moriguchi","lat":34.734119,"lng":135.567886},{"店舗名":"CURRY KING INDIAN Nepali Restaurant カレーキングインドネパールレストラン","住所":"〒570-0036 大阪府守口市大枝東町２−１０","ステータス":"APP_DISPLAY","region":"Moriguchi","lat":34.7351,"lng":135.568909},{"店舗名":"中国料理 李瞬","住所":"〒570-0036 大阪府守口市大枝東町２−３","ステータス":"APP_DISPLAY","region":"Moriguchi","lat":34.735195,"lng":135.568283},{"店舗名":"彩菜美酒 さくらこ","住所":"〒570-0037","ステータス":"APP_DISPLAY","region":"Moriguchi","lat":34.733311,"lng":135.566589},{"店舗名":"焼肉たじま","住所":"〒570-0038","ステータス":"RECEIPT","region":"Moriguchi","lat":34.735619,"lng":135.567032},{"店舗名":"ビリーのオリーブらーめん","住所":"〒570-0038","ステータス":"APP_DISPLAY","region":"Moriguchi","lat":34.735619,"lng":135.567032},{"店舗名":"自家焙煎珈琲の店 Aroma & Calm Dorado 京阪守口市駅店","住所":"〒570-0038","ステータス":"RECEIPT","region":"Moriguchi","lat":34.735619,"lng":135.567032},{"店舗名":"ガーデンコーヒー","住所":"〒570-0038","ステータス":"RECEIPT","region":"Moriguchi","lat":34.735619,"lng":135.567032},{"店舗名":"Aroma & Calm Dorado","住所":"〒570-0038 大阪府守口市河原町１−１","ステータス":"APP_DISPLAY","region":"Moriguchi","lat":34.735836,"lng":135.566147},{"店舗名":"鮨 おくうら 京阪守口市駅店","住所":"〒570-0038 大阪府守口市河原町１−１３","ステータス":"APP_DISPLAY","region":"Moriguchi","lat":34.735691,"lng":135.565353},{"店舗名":"まぐろ丼と海鮮丼 近衛 京阪守口市駅店","住所":"〒570-0038 大阪府守口市河原町１−１３","ステータス":"APP_DISPLAY","region":"Moriguchi","lat":34.735691,"lng":135.565353},{"店舗名":"大盛海鮮天丼マウンテン 京阪守口市駅店","住所":"〒570-0038 大阪府守口市河原町１−１３","ステータス":"APP_DISPLAY","region":"Moriguchi","lat":34.735691,"lng":135.565353},{"店舗名":"鮨 酒 肴 杉玉 京阪守口市駅店","住所":"〒570-0038 大阪府守口市河原町１−１３","ステータス":"APP_DISPLAY","region":"Moriguchi","lat":34.735691,"lng":135.565353},{"店舗名":"鮨 よし田 京阪守口市駅店","住所":"〒570-0038 大阪府守口市河原町１−１３ エル守口","ステータス":"APP_DISPLAY","region":"Moriguchi","lat":34.735691,"lng":135.565353},{"店舗名":"ほっかほっか亭 守口市駅東店","住所":"〒570-0039 大阪府守口市橋波西之町３丁目１−２","ステータス":"APP_DISPLAY","region":"Moriguchi","lat":34.735146,"lng":135.569244},{"店舗名":"親子カフェ コノイロハ","住所":"〒570-0043 大阪府守口市南寺方東通","ステータス":"APP_DISPLAY","region":"Moriguchi","lat":34.717464,"lng":135.570618},{"店舗名":"ほっかほっか亭 南寺方店","住所":"〒570-0044 大阪府守口市南寺方南通２丁目６−１３","ステータス":"APP_DISPLAY","region":"Moriguchi","lat":34.720509,"lng":135.57074},{"店舗名":"ピザハット 守口店","住所":"〒570-0044 大阪府守口市南寺方南通２丁目６−１３ メゾン・フルール","ステータス":"APP_DISPLAY","region":"Moriguchi","lat":34.720509,"lng":135.57074},{"店舗名":"チキン・ウイングストリート 守口店","住所":"〒570-0044 大阪府守口市南寺方南通２丁目６−１３ メゾン・フルール","ステータス":"APP_DISPLAY","region":"Moriguchi","lat":34.720509,"lng":135.57074},{"店舗名":"トスカーニパスタ 守口店","住所":"〒570-0044 大阪府守口市南寺方南通２丁目６−１３ メゾン・フルール","ステータス":"APP_DISPLAY","region":"Moriguchi","lat":34.720509,"lng":135.57074},{"店舗名":"鉄板焼縁","住所":"〒570-0051 大阪府守口市大枝南町１８−１０","ステータス":"APP_DISPLAY","region":"Moriguchi","lat":34.730053,"lng":135.566971},{"店舗名":"Saku-Cafe","住所":"〒570-0053 大阪府守口市高瀬町５丁目","ステータス":"APP_DISPLAY","region":"Moriguchi","lat":34.72496,"lng":135.564743},{"店舗名":"味萬麻辣湯","住所":"〒570-0056","ステータス":"APP_DISPLAY","region":"Moriguchi","lat":34.732887,"lng":135.563599},{"店舗名":"ビリヤニの家ハラールレストラン House Of Biryani Halal Restaurant","住所":"〒570-0056 大阪府守口市寺内町２丁目７−５","ステータス":"APP_DISPLAY","region":"Moriguchi","lat":34.734421,"lng":135.565277},{"店舗名":"ひみつきち","住所":"〒570-0056 大阪府守口市寺内町２丁目９−３３","ステータス":"APP_DISPLAY","region":"Moriguchi","lat":34.733818,"lng":135.565384},{"店舗名":"bistro bar two K","住所":"〒570-0056 大阪府守口市寺内町２丁目９−３６","ステータス":"APP_DISPLAY","region":"Moriguchi","lat":34.734024,"lng":135.56546},{"店舗名":"Peco.","住所":"〒570-0066 大阪府守口市梅園町１−６","ステータス":"APP_DISPLAY","region":"Moriguchi","lat":34.730541,"lng":135.560867},{"店舗名":"サラダチキン研究所 土居店","住所":"〒570-0066 大阪府守口市梅園町２－３１","ステータス":"APP_DISPLAY","region":"Moriguchi","lat":34.730572,"lng":135.56015},{"店舗名":"アルパカティー Alpaca Tea","住所":"〒570-0066 大阪府守口市梅園町２−３１","ステータス":"APP_DISPLAY","region":"Moriguchi","lat":34.730572,"lng":135.56015},{"店舗名":"台湾クレープ専門店 台湾手抓饼","住所":"〒570-0066 大阪府守口市梅園町２−３１","ステータス":"APP_DISPLAY","region":"Moriguchi","lat":34.730572,"lng":135.56015},{"店舗名":"星色","住所":"〒570-0072 大阪府守口市早苗町２−９","ステータス":"APP_DISPLAY","region":"Moriguchi","lat":34.734047,"lng":135.56337},{"店舗名":"KEBAB＆BAR~ケバブ居酒屋~ ケバル","住所":"〒570-0073 大阪府守口市土居町３−５","ステータス":"APP_DISPLAY","region":"Moriguchi","lat":34.731625,"lng":135.559067},{"店舗名":"相撲茶屋 琴櫻","住所":"〒570-0078 大阪府守口市平代町５−９","ステータス":"APP_DISPLAY","region":"Moriguchi","lat":34.730782,"lng":135.557831},{"店舗名":"創 丸福","住所":"〒570-0079 大阪府守口市金下町１丁目４−５","ステータス":"APP_DISPLAY","region":"Moriguchi","lat":34.731709,"lng":135.557816},{"店舗名":"Bros. burger","住所":"〒570-0081","ステータス":"APP_DISPLAY","region":"Moriguchi","lat":34.731548,"lng":135.556854},{"店舗名":"炭火焼鳥かわ","住所":"〒570-0081 大阪府守口市日吉町２丁目３−６","ステータス":"APP_DISPLAY","region":"Moriguchi","lat":34.736828,"lng":135.563766},{"店舗名":"オンマ食堂","住所":"〒570-0082 大阪府守口市豊秀町１丁目２−１","ステータス":"RECEIPT","region":"Moriguchi","lat":34.732716,"lng":135.557999},{"店舗名":"1000円パスタ　豊秀ワンコインバルsimple","住所":"〒570-0082 大阪府守口市豊秀町１丁目５−８","ステータス":"APP_DISPLAY","region":"Moriguchi","lat":34.731907,"lng":135.556519},{"店舗名":"豆富ドーナツ えいど","住所":"〒570-0083 大阪府守口市京阪本通１丁目３−１４","ステータス":"RECEIPT","region":"Moriguchi","lat":34.732433,"lng":135.556717},{"店舗名":"ディープスリー インド・ネパールカレー","住所":"〒570-0083 大阪府守口市京阪本通１丁目４−８","ステータス":"APP_DISPLAY","region":"Moriguchi","lat":34.731312,"lng":135.555069},{"店舗名":"吉野家 守口駅前店","住所":"〒570-0083 大阪府守口市京阪本通２丁目１５−１３","ステータス":"APP_DISPLAY","region":"Moriguchi","lat":34.737995,"lng":135.563248},{"店舗名":"シナモン","住所":"〒570-0083 大阪府守口市京阪本通２丁目１６−２１ 寺田ビル 1f","ステータス":"APP_DISPLAY","region":"Moriguchi","lat":34.738865,"lng":135.56456},{"店舗名":"ケンタッキーフライドチキン イオンタウン守口店","住所":"〒570-0083 大阪府守口市京阪本通２丁目２−４","ステータス":"APP_DISPLAY","region":"Moriguchi","lat":34.737862,"lng":135.563629},{"店舗名":"たこ焼 あほや 守口八島店","住所":"〒570-0095 大阪府守口市八島町２−８","ステータス":"RECEIPT","region":"Moriguchi","lat":34.739571,"lng":135.565384},{"店舗名":"豚美味囲家とん亭","住所":"大阪府守口市","ステータス":"APP_DISPLAY","region":"Moriguchi","lat":34.735828,"lng":135.561676},{"店舗名":"台湾料理 錦春","住所":"守口市京阪本通1丁目1-6","ステータス":"RECEIPT","region":"Moriguchi","lat":34.733315,"lng":135.557831},{"店舗名":"SLÖW COFFEE","住所":"守口市東光町2丁目5-2","ステータス":"APP_DISPLAY","region":"Moriguchi","lat":34.732754,"lng":135.568787},{"店舗名":"笑び食堂","住所":"守口市本町1丁目7-10","ステータス":"APP_DISPLAY","region":"Moriguchi","lat":34.734493,"lng":135.562683},{"店舗名":"呑み処 五臓ろっぷ","住所":"守口市寺内町2丁目9-26-102","ステータス":"APP_DISPLAY","region":"Moriguchi","lat":34.733284,"lng":135.565018},{"店舗名":"韓美軒 ハンミチェ","住所":"守口市松町2-12","ステータス":"APP_DISPLAY","region":"Moriguchi","lat":34.738621,"lng":135.563721},{"店舗名":"炙りや 和-bistro ふじ","住所":"守口市土居町2-13","ステータス":"APP_DISPLAY","region":"Moriguchi","lat":34.731861,"lng":135.559402},{"店舗名":"⑭芦田製作所 カレー事業部 守口店","住所":"〒570-0005 大阪府守口市八雲中町１丁目３－１０ コーポ守口","ステータス":"APP_DISPLAY","region":"Moriguchi","lat":34.74242,"lng":135.569092},{"店舗名":"【メガ盛り_】1キロ弁当工房肉MAX!!大盛りからあげお弁当 守口市金田町店","住所":"〒570-0011 大阪府守口市金田町１丁目１８－１１","ステータス":"RECEIPT","region":"Moriguchi","lat":34.752552,"lng":135.591431},{"店舗名":"鉄板居酒屋 繭～まゆ～","住所":"〒570-0014 大阪府守口市藤田町１丁目１５－９","ステータス":"RECEIPT","region":"Moriguchi","lat":34.747505,"lng":135.595367}]