[{"店舗名":"cafe ご飯 use","住所":"〒020-0011 岩手県盛岡市三ツ割４丁目５−２４","ステータス":"RECEIPT","region":"Morioka","lat":39.729702,"lng":141.159515},{"店舗名":"cafe three...+ー","住所":"〒020-0015","ステータス":"RECEIPT","region":"Morioka","lat":39.706467,"lng":141.154633},{"店舗名":"あいすくりん大通店","住所":"〒020-0021 岩手県盛岡市中央通","ステータス":"RECEIPT","region":"Morioka","lat":39.704884,"lng":141.148941},{"店舗名":"Sauce of the Dragon","住所":"〒020-0021 岩手県盛岡市中央通1-9-11","ステータス":"RECEIPT","region":"Morioka","lat":39.703999,"lng":141.147644},{"店舗名":"ロブフォートンズ盛岡店","住所":"〒020-0021 岩手県盛岡市中央通１丁目","ステータス":"RECEIPT","region":"Morioka","lat":39.704884,"lng":141.148941},{"店舗名":"じゃじゃめん家 羽琉 シネマ横丁店","住所":"〒020-0021 岩手県盛岡市中央通１丁目１１−２１","ステータス":"RECEIPT","region":"Morioka","lat":39.703976,"lng":141.147461},{"店舗名":"お酒と飯たしなみ","住所":"〒020-0021 岩手県盛岡市中央通１丁目１１−７ 笹川ビル １F","ステータス":"RECEIPT","region":"Morioka","lat":39.704281,"lng":141.146912},{"店舗名":"STREET BURGER","住所":"〒020-0021 岩手県盛岡市中央通１丁目１２−３","ステータス":"RECEIPT","region":"Morioka","lat":39.704697,"lng":141.14743},{"店舗名":"【人気急上昇中】インドカレー ヒマラヤの風","住所":"〒020-0021 岩手県盛岡市中央通１丁目６−２６","ステータス":"RECEIPT","region":"Morioka","lat":39.705776,"lng":141.148239},{"店舗名":"fuku.","住所":"〒020-0021 岩手県盛岡市中央通１丁目７−１３","ステータス":"RECEIPT","region":"Morioka","lat":39.703365,"lng":141.148331},{"店舗名":"【ヘルシーアサイーボウル】 ＧＯＯＤスムージー 盛岡店/Acai Bowls and Smoothies","住所":"〒020-0021 岩手県盛岡市中央通１丁目９−１１","ステータス":"RECEIPT","region":"Morioka","lat":39.703999,"lng":141.147644},{"店舗名":"【グリークヨーグルト】GREEK DAYS JAPAN 盛岡店/GREEKYOGURUTO GREEKDAYS JAPAN","住所":"〒020-0021 岩手県盛岡市中央通１丁目９−１１","ステータス":"RECEIPT","region":"Morioka","lat":39.703999,"lng":141.147644},{"店舗名":"【砂糖と氷を使わない】フレッシュスムージー TOKYO 盛岡店/FURESSHUSUMUJITOKYO","住所":"〒020-0021 岩手県盛岡市中央通１丁目９−１１","ステータス":"RECEIPT","region":"Morioka","lat":39.703999,"lng":141.147644},{"店舗名":"讃岐うどん 山田家 盛岡店/SANUKIUDON YAMADAYA","住所":"〒020-0021 岩手県盛岡市中央通１丁目９−１１","ステータス":"RECEIPT","region":"Morioka","lat":39.703999,"lng":141.147644},{"店舗名":"戸隠そば 茶屋うずら 盛岡店/TOGAKUSHISOBA CHAYAUZURA","住所":"〒020-0021 岩手県盛岡市中央通１丁目９−１１","ステータス":"RECEIPT","region":"Morioka","lat":39.703999,"lng":141.147644},{"店舗名":"ES.STRAWBERRY","住所":"〒020-0021 岩手県盛岡市中央通１丁目９−１１ サンタフェビル","ステータス":"RECEIPT","region":"Morioka","lat":39.703999,"lng":141.147644},{"店舗名":"台湾黒糖タピオカ 黒珠 盛岡店","住所":"〒020-0021 岩手県盛岡市中央通１丁目９−１１ サンタフェビル","ステータス":"RECEIPT","region":"Morioka","lat":39.703999,"lng":141.147644},{"店舗名":"牛たん榊原","住所":"〒020-0022","ステータス":"RECEIPT","region":"Morioka","lat":39.702454,"lng":141.148605},{"店舗名":"じとっこ組合　盛岡店","住所":"〒020-0022","ステータス":"RECEIPT","region":"Morioka","lat":39.702454,"lng":141.148605},{"店舗名":"Bar-Bacchus","住所":"〒020-0022 岩手県盛岡市大通","ステータス":"RECEIPT","region":"Morioka","lat":39.702454,"lng":141.148605},{"店舗名":"洋風酒場 コムソワ","住所":"〒020-0022 岩手県盛岡市大通１丁目４−５ b1f","ステータス":"RECEIPT","region":"Morioka","lat":39.701965,"lng":141.14917},{"店舗名":"海老バル Shrimp Bar & Grill","住所":"〒020-0022 岩手県盛岡市大通１丁目６−１６","ステータス":"RECEIPT","region":"Morioka","lat":39.702579,"lng":141.148788},{"店舗名":"Crystal Fruits","住所":"〒020-0022 岩手県盛岡市大通１丁目９−５","ステータス":"RECEIPT","region":"Morioka","lat":39.702911,"lng":141.147766},{"店舗名":"柳家 総本店","住所":"〒020-0022 岩手県盛岡市大通２丁目１−２３ サンクイーンビル","ステータス":"RECEIPT","region":"Morioka","lat":39.702553,"lng":141.146545},{"店舗名":"韓国料理 孫家","住所":"〒020-0022 岩手県盛岡市大通２丁目１−４","ステータス":"RECEIPT","region":"Morioka","lat":39.702374,"lng":141.146439},{"店舗名":"深夜めし食堂　背徳メシ研究所　盛岡店","住所":"〒020-0022 岩手県盛岡市大通２丁目５−１０","ステータス":"RECEIPT","region":"Morioka","lat":39.703857,"lng":141.145325},{"店舗名":"ニルヴァーナ 大通本店","住所":"〒020-0022 岩手県盛岡市大通２丁目７−２２ 小原ビル 2Ｆ","ステータス":"RECEIPT","region":"Morioka","lat":39.703259,"lng":141.145508},{"店舗名":"the magic whip","住所":"〒020-0022 岩手県盛岡市大通３丁目２−３","ステータス":"RECEIPT","region":"Morioka","lat":39.703545,"lng":141.144424},{"店舗名":"鳥やす(マルマルさん)","住所":"〒020-0022 岩手県盛岡市菜園２丁目４−１１ 菜園ヴィレッジ 1F","ステータス":"RECEIPT","region":"Morioka","lat":39.702263,"lng":141.145981},{"店舗名":"まるまるさん","住所":"〒020-0022 岩手県盛岡市菜園２丁目４−１１ 菜園ヴィレッジ 1F","ステータス":"RECEIPT","region":"Morioka","lat":39.702263,"lng":141.145981},{"店舗名":"【本格インド・ケバブ・タイ料理店】アジアの台所 Asia no Daidokoro","住所":"〒020-0023 岩手県盛岡市内丸16番15号","ステータス":"RECEIPT","region":"Morioka","lat":39.704453,"lng":141.15416},{"店舗名":"【本格からあげ専門店】おばばのからあげ Obaba’s Karaage","住所":"〒020-0023 岩手県盛岡市内丸１７−４０","ステータス":"RECEIPT","region":"Morioka","lat":39.704258,"lng":141.153854},{"店舗名":"小料理 湯葉","住所":"〒020-0023 岩手県盛岡市内丸４−１８","ステータス":"RECEIPT","region":"Morioka","lat":39.701889,"lng":141.152557},{"店舗名":"味の俺やで雅や","住所":"〒020-0026","ステータス":"RECEIPT","region":"Morioka","lat":39.701996,"lng":141.142838},{"店舗名":"Meat & Bar 酔月","住所":"〒020-0033 岩手県盛岡市盛岡駅前北通４−１６","ステータス":"RECEIPT","region":"Morioka","lat":39.703835,"lng":141.13533},{"店舗名":"大阪王将 盛岡駅フェザン店","住所":"〒020-0034 岩手県盛岡市盛岡駅前通1-44","ステータス":"RECEIPT","region":"Morioka","lat":39.696392,"lng":141.139297},{"店舗名":"ラーメンビリー盛岡フェザン店","住所":"〒020-0034 岩手県盛岡市盛岡駅前通１−４４","ステータス":"RECEIPT","region":"Morioka","lat":39.696392,"lng":141.139297},{"店舗名":"南部ビストロ　うんめのす","住所":"〒020-0034 岩手県盛岡市盛岡駅前通１−４４","ステータス":"RECEIPT","region":"Morioka","lat":39.696392,"lng":141.139297},{"店舗名":"らーめん おっぺしゃん 盛岡駅前店","住所":"〒020-0034 岩手県盛岡市盛岡駅前通８−１３","ステータス":"RECEIPT","region":"Morioka","lat":39.701794,"lng":141.138077},{"店舗名":"La Cosecha","住所":"〒020-0045","ステータス":"RECEIPT","region":"Morioka","lat":39.702145,"lng":141.131683},{"店舗名":"スープカレーハウスしっぽ盛岡店","住所":"〒020-0062","ステータス":"RECEIPT","region":"Morioka","lat":39.708256,"lng":141.140274},{"店舗名":"KUMARI　盛岡店","住所":"〒020-0063 岩手県盛岡市材木町","ステータス":"RECEIPT","region":"Morioka","lat":39.707195,"lng":141.137558},{"店舗名":"ごはん家あっちゃん","住所":"〒020-0066","ステータス":"RECEIPT","region":"Morioka","lat":39.712486,"lng":141.144913},{"店舗名":"じゃじゃめん家 羽琉 本店","住所":"〒020-0066","ステータス":"RECEIPT","region":"Morioka","lat":39.712486,"lng":141.144913},{"店舗名":"三獅舞","住所":"〒020-0066 岩手県盛岡市上田１丁目１０−１０","ステータス":"RECEIPT","region":"Morioka","lat":39.712055,"lng":141.143387},{"店舗名":"中華料理　八仙閣","住所":"〒020-0066 岩手県盛岡市上田４丁目２１−１ 中国料理八仙閣","ステータス":"RECEIPT","region":"Morioka","lat":39.720844,"lng":141.13826},{"店舗名":"踊ろうサンダーバード","住所":"〒020-0115 岩手県盛岡市館向町３−６","ステータス":"RECEIPT","region":"Morioka","lat":39.716972,"lng":141.131439},{"店舗名":"翠彩","住所":"〒020-0117","ステータス":"RECEIPT","region":"Morioka","lat":39.73098,"lng":141.142853},{"店舗名":"La glycine hibiki","住所":"〒020-0121","ステータス":"RECEIPT","region":"Morioka","lat":39.732002,"lng":141.111313},{"店舗名":"釜石ごん太みたけ店","住所":"〒020-0122","ステータス":"RECEIPT","region":"Morioka","lat":39.735279,"lng":141.11998},{"店舗名":"パナス","住所":"〒020-0122 岩手県盛岡市みたけ３丁目４−２３","ステータス":"RECEIPT","region":"Morioka","lat":39.737453,"lng":141.114075},{"店舗名":"田舎家食堂","住所":"〒020-0122 岩手県盛岡市みたけ６丁目１−２５","ステータス":"RECEIPT","region":"Morioka","lat":39.744171,"lng":141.115005},{"店舗名":"炭火やきとり 備長屋","住所":"〒020-0125","ステータス":"RECEIPT","region":"Morioka","lat":39.724697,"lng":141.120407},{"店舗名":"大阪王将　盛岡上堂店","住所":"〒020-0125 岩手県盛岡市上堂","ステータス":"RECEIPT","region":"Morioka","lat":39.724697,"lng":141.120407},{"店舗名":"菜香居","住所":"〒020-0125 岩手県盛岡市上堂３丁目２−２０","ステータス":"RECEIPT","region":"Morioka","lat":39.725613,"lng":141.124878},{"店舗名":"東山飯店","住所":"〒020-0132 岩手県盛岡市西青山","ステータス":"RECEIPT","region":"Morioka","lat":39.722172,"lng":141.107574},{"店舗名":"てらどのかまど","住所":"〒020-0133 岩手県盛岡市青山３丁目","ステータス":"RECEIPT","region":"Morioka","lat":39.727936,"lng":141.115067},{"店舗名":"DELICAFEはらぺこぐりる","住所":"〒020-0133 岩手県盛岡市青山３丁目１６−１２ 板山ビル","ステータス":"RECEIPT","region":"Morioka","lat":39.727314,"lng":141.11348},{"店舗名":"cafe SUNNY","住所":"〒020-0134 岩手県盛岡市南青山町３−８","ステータス":"RECEIPT","region":"Morioka","lat":39.719368,"lng":141.116302},{"店舗名":"ラーメン 武蔵","住所":"〒020-0141 岩手県盛岡市中屋敷町8-45","ステータス":"RECEIPT","region":"Morioka","lat":39.708427,"lng":141.116821},{"店舗名":"鰻の成瀬　盛岡店","住所":"〒020-0143","ステータス":"RECEIPT","region":"Morioka","lat":39.709614,"lng":141.09285},{"店舗名":"鰻・ひつまぶし　権八","住所":"〒020-0148 岩手県盛岡市前潟","ステータス":"RECEIPT","region":"Morioka","lat":39.710506,"lng":141.107208},{"店舗名":"パスタ　熊田家","住所":"〒020-0822 岩手県盛岡市茶畑２丁目７−２４","ステータス":"RECEIPT","region":"Morioka","lat":39.692188,"lng":141.163727},{"店舗名":"畠山だんご","住所":"〒020-0823 岩手県盛岡市門","ステータス":"RECEIPT","region":"Morioka","lat":39.669514,"lng":141.180283},{"店舗名":"畠山だんご","住所":"〒020-0823 岩手県盛岡市門２丁目２６−８","ステータス":"RECEIPT","region":"Morioka","lat":39.66238,"lng":141.174362},{"店舗名":"鰻の成瀬　盛岡南店","住所":"〒020-0834","ステータス":"RECEIPT","region":"Morioka","lat":39.65118,"lng":141.146484},{"店舗名":"てどあーる","住所":"〒020-0836 岩手県盛岡市津志田西１丁目１−５","ステータス":"RECEIPT","region":"Morioka","lat":39.66993,"lng":141.153702},{"店舗名":"豪ーめん 盛岡南店","住所":"〒020-0837 岩手県盛岡市津志田町１丁目１６−１１","ステータス":"RECEIPT","region":"Morioka","lat":39.667164,"lng":141.15303},{"店舗名":"維風堂々 ifudodo","住所":"〒020-0839 岩手県盛岡市津志田南２丁目５−２３","ステータス":"RECEIPT","region":"Morioka","lat":39.657555,"lng":141.156555},{"店舗名":"中華ダイニングシーアン","住所":"〒020-0851","ステータス":"RECEIPT","region":"Morioka","lat":39.671825,"lng":141.14534},{"店舗名":"情熱食堂 盛岡店","住所":"〒020-0857","ステータス":"RECEIPT","region":"Morioka","lat":39.678936,"lng":141.132141},{"店舗名":"盛香苑","住所":"〒020-0866 岩手県盛岡市本宮１丁目３１−１０","ステータス":"RECEIPT","region":"Morioka","lat":39.684685,"lng":141.142944},{"店舗名":"お酒と肴 すし清　Osake to Sakana SushiSei","住所":"〒020-0866 岩手県盛岡市本宮２丁目２４−１","ステータス":"RECEIPT","region":"Morioka","lat":39.689198,"lng":141.140167},{"店舗名":"Coccinelle BAKERY CAFE","住所":"〒020-0866 岩手県盛岡市本宮４丁目４０−２０","ステータス":"RECEIPT","region":"Morioka","lat":39.686344,"lng":141.12738},{"店舗名":"インド料理KABAB","住所":"〒020-0866 岩手県盛岡市本宮一丁目15-14","ステータス":"RECEIPT","region":"Morioka","lat":39.689854,"lng":141.140778},{"店舗名":"大阪王将 イオンモール盛岡南店","住所":"〒020-0866 岩手県盛岡市本宮七丁目1-1","ステータス":"RECEIPT","region":"Morioka","lat":39.684128,"lng":141.128922},{"店舗名":"かずと屋","住所":"〒020-0872","ステータス":"RECEIPT","region":"Morioka","lat":39.696365,"lng":141.163254},{"店舗名":"夢や銀兵衛","住所":"〒020-0872 岩手県盛岡市八幡町","ステータス":"RECEIPT","region":"Morioka","lat":39.696365,"lng":141.163254},{"店舗名":"HOT POT","住所":"〒020-0872 岩手県盛岡市八幡町２−１３","ステータス":"RECEIPT","region":"Morioka","lat":39.698238,"lng":141.158371},{"店舗名":"kitchen coco（キッチン ココ） kitchen coco","住所":"〒020-0882 岩手県盛岡市住吉町12番3号","ステータス":"RECEIPT","region":"Morioka","lat":39.701958,"lng":141.164658},{"店舗名":"おやさい食堂　カラコマ","住所":"〒020-0887 岩手県盛岡市上ノ橋町","ステータス":"RECEIPT","region":"Morioka","lat":39.705067,"lng":141.159363},{"店舗名":"ニルヴァーナ ネパール･インド アジアンキッチン矢巾","住所":"〒028-3615 岩手県紫波郡矢巾町南矢幅１２地割１５−２","ステータス":"RECEIPT","region":"Morioka","lat":39.610409,"lng":141.129868},{"店舗名":"ふわとろオムライスの店 盛岡たまごけん","住所":"岩手県盛岡市大通2-5-10JJビル2F","ステータス":"APP_DISPLAY","region":"Morioka","lat":39.703857,"lng":141.145325}]