[{"店舗名":"Mr.Hutスリランカ料理店","住所":"〒480-1113 愛知県長久手市山野田１１２７","ステータス":"APP_DISPLAY","region":"Nagakute","lat":35.164845,"lng":137.044006},{"店舗名":"中国料理　豊龍園　長久手店","住所":"〒480-1117 愛知県長久手市喜婦嶽","ステータス":"APP_DISPLAY","region":"Nagakute","lat":35.169136,"lng":137.041168},{"店舗名":"ジェラフル アピタ長久手店","住所":"〒480-1124 愛知県愛知郡長久手市戸田谷９０１−１","ステータス":"APP_DISPLAY","region":"Nagakute","lat":35.173565,"lng":137.037491},{"店舗名":"長久手カフェ花ごよみ","住所":"〒480-1124 愛知県愛知郡長久手市戸田谷９０１−１","ステータス":"APP_DISPLAY","region":"Nagakute","lat":35.173565,"lng":137.037491},{"店舗名":"ピザハット 長久手店","住所":"〒480-1124 愛知県長久手市戸田谷１２１","ステータス":"APP_DISPLAY","region":"Nagakute","lat":35.174709,"lng":137.036102},{"店舗名":"チキン・ウイングストリート 長久手店","住所":"〒480-1124 愛知県長久手市戸田谷１２１","ステータス":"APP_DISPLAY","region":"Nagakute","lat":35.174709,"lng":137.036102},{"店舗名":"トスカーニパスタ 長久手店","住所":"〒480-1124 愛知県長久手市戸田谷１２１","ステータス":"APP_DISPLAY","region":"Nagakute","lat":35.174709,"lng":137.036102},{"店舗名":"サンティプール長久手店","住所":"〒480-1124 愛知県長久手市戸田谷９０１−１","ステータス":"APP_DISPLAY","region":"Nagakute","lat":35.172455,"lng":137.038345},{"店舗名":"牧原鮮魚店 イオンモール長久手店","住所":"〒480-1128 愛知県長久手市勝入塚５０１","ステータス":"RECEIPT","region":"Nagakute","lat":35.173092,"lng":137.050339},{"店舗名":"インドレストランナンハウスプレミアム","住所":"〒480-1128 愛知県長久手市勝入塚５０１ イオンモール長久手 長久手中央土地区画整理事業地内5・10・11街区","ステータス":"APP_DISPLAY","region":"Nagakute","lat":35.173092,"lng":137.050339},{"店舗名":"ドミノ・ピザ 杁ヶ池公園","住所":"〒480-1142 愛知県長久手市蟹原１３１１","ステータス":"APP_DISPLAY","region":"Nagakute","lat":35.167713,"lng":137.033539},{"店舗名":"クレープショップSARU 長久手店","住所":"〒480-1152 愛知県長久手市打越１６１８","ステータス":"APP_DISPLAY","region":"Nagakute","lat":35.173695,"lng":137.030716},{"店舗名":"上ル商店　長久手店","住所":"〒480-1156 愛知県長久手市五合池１４１３ 1413番地","ステータス":"RECEIPT","region":"Nagakute","lat":35.179329,"lng":137.031494},{"店舗名":"インドネシア西ジャワ家庭料理サウンスンダHiroko","住所":"〒480-1339","ステータス":"APP_DISPLAY","region":"Nagakute","lat":35.182224,"lng":137.070511},{"店舗名":"horse factory","住所":"〒480-1342 愛知県長久手市茨ケ廻間乙１５３３−１","ステータス":"RECEIPT","region":"Nagakute","lat":35.174267,"lng":137.08168}]