[{"店舗名":"K-FOODカンナム","住所":"〒380-0803 長野県長野市大字鶴賀権堂町2221","ステータス":"RECEIPT","region":"Nagano","lat":36.65237,"lng":138.191422},{"店舗名":"黒毛こずく","住所":"〒380-0814 長野県長野市鶴賀１４７２−３","ステータス":"RECEIPT","region":"Nagano","lat":36.648491,"lng":138.187607},{"店舗名":"元祖豚丼屋 TONTON　鶴賀店","住所":"〒380-0815 長野県長野市鶴賀田町２１１２−６ 加藤ビル","ステータス":"RECEIPT","region":"Nagano","lat":36.654583,"lng":138.197037},{"店舗名":"【Cake&Spice】Accent","住所":"〒380-0816 長野県長野市三輪三輪田町１２９０−３９ 増屋ビル 1階","ステータス":"RECEIPT","region":"Nagano","lat":36.661369,"lng":138.205353},{"店舗名":"パティスリー・エスキィス","住所":"〒380-0821","ステータス":"RECEIPT","region":"Nagano","lat":36.693375,"lng":138.133209},{"店舗名":"そばったん","住所":"〒380-0821 長野県長野市鶴賀上千歳町","ステータス":"RECEIPT","region":"Nagano","lat":36.648571,"lng":138.189423},{"店舗名":"【アサイーボウル・グリークヨーグルト】Cafe Lovina","住所":"〒380-0823","ステータス":"RECEIPT","region":"Nagano","lat":36.645218,"lng":138.189636},{"店舗名":"まあまあ屋 長野店","住所":"〒380-0823","ステータス":"RECEIPT","region":"Nagano","lat":36.645218,"lng":138.189636},{"店舗名":"【アサイーボウル・グリークヨーグルト】Cafe Lovina","住所":"〒380-0823 長野県長野市南千歳２丁目２−１","ステータス":"RECEIPT","region":"Nagano","lat":36.646809,"lng":138.189133},{"店舗名":"オッティモOttimo","住所":"〒380-0824 長野県長野市南長野南石堂町１２７９−４","ステータス":"RECEIPT","region":"Nagano","lat":36.644535,"lng":138.185989},{"店舗名":"イタリアン料理 オッティモ","住所":"〒380-0824 長野県長野市南長野南石堂町１２７９−４ 1f","ステータス":"RECEIPT","region":"Nagano","lat":36.644535,"lng":138.185989},{"店舗名":"Crescent","住所":"〒380-0833","ステータス":"RECEIPT","region":"Nagano","lat":36.648537,"lng":138.194824},{"店舗名":"御茶yucha 長野店","住所":"〒380-0833 長野県長野市権堂町２２２１−８ サンクトビル 1階 権堂駅から１分","ステータス":"RECEIPT","region":"Nagano","lat":36.648537,"lng":138.194824},{"店舗名":"BANHMI15","住所":"〒380-0833 長野県長野市大字鶴賀権堂町２２９６−１","ステータス":"RECEIPT","region":"Nagano","lat":36.653324,"lng":138.188217},{"店舗名":"韓国料理　丸く　権堂","住所":"〒380-0833 長野県長野市鶴賀権堂町２２２２","ステータス":"RECEIPT","region":"Nagano","lat":36.652462,"lng":138.190659},{"店舗名":"GOOD HOMIES PIZZA","住所":"〒380-0834 長野県長野市鶴賀問御所町１２４１−１","ステータス":"RECEIPT","region":"Nagano","lat":36.648491,"lng":138.187607},{"店舗名":"インド料理レストラン　ジョイグル","住所":"〒380-0835 長野県長野市大字南長野新田町１５２９","ステータス":"RECEIPT","region":"Nagano","lat":36.649967,"lng":138.186844},{"店舗名":"ルールドゥグーテ 伊勢宮本店 /  Lheure du gouter","住所":"〒380-0958 長野県長野市伊勢宮","ステータス":"RECEIPT","region":"Nagano","lat":36.632641,"lng":138.169327},{"店舗名":"弁当の松田","住所":"〒381-0008 長野県長野市大字下駒沢７２０−１２","ステータス":"RECEIPT","region":"Nagano","lat":36.683414,"lng":138.255707},{"店舗名":"カレーハウスCLAN","住所":"〒381-0034 長野県長野市高田１８５７−１５","ステータス":"RECEIPT","region":"Nagano","lat":36.641918,"lng":138.219391},{"店舗名":"ネパール・インド料理　マナスル食堂","住所":"〒381-0042 長野県長野市稲田２丁目１１−３ とんかつの店かつ蔵","ステータス":"RECEIPT","region":"Nagano","lat":36.675423,"lng":138.222137},{"店舗名":"和は笑","住所":"〒381-0043 長野県長野市吉田１丁目１６−３","ステータス":"RECEIPT","region":"Nagano","lat":36.668182,"lng":138.212708},{"店舗名":"懐食あおき","住所":"〒381-2205 長野県長野市青木島町大塚","ステータス":"RECEIPT","region":"Nagano","lat":36.609219,"lng":138.190216},{"店舗名":"NEW DILLI DHABA","住所":"〒381-2205 長野県長野市青木島町大塚１４６−１","ステータス":"RECEIPT","region":"Nagano","lat":36.609219,"lng":138.190216},{"店舗名":"Oiseaubleu","住所":"〒381-2205 長野県長野市青木島町大塚字南１４５−１","ステータス":"RECEIPT","region":"Nagano","lat":36.609219,"lng":138.190216},{"店舗名":"インド料理レストラン　アノンド南バイパス店","住所":"〒381-2212 長野県長野市小島田町字野田沖１５４","ステータス":"RECEIPT","region":"Nagano","lat":36.596783,"lng":138.187958},{"店舗名":"中華賄い料理 橙宴 Touen","住所":"〒381-2222 長野県長野市金井田","ステータス":"RECEIPT","region":"Nagano","lat":36.582008,"lng":138.159271},{"店舗名":"マサラ","住所":"〒381-2226 長野県長野市川中島町今井字薬師堂 １８１４−１","ステータス":"RECEIPT","region":"Nagano","lat":36.597103,"lng":138.147552},{"店舗名":"麺屋 増豚 Zouton","住所":"〒388-8004 長野県長野市篠ノ井会５−２２","ステータス":"RECEIPT","region":"Nagano","lat":36.575165,"lng":138.145523},{"店舗名":"千歳屋本店","住所":"〒388-8007 長野県長野市篠ノ井布施高田８３６−１","ステータス":"RECEIPT","region":"Nagano","lat":36.580475,"lng":138.14328}]