[{"店舗名":"ポパイ大磯店","住所":"〒255-0003 神奈川県中郡大磯町大磯１０４５−６","ステータス":"RECEIPT","region":"Nakagori","lat":35.310303,"lng":139.316635},{"店舗名":"Ｎｅｗ　Ｍａｓａｌａ","住所":"〒259-0123 神奈川県中郡二宮町二宮２１２","ステータス":"RECEIPT","region":"Nakagori","lat":35.298481,"lng":139.259201},{"店舗名":"香港軒　二宮店","住所":"〒259-0124 神奈川県中郡二宮町山西３１０−１ 和光(株)ビル","ステータス":"RECEIPT","region":"Nakagori","lat":35.290539,"lng":139.240158},{"店舗名":"サクラ インディアン レストラン＆バー","住所":"〒259-0131 神奈川県中郡二宮町中里２丁目２８−７","ステータス":"RECEIPT","region":"Nakagori","lat":35.308968,"lng":139.246735},{"店舗名":"Rive Montagne","住所":"〒259-0131 神奈川県中郡二宮町中里２丁目４−１８","ステータス":"RECEIPT","region":"Nakagori","lat":35.308296,"lng":139.248932},{"店舗名":"焼きたて屋ザ・ビッグ二宮店","住所":"〒259-0134 神奈川県中郡二宮町一色１２０７−１","ステータス":"RECEIPT","region":"Nakagori","lat":35.314209,"lng":139.243256}]