[{"店舗名":"JUJUのから盛り","住所":"〒809-0011 福岡県中間市岩瀬","ステータス":"RECEIPT","region":"Nakama","lat":33.828613,"lng":130.712646},{"店舗名":"食処さんぞくや中間店","住所":"〒809-0011 福岡県中間市岩瀬１丁目５−１","ステータス":"RECEIPT","region":"Nakama","lat":33.827843,"lng":130.713959},{"店舗名":"【和食中心のお弁当】お食事処 旬風亭","住所":"〒809-0014 福岡県中間市蓮花寺２丁目１３−８","ステータス":"RECEIPT","region":"Nakama","lat":33.825089,"lng":130.721939},{"店舗名":"肉酒場いろは","住所":"〒809-0019 福岡県中間市東中間","ステータス":"RECEIPT","region":"Nakama","lat":33.817566,"lng":130.716125},{"店舗名":"@30Coffeestandfordog","住所":"〒809-0030 福岡県中間市中央１丁目９−２７","ステータス":"RECEIPT","region":"Nakama","lat":33.819611,"lng":130.711212},{"店舗名":"ヒマラヤレストラン　中間店","住所":"〒809-0030 福岡県中間市中央２－１０－２４","ステータス":"RECEIPT","region":"Nakama","lat":33.827393,"lng":130.710373},{"店舗名":"からあげにわ菓","住所":"〒809-0041 福岡県中間市岩瀬西町１８−５","ステータス":"RECEIPT","region":"Nakama","lat":33.837414,"lng":130.7052}]