[{"店舗名":"放課後倶楽部","住所":"〒901-2301","ステータス":"RECEIPT","region":"Nakagami District","lat":26.31999,"lng":127.801117},{"店舗名":"福くる里学","住所":"〒901-2301","ステータス":"RECEIPT","region":"Nakagami District","lat":26.31999,"lng":127.801117},{"店舗名":"キルギス料理 TAPCHAN","住所":"〒901-2301 沖縄県中頭郡北中城村島袋１４１１","ステータス":"RECEIPT","region":"Nakagami District","lat":26.319979,"lng":127.804932},{"店舗名":"クプル","住所":"〒901-2301 沖縄県中頭郡北中城村島袋３１４","ステータス":"RECEIPT","region":"Nakagami District","lat":26.318211,"lng":127.800514},{"店舗名":"369KITCHEN","住所":"〒901-2306 沖縄県中頭郡北中城村ライカム","ステータス":"RECEIPT","region":"Nakagami District","lat":26.312994,"lng":127.796249},{"店舗名":"レインボーテラス沖縄　Rainbow Terrace Okinawa","住所":"〒901-2311 沖縄県中頭郡北中城村喜舎場１２１４","ステータス":"RECEIPT","region":"Nakagami District","lat":26.305927,"lng":127.790817},{"店舗名":"欧風カレー喫茶　フランクリン","住所":"〒901-2312 沖縄県中頭郡北中城村和仁屋","ステータス":"RECEIPT","region":"Nakagami District","lat":26.299593,"lng":127.806313},{"店舗名":"石窯パン処 ときはや","住所":"〒901-2317 沖縄県中頭郡北中城村瑞慶覧５３１","ステータス":"RECEIPT","region":"Nakagami District","lat":26.308613,"lng":127.779152},{"店舗名":"ラーメン豚キング","住所":"〒901-2424 沖縄県中頭郡中城村南上原","ステータス":"RECEIPT","region":"Nakagami District","lat":26.250996,"lng":127.771294},{"店舗名":"唐揚げ専門 たけ田商店 中城店 Karaage specialty store Takeda Shoten Nakagusuku","住所":"〒901-2424 沖縄県中頭郡中城村南上原９６０","ステータス":"RECEIPT","region":"Nakagami District","lat":26.246588,"lng":127.769783},{"店舗名":"てんぷらや","住所":"〒903-0103 沖縄県中頭郡西原町小那覇２５０","ステータス":"RECEIPT","region":"Nakagami District","lat":26.224163,"lng":127.767975},{"店舗名":"焼肉 みずぶた家","住所":"〒903-0112 沖縄県中頭郡西原町我謝８０２","ステータス":"RECEIPT","region":"Nakagami District","lat":26.213995,"lng":127.763245},{"店舗名":"Manten","住所":"〒903-0117","ステータス":"RECEIPT","region":"Nakagami District","lat":26.233952,"lng":127.752129},{"店舗名":"Hide-Out-BaR 五煌","住所":"〒903-0117 沖縄県中頭郡西原町翁長","ステータス":"RECEIPT","region":"Nakagami District","lat":26.233952,"lng":127.752129},{"店舗名":"彩りサラダ＆贅沢プレートが人気！【Plus Garden Cafe】","住所":"〒903-0117 沖縄県中頭郡西原町翁長","ステータス":"RECEIPT","region":"Nakagami District","lat":26.233952,"lng":127.752129},{"店舗名":"SpiceJack","住所":"〒903-0118 沖縄県中頭郡西原町字小波津４８０","ステータス":"RECEIPT","region":"Nakagami District","lat":26.223627,"lng":127.756241},{"店舗名":"TREE's CAFE","住所":"〒903-0126 沖縄県西原町棚原100","ステータス":"RECEIPT","region":"Nakagami District","lat":26.244596,"lng":127.754288},{"店舗名":"ルーラーズタコライス 北谷店　Ruler’s TACORICE　CHATAN","住所":"〒904-0102 沖縄県中頭郡北谷町伊平","ステータス":"RECEIPT","region":"Nakagami District","lat":26.329586,"lng":127.756912},{"店舗名":"自家焙煎珈琲ゆくれ実","住所":"〒904-0103","ステータス":"RECEIPT","region":"Nakagami District","lat":26.319452,"lng":127.765953},{"店舗名":"ひよまめ","住所":"〒904-0103 沖縄県中頭郡北谷町桑江","ステータス":"RECEIPT","region":"Nakagami District","lat":26.319452,"lng":127.765953},{"店舗名":"ストライプヌードル","住所":"〒904-0103 沖縄県中頭郡北谷町桑江","ステータス":"RECEIPT","region":"Nakagami District","lat":26.319452,"lng":127.765953},{"店舗名":"クロッフルアイスが人気【ジュウール】","住所":"〒904-0103 沖縄県中頭郡北谷町桑江","ステータス":"RECEIPT","region":"Nakagami District","lat":26.319452,"lng":127.765953},{"店舗名":"Thaicoon","住所":"〒904-0114 沖縄県中頭郡北谷町港１０−１８ 2f","ステータス":"RECEIPT","region":"Nakagami District","lat":26.321835,"lng":127.75013},{"店舗名":"羽釜おむすび蒼","住所":"〒904-0115","ステータス":"RECEIPT","region":"Nakagami District","lat":26.311689,"lng":127.761368},{"店舗名":"地球村酒場","住所":"〒904-0115 沖縄県中頭郡北谷町美浜","ステータス":"RECEIPT","region":"Nakagami District","lat":26.311689,"lng":127.761368},{"店舗名":"ボリウッド ジュエル（BOLLYWOOD Jewel）","住所":"〒904-0115 沖縄県中頭郡北谷町美浜","ステータス":"RECEIPT","region":"Nakagami District","lat":26.311689,"lng":127.761368},{"店舗名":"NÔMIX","住所":"〒904-0115 沖縄県中頭郡北谷町美浜","ステータス":"RECEIPT","region":"Nakagami District","lat":26.311689,"lng":127.761368},{"店舗名":"カフェアンドフルーツぶんぶん cafe and fruits BUNBUN","住所":"〒904-0115 沖縄県中頭郡北谷町美浜","ステータス":"RECEIPT","region":"Nakagami District","lat":26.311689,"lng":127.761368},{"店舗名":"蒸気海鮮 CHATAN STEAM SEAFOOD","住所":"〒904-0115 沖縄県中頭郡北谷町美浜５１−２","ステータス":"RECEIPT","region":"Nakagami District","lat":26.311689,"lng":127.761368},{"店舗名":"【つけ麺専門店 夢ノ弥】イオン北谷店","住所":"〒904-0115 沖縄県中頭郡北谷町美浜８−３ 1f","ステータス":"RECEIPT","region":"Nakagami District","lat":26.316607,"lng":127.756149},{"店舗名":"ダブルデッカー美浜店【北谷 中頭】","住所":"〒904-0115 沖縄県中頭郡北谷町美浜９−８","ステータス":"RECEIPT","region":"Nakagami District","lat":26.315735,"lng":127.754196},{"店舗名":"北海道ラーメン奥原流追風丸 北谷店","住所":"〒904-0115 沖縄県中頭郡北谷町美浜９−８","ステータス":"RECEIPT","region":"Nakagami District","lat":26.315735,"lng":127.754196},{"店舗名":"ア・ダニー（A・DANNY）","住所":"〒904-0116 沖縄県中頭郡北谷町北谷","ステータス":"RECEIPT","region":"Nakagami District","lat":26.303823,"lng":127.768372},{"店舗名":"MOANA PIZZA & ESPRESSO","住所":"〒904-0116 沖縄県中頭郡北谷町北谷","ステータス":"RECEIPT","region":"Nakagami District","lat":26.303823,"lng":127.768372},{"店舗名":"ナマステインディア","住所":"〒904-0116 沖縄県中頭郡北谷町北谷2-17-5","ステータス":"RECEIPT","region":"Nakagami District","lat":26.305401,"lng":127.760551},{"店舗名":"インディラ","住所":"〒904-0117","ステータス":"RECEIPT","region":"Nakagami District","lat":26.29838,"lng":127.768951},{"店舗名":"カスタマンダップ北谷店","住所":"〒904-0117 沖縄県北谷町北前1-10-10","ステータス":"RECEIPT","region":"Nakagami District","lat":26.298691,"lng":127.760735}]