[{"店舗名":"ベトナム料理フォーゴン","住所":"〒274-0026 千葉県習志野市谷津１−１２−５","ステータス":"APP_DISPLAY","region":"Narashino","lat":35.688568,"lng":140.017365},{"店舗名":"Mama’s kitchen","住所":"〒275-0001 千葉県習志野市東習志野 ５丁目１７−１４","ステータス":"APP_DISPLAY","region":"Narashino","lat":35.692604,"lng":140.079849},{"店舗名":"ASHTA LAXMI","住所":"〒275-0001 千葉県習志野市東習志野２丁目１−１４","ステータス":"APP_DISPLAY","region":"Narashino","lat":35.690868,"lng":140.069901},{"店舗名":"デニーズ 東習志野店","住所":"〒275-0001 千葉県習志野市東習志野５丁目１２−２３","ステータス":"APP_DISPLAY","region":"Narashino","lat":35.690815,"lng":140.07869},{"店舗名":"Mama’s kitchen","住所":"〒275-0001 千葉県習志野市東習志野５丁目１７−１４","ステータス":"APP_DISPLAY","region":"Narashino","lat":35.692604,"lng":140.079849},{"店舗名":"アジアンダイニングカトマンズキッチン","住所":"〒275-0002","ステータス":"APP_DISPLAY","region":"Narashino","lat":35.688072,"lng":140.065826},{"店舗名":"煮干し中華そば専門店　つげや","住所":"〒275-0002 千葉県習志野市実籾","ステータス":"APP_DISPLAY","region":"Narashino","lat":35.688072,"lng":140.065826},{"店舗名":"アロハ肉汁焼餃子食堂","住所":"〒275-0002 千葉県習志野市実籾２丁目１２−３７","ステータス":"APP_DISPLAY","region":"Narashino","lat":35.685528,"lng":140.067841},{"店舗名":"ラーメンショップ○化 習志野実籾店","住所":"〒275-0002 千葉県習志野市実籾４丁目３−１","ステータス":"APP_DISPLAY","region":"Narashino","lat":35.688267,"lng":140.069168},{"店舗名":"丼丸 実籾店","住所":"〒275-0002 千葉県習志野市実籾４丁目３−１４ プレミール店舗 n101","ステータス":"APP_DISPLAY","region":"Narashino","lat":35.689434,"lng":140.069275},{"店舗名":"そばカフェ 雅や","住所":"〒275-0002 千葉県習志野市実籾４丁目３−３５","ステータス":"APP_DISPLAY","region":"Narashino","lat":35.688316,"lng":140.069702},{"店舗名":"FLEUR フルール Natural Beauty 習志野店","住所":"〒275-0002 千葉県習志野市実籾４丁目３−３５","ステータス":"APP_DISPLAY","region":"Narashino","lat":35.688316,"lng":140.069702},{"店舗名":"【罪悪感ゼロヌードル！】 LOCALO Noodle（ロカロヌードル）実籾店","住所":"〒275-0002 千葉県習志野市実籾４丁目３−３５","ステータス":"APP_DISPLAY","region":"Narashino","lat":35.688316,"lng":140.069702},{"店舗名":"【とろける角煮】東京角煮総本店 実籾4丁目2号店","住所":"〒275-0002 千葉県習志野市実籾４丁目３−３５ 横川ビル","ステータス":"APP_DISPLAY","region":"Narashino","lat":35.688316,"lng":140.069702},{"店舗名":"熟成牛たん 祇園猪川 実籾4丁目2号店","住所":"〒275-0002 千葉県習志野市実籾４丁目３−３５ 横川ビル","ステータス":"APP_DISPLAY","region":"Narashino","lat":35.688316,"lng":140.069702},{"店舗名":"らーめん 柊","住所":"〒275-0002 千葉県習志野市実籾４丁目５−１４","ステータス":"APP_DISPLAY","region":"Narashino","lat":35.690495,"lng":140.069931},{"店舗名":"ちよだ鮨　実籾店","住所":"〒275-0002 千葉県習志野市実籾５丁目１−１７","ステータス":"APP_DISPLAY","region":"Narashino","lat":35.687622,"lng":140.068893},{"店舗名":"味見川 四川ダイニング","住所":"〒275-0011","ステータス":"APP_DISPLAY","region":"Narashino","lat":35.687916,"lng":140.047241},{"店舗名":"限界を超えろ京成大久保","住所":"〒275-0011","ステータス":"APP_DISPLAY","region":"Narashino","lat":35.687916,"lng":140.047241},{"店舗名":"ポカラ","住所":"〒275-0011","ステータス":"APP_DISPLAY","region":"Narashino","lat":35.687916,"lng":140.047241},{"店舗名":"麺屋時茂　京成大久保店","住所":"〒275-0011","ステータス":"APP_DISPLAY","region":"Narashino","lat":35.687916,"lng":140.047241},{"店舗名":"創作和食居酒屋 長八","住所":"〒275-0011","ステータス":"RECEIPT","region":"Narashino","lat":35.687916,"lng":140.047241},{"店舗名":"エムエヌエス ケバブ","住所":"〒275-0011 千葉県習志野市大久保１ー１６−１８","ステータス":"APP_DISPLAY","region":"Narashino","lat":35.688534,"lng":140.049347},{"店舗名":"38TACOS(サンパチタコス)","住所":"〒275-0011 千葉県習志野市大久保１丁目","ステータス":"RECEIPT","region":"Narashino","lat":35.687916,"lng":140.047241},{"店舗名":"BUTASAN HOKKAIDO","住所":"〒275-0011 千葉県習志野市大久保１丁目","ステータス":"APP_DISPLAY","region":"Narashino","lat":35.687916,"lng":140.047241},{"店舗名":"龍翔堂千葉大久保店 Ryushodo Chiba Ookubo","住所":"〒275-0011 千葉県習志野市大久保１丁目１６−１５","ステータス":"APP_DISPLAY","region":"Narashino","lat":35.688904,"lng":140.049561},{"店舗名":"RYUSHODOカレーハウス 千葉大久保店","住所":"〒275-0011 千葉県習志野市大久保１丁目１６−１５","ステータス":"RECEIPT","region":"Narashino","lat":35.688904,"lng":140.049561},{"店舗名":"3Cafe","住所":"〒275-0011 千葉県習志野市大久保１丁目１８−９","ステータス":"RECEIPT","region":"Narashino","lat":35.68766,"lng":140.048828},{"店舗名":"ごはんが進む！『チキン南蛮本舗』京成大久保店","住所":"〒275-0011 千葉県習志野市大久保１丁目２１－１２","ステータス":"APP_DISPLAY","region":"Narashino","lat":35.686855,"lng":140.048325},{"店舗名":"串カツ田中 京成大久保店","住所":"〒275-0011 千葉県習志野市大久保１丁目２１−１２","ステータス":"APP_DISPLAY","region":"Narashino","lat":35.686855,"lng":140.048325},{"店舗名":"ごはんがすすむ！油淋鶏飯店 京成大久保店","住所":"〒275-0011 千葉県習志野市大久保１丁目２１−１２","ステータス":"APP_DISPLAY","region":"Narashino","lat":35.686855,"lng":140.048325},{"店舗名":"果茶果茶 京成大久保店","住所":"〒275-0011 千葉県習志野市大久保１丁目２１−１２","ステータス":"APP_DISPLAY","region":"Narashino","lat":35.686855,"lng":140.048325},{"店舗名":"大盛スタミナ肉丼 ニンニク野郎 京成大久保店","住所":"〒275-0011 千葉県習志野市大久保１丁目２１−１２","ステータス":"APP_DISPLAY","region":"Narashino","lat":35.686855,"lng":140.048325},{"店舗名":"ケンタッキーフライドチキン 京成大久保駅前店","住所":"〒275-0011 千葉県習志野市大久保１丁目２２−１０","ステータス":"APP_DISPLAY","region":"Narashino","lat":35.686203,"lng":140.047409},{"店舗名":"桂林餃子満足","住所":"〒275-0011 千葉県習志野市大久保１丁目２３−１１","ステータス":"APP_DISPLAY","region":"Narashino","lat":35.686085,"lng":140.049545},{"店舗名":"かをり本丸","住所":"〒275-0011 千葉県習志野市大久保１丁目２４−１６","ステータス":"APP_DISPLAY","region":"Narashino","lat":35.686378,"lng":140.04863},{"店舗名":"ojima","住所":"〒275-0011 千葉県習志野市大久保１丁目２９−１２","ステータス":"APP_DISPLAY","region":"Narashino","lat":35.688957,"lng":140.050964},{"店舗名":"ラ・アイママキッチン 京成大久保店","住所":"〒275-0011 千葉県習志野市大久保２丁目５−１２","ステータス":"APP_DISPLAY","region":"Narashino","lat":35.68911,"lng":140.051529},{"店舗名":"マンドリン ハンバーガーキッチン","住所":"〒275-0011 千葉県習志野市大久保3-13-12","ステータス":"APP_DISPLAY","region":"Narashino","lat":35.691322,"lng":140.051636},{"店舗名":"ラーメンショップ○化 京成大久保店","住所":"〒275-0011 千葉県習志野市大久保３丁目１１−２４","ステータス":"APP_DISPLAY","region":"Narashino","lat":35.689518,"lng":140.049896},{"店舗名":"戯拉戯拉 Gira Gira","住所":"〒275-0011 千葉県習志野市大久保３丁目１２−１１","ステータス":"APP_DISPLAY","region":"Narashino","lat":35.691494,"lng":140.050247},{"店舗名":"インド料理サンティ 京成大久保店","住所":"〒275-0011 千葉県習志野市大久保３丁目１２−５","ステータス":"APP_DISPLAY","region":"Narashino","lat":35.69112,"lng":140.050095},{"店舗名":"あぶらそば 二代目すずや","住所":"〒275-0011 千葉県習志野市大久保３丁目１３−１２","ステータス":"APP_DISPLAY","region":"Narashino","lat":35.691322,"lng":140.051636},{"店舗名":"盛岡じゃじゃ麺専門店 じゃじゃかん","住所":"〒275-0011 千葉県習志野市大久保３丁目１５−２","ステータス":"RECEIPT","region":"Narashino","lat":35.689644,"lng":140.050034},{"店舗名":"ＰｉｎｏＱｕｑ","住所":"〒275-0011 千葉県習志野市大久保３丁目９−１２","ステータス":"APP_DISPLAY","region":"Narashino","lat":35.690983,"lng":140.05011},{"店舗名":"GREEN RISE","住所":"〒275-0012 千葉県習志野市本大久保１丁目４−１０","ステータス":"APP_DISPLAY","region":"Narashino","lat":35.685947,"lng":140.042099},{"店舗名":"東京だんご","住所":"〒275-0012 千葉県習志野市本大久保３丁目９−３","ステータス":"APP_DISPLAY","region":"Narashino","lat":35.685822,"lng":140.047943},{"店舗名":"キッチンぽん太","住所":"〒275-0012 千葉県習志野市本大久保３丁目９−４","ステータス":"APP_DISPLAY","region":"Narashino","lat":35.685818,"lng":140.048111},{"店舗名":"【本格麻辣×自家製春雨】白虎麻辣湯 本大久保3丁目店","住所":"〒275-0012 千葉県習志野市本大久保３丁目９−４","ステータス":"APP_DISPLAY","region":"Narashino","lat":35.685818,"lng":140.048111},{"店舗名":"桂林餃子満足 幕張本郷店","住所":"〒275-0013 千葉県習志野市花咲１丁目３−２４","ステータス":"APP_DISPLAY","region":"Narashino","lat":35.677197,"lng":140.044708},{"店舗名":"スタミナ丼 活家 幕張店","住所":"〒275-0013 千葉県習志野市花咲２丁目１−１","ステータス":"PENDING","region":"Narashino","lat":35.682808,"lng":140.045334},{"店舗名":"宅配とんかつ かさねや 幕張店","住所":"〒275-0013 千葉県習志野市花咲２丁目１−１","ステータス":"APP_DISPLAY","region":"Narashino","lat":35.682808,"lng":140.045334},{"店舗名":"鶏弁 とり日和 幕張店","住所":"〒275-0013 千葉県習志野市花咲２丁目１−１","ステータス":"APP_DISPLAY","region":"Narashino","lat":35.682808,"lng":140.045334},{"店舗名":"焼きかつ丼 勝吉 幕張店","住所":"〒275-0013 千葉県習志野市花咲２丁目１−１","ステータス":"APP_DISPLAY","region":"Narashino","lat":35.682808,"lng":140.045334},{"店舗名":"かつ丼屋 のぶお 幕張店","住所":"〒275-0013 千葉県習志野市花咲２丁目１−１","ステータス":"APP_DISPLAY","region":"Narashino","lat":35.682808,"lng":140.045334},{"店舗名":"出前つけ麺専門店 三田製麺所 幕張店","住所":"〒275-0013 千葉県習志野市花咲２丁目１−１","ステータス":"APP_DISPLAY","region":"Narashino","lat":35.682808,"lng":140.045334},{"店舗名":"韓国カルビ丼とスンドゥブ 洞山 幕張店","住所":"〒275-0013 千葉県習志野市花咲２丁目１−１","ステータス":"APP_DISPLAY","region":"Narashino","lat":35.682808,"lng":140.045334},{"店舗名":"かつ丼 とん吉 幕張店","住所":"〒275-0013 千葉県習志野市花咲２丁目１−１","ステータス":"APP_DISPLAY","region":"Narashino","lat":35.682808,"lng":140.045334},{"店舗名":"旨辛スタミナ鉄板焼き 天神軒 幕張店","住所":"〒275-0013 千葉県習志野市花咲２丁目１−１","ステータス":"APP_DISPLAY","region":"Narashino","lat":35.682808,"lng":140.045334},{"店舗名":"どんぶり 神宮軒 幕張店","住所":"〒275-0013 千葉県習志野市花咲２丁目１−１","ステータス":"APP_DISPLAY","region":"Narashino","lat":35.682808,"lng":140.045334},{"店舗名":"お粥 煮え花 幕張店","住所":"〒275-0013 千葉県習志野市花咲２丁目１−１","ステータス":"APP_DISPLAY","region":"Narashino","lat":35.682808,"lng":140.045334},{"店舗名":"元祖金沢チャンピオンカレーデリバリー 幕張店","住所":"〒275-0013 千葉県習志野市花咲２丁目１−１","ステータス":"APP_DISPLAY","region":"Narashino","lat":35.682808,"lng":140.045334},{"店舗名":"さぬきうどん・どんぶり 博好 幕張店","住所":"〒275-0013 千葉県習志野市花咲２丁目１−１","ステータス":"APP_DISPLAY","region":"Narashino","lat":35.682808,"lng":140.045334},{"店舗名":"ぶた玉丼とうどん ぶた玉家 幕張店","住所":"〒275-0013 千葉県習志野市花咲２丁目１−１","ステータス":"APP_DISPLAY","region":"Narashino","lat":35.682808,"lng":140.045334},{"店舗名":"鶏天豚天 通天道 幕張店","住所":"〒275-0013 千葉県習志野市花咲２丁目１−１","ステータス":"APP_DISPLAY","region":"Narashino","lat":35.682808,"lng":140.045334},{"店舗名":"肉汁つけうどん 六三四 幕張店","住所":"〒275-0013 千葉県習志野市花咲２丁目１−１","ステータス":"APP_DISPLAY","region":"Narashino","lat":35.682808,"lng":140.045334},{"店舗名":"出前家系ラーメン 吉祥寺 武蔵家 幕張店","住所":"〒275-0013 千葉県習志野市花咲２丁目１−１","ステータス":"APP_DISPLAY","region":"Narashino","lat":35.682808,"lng":140.045334},{"店舗名":"本格もつ鍋 竹名屋総本店 幕張店","住所":"〒275-0013 千葉県習志野市花咲２丁目１−１","ステータス":"APP_DISPLAY","region":"Narashino","lat":35.682808,"lng":140.045334},{"店舗名":"十勝帯広豚丼 三代目ぶた広 幕張店","住所":"〒275-0013 千葉県習志野市花咲２丁目１−１","ステータス":"APP_DISPLAY","region":"Narashino","lat":35.682808,"lng":140.045334},{"店舗名":"京都北白川 ラーメン魁力屋幕張インター店","住所":"〒275-0014 千葉県習志野市鷺沼３丁目１７−２２","ステータス":"APP_DISPLAY","region":"Narashino","lat":35.671993,"lng":140.03038},{"店舗名":"どんまつ 津田沼店","住所":"〒275-0014 千葉県習志野市鷺沼３丁目２０−１","ステータス":"APP_DISPLAY","region":"Narashino","lat":35.674805,"lng":140.026413},{"店舗名":"柿家すし 津田沼店","住所":"〒275-0014 千葉県習志野市鷺沼３丁目２０−１","ステータス":"APP_DISPLAY","region":"Narashino","lat":35.674805,"lng":140.026413},{"店舗名":"ジェリーズポップコーン千葉ハリヤマ","住所":"〒275-0014 千葉県習志野市鷺沼３丁目２−１２","ステータス":"APP_DISPLAY","region":"Narashino","lat":35.677158,"lng":140.030502},{"店舗名":"日乃屋カレー　京成津田沼店","住所":"〒275-0016","ステータス":"APP_DISPLAY","region":"Narashino","lat":35.689049,"lng":140.024994},{"店舗名":"EVERYDAYBURG～食べるソースのハンバーグカフェ～","住所":"〒275-0016","ステータス":"APP_DISPLAY","region":"Narashino","lat":35.689049,"lng":140.024994},{"店舗名":"サンズ・ダイナー津田沼店","住所":"〒275-0016","ステータス":"RECEIPT","region":"Narashino","lat":35.689049,"lng":140.024994},{"店舗名":"韓国酒場ポックン","住所":"〒275-0016","ステータス":"RECEIPT","region":"Narashino","lat":35.689049,"lng":140.024994},{"店舗名":"郷","住所":"〒275-0016 千葉県習志野市津田沼","ステータス":"APP_DISPLAY","region":"Narashino","lat":35.689049,"lng":140.024994},{"店舗名":"ドン・サラマンカ ナチョス","住所":"〒275-0016 千葉県習志野市津田沼","ステータス":"APP_DISPLAY","region":"Narashino","lat":35.689049,"lng":140.024994},{"店舗名":"はいさい！津田沼店","住所":"〒275-0016 千葉県習志野市津田沼","ステータス":"RECEIPT","region":"Narashino","lat":35.689049,"lng":140.024994},{"店舗名":"KNOWS COFFEE イオンモール津田沼South店","住所":"〒275-0016 千葉県習志野市津田沼１丁目１０−３０","ステータス":"APP_DISPLAY","region":"Narashino","lat":35.689766,"lng":140.023468},{"店舗名":"ちよだ鮨 新津田沼駅店","住所":"〒275-0016 千葉県習志野市津田沼１丁目１０−３５","ステータス":"APP_DISPLAY","region":"Narashino","lat":35.690098,"lng":140.023071},{"店舗名":"ヒマラヤ千葉津田沼店","住所":"〒275-0016 千葉県習志野市津田沼１丁目１０−４１","ステータス":"APP_DISPLAY","region":"Narashino","lat":35.690495,"lng":140.022629},{"店舗名":"餃子酒場 豊葉 津田沼店","住所":"〒275-0016 千葉県習志野市津田沼１丁目１０−４７","ステータス":"APP_DISPLAY","region":"Narashino","lat":35.690762,"lng":140.022339},{"店舗名":"バーガーキング 津田沼駅南口店","住所":"〒275-0016 千葉県習志野市津田沼１丁目１−１","ステータス":"APP_DISPLAY","region":"Narashino","lat":35.690994,"lng":140.020248},{"店舗名":"デニーズ 津田沼駅前店","住所":"〒275-0016 千葉県習志野市津田沼１丁目１−１","ステータス":"APP_DISPLAY","region":"Narashino","lat":35.690994,"lng":140.020248},{"店舗名":"韓国家庭料理ジャンモ イオンモール津田沼店 Korean Restaurant Zangmo Aeon MallTsudanuma","住所":"〒275-0016 千葉県習志野市津田沼１丁目２３−１","ステータス":"APP_DISPLAY","region":"Narashino","lat":35.691143,"lng":140.022507},{"店舗名":"大戸屋ごはん処 イオンモール津田沼店","住所":"〒275-0016 千葉県習志野市津田沼１丁目２３−１","ステータス":"APP_DISPLAY","region":"Narashino","lat":35.691143,"lng":140.022507},{"店舗名":"リンガーハット イオンモール津田沼店","住所":"〒275-0016 千葉県習志野市津田沼１丁目２３−１","ステータス":"APP_DISPLAY","region":"Narashino","lat":35.691143,"lng":140.022507},{"店舗名":"築地銀だこ イオンモール津田沼North店","住所":"〒275-0016 千葉県習志野市津田沼１丁目２３−１","ステータス":"APP_DISPLAY","region":"Narashino","lat":35.691143,"lng":140.022507},{"店舗名":"肉と日本酒バル　ワラカド津田沼店","住所":"〒275-0016 千葉県習志野市津田沼１丁目３−１１","ステータス":"APP_DISPLAY","region":"Narashino","lat":35.690052,"lng":140.022461},{"店舗名":"インド・ネパール料理 アティティ 津田沼店","住所":"〒275-0016 千葉県習志野市津田沼２丁目１−１０ ヒカリマンション","ステータス":"APP_DISPLAY","region":"Narashino","lat":35.684681,"lng":140.021729},{"店舗名":"ネギトロ一本勝負 津田沼店","住所":"〒275-0016 千葉県習志野市津田沼３丁目２０−１７","ステータス":"APP_DISPLAY","region":"Narashino","lat":35.68755,"lng":140.029495},{"店舗名":"海鮮ユッケ丼 鮪家 toroya 津田沼店","住所":"〒275-0016 千葉県習志野市津田沼３丁目２０−１７","ステータス":"APP_DISPLAY","region":"Narashino","lat":35.68755,"lng":140.029495},{"店舗名":"スタミナ豚丼マシマシ 津田沼店","住所":"〒275-0016 千葉県習志野市津田沼３丁目２０−１７","ステータス":"APP_DISPLAY","region":"Narashino","lat":35.68755,"lng":140.029495},{"店舗名":"インドネパールレストラン ミラン Milan","住所":"〒275-0016 千葉県習志野市津田沼５－１２－１２","ステータス":"APP_DISPLAY","region":"Narashino","lat":35.683365,"lng":140.02359},{"店舗名":"カレーハウス CoCo壱番屋 京成津田沼駅前店","住所":"〒275-0016 千葉県習志野市津田沼５丁目１１−１２","ステータス":"APP_DISPLAY","region":"Narashino","lat":35.682606,"lng":140.023773},{"店舗名":"Indian-Nepali Restaurant& Bar Milan","住所":"〒275-0016 千葉県習志野市津田沼５丁目１２−１２","ステータス":"APP_DISPLAY","region":"Narashino","lat":35.683365,"lng":140.02359},{"店舗名":"ジャラナ Jharana","住所":"〒275-0016 千葉県習志野市津田沼５丁目９−６","ステータス":"APP_DISPLAY","region":"Narashino","lat":35.680676,"lng":140.022324},{"店舗名":"LIKE FOOD津田沼","住所":"〒275-0016 千葉県習志野市津田沼７丁目１−１５ 長谷川ビル","ステータス":"APP_DISPLAY","region":"Narashino","lat":35.677811,"lng":140.019852},{"店舗名":"吉野家 習志野藤崎店","住所":"〒275-0017 千葉県習志野市藤崎４丁目３−１５","ステータス":"APP_DISPLAY","region":"Narashino","lat":35.691196,"lng":140.037994},{"店舗名":"Cafe fikasmysa","住所":"〒275-0022 千葉県習志野市香澄５丁目２−６−１","ステータス":"APP_DISPLAY","region":"Narashino","lat":35.665745,"lng":140.022446},{"店舗名":"コナズ珈琲 幕張店","住所":"〒275-0023 千葉県習志野市芝園１丁目２−２","ステータス":"APP_DISPLAY","region":"Narashino","lat":35.663235,"lng":140.01709},{"店舗名":"はなまるうどん ミスターマックス新習志野店","住所":"〒275-0024 千葉県習志野市茜浜２丁目２−１","ステータス":"APP_DISPLAY","region":"Narashino","lat":35.666122,"lng":140.012436},{"店舗名":"カレーハウス CoCo壱番屋 ミスターマックス新習志野店","住所":"〒275-0024 千葉県習志野市茜浜２丁目２−１","ステータス":"APP_DISPLAY","region":"Narashino","lat":35.666122,"lng":140.012436},{"店舗名":"たこやきはなちゃん","住所":"〒275-0026 千葉県習志野市谷津","ステータス":"APP_DISPLAY","region":"Narashino","lat":35.686333,"lng":140.017395},{"店舗名":"台湾茶屋モクテルストーリー（MOCKTAIL STORY）津田沼本店","住所":"〒275-0026 千葉県習志野市谷津１丁目１１−４","ステータス":"APP_DISPLAY","region":"Narashino","lat":35.687717,"lng":140.016998},{"店舗名":"GlampingBBQ韓国屋台村　津田沼店","住所":"〒275-0026 千葉県習志野市谷津１丁目１３−１５","ステータス":"APP_DISPLAY","region":"Narashino","lat":35.688202,"lng":140.018677},{"店舗名":"Lotus ロータス","住所":"〒275-0026 千葉県習志野市谷津１丁目１７−９","ステータス":"APP_DISPLAY","region":"Narashino","lat":35.688961,"lng":140.016312},{"店舗名":"ちよだ鮨 谷津店","住所":"〒275-0026 千葉県習志野市谷津４丁目４−１９","ステータス":"APP_DISPLAY","region":"Narashino","lat":35.684769,"lng":140.007629},{"店舗名":"レストランアンドバーエルコラソン","住所":"〒275-0026 千葉県習志野市谷津４丁目４−３１","ステータス":"APP_DISPLAY","region":"Narashino","lat":35.684147,"lng":140.009171},{"店舗名":"サンティ 谷津店","住所":"〒275-0026 千葉県習志野市谷津４丁目５−２１","ステータス":"APP_DISPLAY","region":"Narashino","lat":35.683842,"lng":140.00708},{"店舗名":"串特急 谷津店","住所":"〒275-0026 千葉県習志野市谷津４丁目６−３５","ステータス":"APP_DISPLAY","region":"Narashino","lat":35.683632,"lng":140.006836},{"店舗名":"ふぐ釜めし芳の","住所":"〒275-0026 千葉県習志野市谷津５丁目１３−６","ステータス":"APP_DISPLAY","region":"Narashino","lat":35.687832,"lng":140.008438},{"店舗名":"旬鮮 肴屋 たろ丸","住所":"〒275-0026 千葉県習志野市谷津５丁目５−２","ステータス":"APP_DISPLAY","region":"Narashino","lat":35.685806,"lng":140.007233},{"店舗名":"湘南パンケーキ 津田沼","住所":"〒275-0026 千葉県習志野市谷津７丁目７−１","ステータス":"APP_DISPLAY","region":"Narashino","lat":35.690872,"lng":140.019409},{"店舗名":"ケンタッキーフライドチキン 津田沼駅南口店","住所":"〒275-0026 千葉県習志野市谷津７丁目８−１","ステータス":"APP_DISPLAY","region":"Narashino","lat":35.690941,"lng":140.019409},{"店舗名":"ピザハット 奏の杜フォルテ津田沼店","住所":"〒275-0028 千葉県習志野市奏の杜２丁目１−１","ステータス":"APP_DISPLAY","region":"Narashino","lat":35.688477,"lng":140.01535},{"店舗名":"チキン・ウイングストリート 奏の杜フォルテ津田沼店","住所":"〒275-0028 千葉県習志野市奏の杜２丁目１−１","ステータス":"APP_DISPLAY","region":"Narashino","lat":35.688477,"lng":140.01535},{"店舗名":"トスカーニパスタ 奏の杜フォルテ津田沼店","住所":"〒275-0028 千葉県習志野市奏の杜２丁目１−１","ステータス":"APP_DISPLAY","region":"Narashino","lat":35.688477,"lng":140.01535},{"店舗名":"笑心わらころ","住所":"習志野市実籾5-5-14","ステータス":"RECEIPT","region":"Narashino","lat":35.690716,"lng":140.069107},{"店舗名":"珈琲館 イオンモール津田沼店","住所":"千葉県習志野市","ステータス":"APP_DISPLAY","region":"Narashino","lat":35.68166,"lng":140.027267},{"店舗名":"アジアンダイニング＆バー グレートアジア","住所":"千葉県習志野市実籾５丁目８－８","ステータス":"APP_DISPLAY","region":"Narashino","lat":35.688183,"lng":140.068344},{"店舗名":"EVERYDAYBURG〜食べるソースのハンバーグカフェ〜","住所":"〒275-0016","ステータス":"APP_DISPLAY","region":"Narashino","lat":35.689049,"lng":140.024994}]