[{"店舗名":"ケンタッキーフライドチキン オリンピック新座店","住所":"〒350-0005 埼玉県新座市中野２丁目１−３８","ステータス":"APP_DISPLAY","region":"Niiza","lat":35.817535,"lng":139.549271},{"店舗名":"極太麻婆春雨　埼玉入間川店","住所":"〒350-1305 埼玉県新座市東北１丁目１−３","ステータス":"APP_DISPLAY","region":"Niiza","lat":35.816628,"lng":139.569504},{"店舗名":"WAGYU-S　埼玉入間川店","住所":"〒350-1305 埼玉県新座市東北１丁目１−３","ステータス":"APP_DISPLAY","region":"Niiza","lat":35.816628,"lng":139.569504},{"店舗名":"橋もと","住所":"〒352-0001","ステータス":"APP_DISPLAY","region":"Niiza","lat":35.819397,"lng":139.570251},{"店舗名":"居酒屋dining湊","住所":"〒352-0001","ステータス":"APP_DISPLAY","region":"Niiza","lat":35.819397,"lng":139.570251},{"店舗名":"アサイー工房　志木店","住所":"〒352-0001 埼玉県新座市東北","ステータス":"APP_DISPLAY","region":"Niiza","lat":35.819397,"lng":139.570251},{"店舗名":"【サクッと爆上げ!!爆盛鶏唐丼】唐揚げ商店鳥一ミート 新座東北店","住所":"〒352-0001 埼玉県新座市東北１丁目","ステータス":"APP_DISPLAY","region":"Niiza","lat":35.819397,"lng":139.570251},{"店舗名":"100時間煮込んだ伝統角煮丼　志木店","住所":"〒352-0001 埼玉県新座市東北１丁目１−３","ステータス":"APP_DISPLAY","region":"Niiza","lat":35.816628,"lng":139.569504},{"店舗名":"BUGSY","住所":"〒352-0001 埼玉県新座市東北１丁目１４−１","ステータス":"APP_DISPLAY","region":"Niiza","lat":35.82251,"lng":139.572784},{"店舗名":"ジャンクガレッジ 志木駅南口店","住所":"〒352-0001 埼玉県新座市東北１丁目１４−１","ステータス":"APP_DISPLAY","region":"Niiza","lat":35.82251,"lng":139.572784},{"店舗名":"韓国伝統料理 チャングム","住所":"〒352-0001 埼玉県新座市東北2-12-7","ステータス":"APP_DISPLAY","region":"Niiza","lat":35.817715,"lng":139.57283},{"店舗名":"谷島屋","住所":"〒352-0001 埼玉県新座市東北2-29-22","ステータス":"APP_DISPLAY","region":"Niiza","lat":35.821781,"lng":139.573029},{"店舗名":"中国菜はつがい麻婆豆腐店","住所":"〒352-0001 埼玉県新座市東北２丁目１２−７","ステータス":"RECEIPT","region":"Niiza","lat":35.817715,"lng":139.57283},{"店舗名":"和食のお店せきね","住所":"〒352-0001 埼玉県新座市東北２丁目１−４ プリムドール 1階","ステータス":"APP_DISPLAY","region":"Niiza","lat":35.815918,"lng":139.569824},{"店舗名":"イタリアン マルミット Marmite","住所":"〒352-0001 埼玉県新座市東北２丁目１４−１７","ステータス":"APP_DISPLAY","region":"Niiza","lat":35.818241,"lng":139.572083},{"店舗名":"オラの酒場 KURO KITCHEN","住所":"〒352-0001 埼玉県新座市東北２丁目２３−８","ステータス":"APP_DISPLAY","region":"Niiza","lat":35.819363,"lng":139.575928},{"店舗名":"【本場沖縄のタコライス】THE TACORICE HOUSE 東北2丁目2号店","住所":"〒352-0001 埼玉県新座市東北２丁目２４−２０","ステータス":"APP_DISPLAY","region":"Niiza","lat":35.819336,"lng":139.576218},{"店舗名":"ホアン アン クアン","住所":"〒352-0001 埼玉県新座市東北２丁目３０ー２５","ステータス":"APP_DISPLAY","region":"Niiza","lat":35.820927,"lng":139.573425},{"店舗名":"ZAAP ISAN ThaiYatai","住所":"〒352-0001 埼玉県新座市東北２丁目３０−２５","ステータス":"APP_DISPLAY","region":"Niiza","lat":35.820927,"lng":139.573425},{"店舗名":"風風ラーメン 志木南口店","住所":"〒352-0001 埼玉県新座市東北２丁目３０−２６","ステータス":"APP_DISPLAY","region":"Niiza","lat":35.820801,"lng":139.57338},{"店舗名":"台湾料理 味來","住所":"〒352-0001 埼玉県新座市東北２丁目３１−３","ステータス":"APP_DISPLAY","region":"Niiza","lat":35.820663,"lng":139.573547},{"店舗名":"七宝麻辣湯チーパオマーラータン 志木店","住所":"〒352-0001 埼玉県新座市東北２丁目３１−８","ステータス":"APP_DISPLAY","region":"Niiza","lat":35.821301,"lng":139.573868},{"店舗名":"【からあげグランプリ金賞受賞】とりいちず 志木南口店","住所":"〒352-0001 埼玉県新座市東北２丁目３７−１１ プロスペールいそかわビル 2F","ステータス":"RECEIPT","region":"Niiza","lat":35.822266,"lng":139.573776},{"店舗名":"串カツ田中 志木店","住所":"〒352-0001 埼玉県新座市東北２丁目３７−１７","ステータス":"APP_DISPLAY","region":"Niiza","lat":35.822582,"lng":139.573135},{"店舗名":"大盛スタミナ肉丼 ニンニク野郎 志木店","住所":"〒352-0001 埼玉県新座市東北２丁目３７−１７ 城北ビル","ステータス":"APP_DISPLAY","region":"Niiza","lat":35.822582,"lng":139.573135},{"店舗名":"吉野家 志木南口店","住所":"〒352-0001 埼玉県新座市東北２丁目３８−１","ステータス":"APP_DISPLAY","region":"Niiza","lat":35.821899,"lng":139.575302},{"店舗名":"回転寿司みさき エキア志木店","住所":"〒352-0001 埼玉県新座市東北２丁目３８−１","ステータス":"APP_DISPLAY","region":"Niiza","lat":35.821899,"lng":139.575302},{"店舗名":"しあわせのビーフカレー もう～とりこ エキア志木店","住所":"〒352-0001 埼玉県新座市東北２丁目３８−１０","ステータス":"APP_DISPLAY","region":"Niiza","lat":35.822632,"lng":139.575317},{"店舗名":"ケンタッキーフライドチキン 志木南口駅前店","住所":"〒352-0001 埼玉県新座市東北２丁目３８－２","ステータス":"APP_DISPLAY","region":"Niiza","lat":35.822872,"lng":139.574188},{"店舗名":"Segafredo Zanetti Espreso shiki","住所":"〒352-0001 埼玉県新座市東北２丁目３９−１０","ステータス":"APP_DISPLAY","region":"Niiza","lat":35.823109,"lng":139.575531},{"店舗名":"Mr.チキン 志木店 x 今日はおむすびの日","住所":"〒352-0001埼玉県新座市東北１－１－３","ステータス":"APP_DISPLAY","region":"Niiza","lat":35.816628,"lng":139.569504},{"店舗名":"ステーキのどん　新座店","住所":"〒352-0002 埼玉県新座市東１丁目１−３","ステータス":"APP_DISPLAY","region":"Niiza","lat":35.811054,"lng":139.566116},{"店舗名":"ニムタ 志木店 NIMTA Shiki","住所":"〒352-0002 埼玉県新座市東２-１-３","ステータス":"APP_DISPLAY","region":"Niiza","lat":35.812782,"lng":139.567307},{"店舗名":"居酒屋　イロイロ","住所":"〒352-0003 埼玉県新座市北野３丁目１−３０","ステータス":"APP_DISPLAY","region":"Niiza","lat":35.818378,"lng":139.568665},{"店舗名":"イロイロ","住所":"〒352-0003埼玉県新座市北野３－１－３１","ステータス":"APP_DISPLAY","region":"Niiza","lat":35.818405,"lng":139.568817},{"店舗名":"大和田らーめん","住所":"〒352-0004 埼玉県新座市大和田４丁目２−３","ステータス":"APP_DISPLAY","region":"Niiza","lat":35.810658,"lng":139.550674},{"店舗名":"THE ISLAND BOWL","住所":"〒352-0005 埼玉県新座市中野２丁目２−２６ マクドナルド敷地","ステータス":"APP_DISPLAY","region":"Niiza","lat":35.819569,"lng":139.549973},{"店舗名":"王朝飯店","住所":"〒352-0005 埼玉県新座市中野２丁目４−４８","ステータス":"APP_DISPLAY","region":"Niiza","lat":35.815636,"lng":139.547684},{"店舗名":"サニーベジテラス　コーヒー","住所":"〒352-0011","ステータス":"APP_DISPLAY","region":"Niiza","lat":35.792492,"lng":139.567062},{"店舗名":"和牛100%ゴロゴロお肉の牛タコライス新座店","住所":"〒352-0011 埼玉県新座市野火止","ステータス":"APP_DISPLAY","region":"Niiza","lat":35.792492,"lng":139.567062},{"店舗名":"利源　山東大煎餅","住所":"〒352-0011 埼玉県新座市野火止","ステータス":"APP_DISPLAY","region":"Niiza","lat":35.792492,"lng":139.567062},{"店舗名":"門福 新座店","住所":"〒352-0011 埼玉県新座市野火止","ステータス":"APP_DISPLAY","region":"Niiza","lat":35.792492,"lng":139.567062},{"店舗名":"インドレストラン チャンダニ","住所":"〒352-0011 埼玉県新座市野火止１丁目１３−４７","ステータス":"APP_DISPLAY","region":"Niiza","lat":35.791519,"lng":139.568085},{"店舗名":"油そば 豚魂 新座店","住所":"〒352-0011 埼玉県新座市野火止１丁目１３−４７","ステータス":"APP_DISPLAY","region":"Niiza","lat":35.791519,"lng":139.568085},{"店舗名":"韓国ジャージャー麵 梨泰院トンバンジャージャー麵 新座店","住所":"〒352-0011 埼玉県新座市野火止１丁目１３−４７","ステータス":"APP_DISPLAY","region":"Niiza","lat":35.791519,"lng":139.568085},{"店舗名":"ヤンニョムチキン&チーズキンパ 梨泰院トンバンキンパ!! 新座店","住所":"〒352-0011 埼玉県新座市野火止１丁目１３−４７","ステータス":"APP_DISPLAY","region":"Niiza","lat":35.791519,"lng":139.568085},{"店舗名":"チキチキメンチ","住所":"〒352-0011 埼玉県新座市野火止１丁目１４−１０","ステータス":"APP_DISPLAY","region":"Niiza","lat":35.793488,"lng":139.567383},{"店舗名":"吉野家 254号線新座店","住所":"〒352-0011 埼玉県新座市野火止１丁目７−２０","ステータス":"APP_DISPLAY","region":"Niiza","lat":35.796917,"lng":139.568039},{"店舗名":"ペッシェ ピアット えのき","住所":"〒352-0011 埼玉県新座市野火止４丁目１−２２","ステータス":"APP_DISPLAY","region":"Niiza","lat":35.794788,"lng":139.565384},{"店舗名":"からあげの鉄人 新座駅前店","住所":"〒352-0011 埼玉県新座市野火止５丁目２−１０","ステータス":"APP_DISPLAY","region":"Niiza","lat":35.80257,"lng":139.556412},{"店舗名":"大衆鰻 うな銀 新座駅前店","住所":"〒352-0011 埼玉県新座市野火止５丁目２−１０","ステータス":"APP_DISPLAY","region":"Niiza","lat":35.80257,"lng":139.556412},{"店舗名":"魚民 新座駅前店","住所":"〒352-0011 埼玉県新座市野火止５丁目２−１０","ステータス":"APP_DISPLAY","region":"Niiza","lat":35.80257,"lng":139.556412},{"店舗名":"カミナリステーキ 新座駅前店","住所":"〒352-0011 埼玉県新座市野火止５丁目２−１０","ステータス":"APP_DISPLAY","region":"Niiza","lat":35.80257,"lng":139.556412},{"店舗名":"韓国クリスピーチキン＆HOTドッグ　チキンモッコパ 新座駅前店","住所":"〒352-0011 埼玉県新座市野火止５丁目２−１０","ステータス":"APP_DISPLAY","region":"Niiza","lat":35.80257,"lng":139.556412},{"店舗名":"Kitchen-King","住所":"〒352-0011 埼玉県新座市野火止５丁目３−１１","ステータス":"APP_DISPLAY","region":"Niiza","lat":35.804676,"lng":139.555557},{"店舗名":"リンガーハット 埼玉新座店","住所":"〒352-0011 埼玉県新座市野火止６丁目３−３５","ステータス":"APP_DISPLAY","region":"Niiza","lat":35.802738,"lng":139.560165},{"店舗名":"かつや 新座野火止店","住所":"〒352-0011 埼玉県新座市野火止７丁目３−５","ステータス":"APP_DISPLAY","region":"Niiza","lat":35.798435,"lng":139.564636},{"店舗名":"スパゲッティーのパンチョ新座野火止店","住所":"〒352-0011 埼玉県新座市野火止７丁目４−９","ステータス":"APP_DISPLAY","region":"Niiza","lat":35.798992,"lng":139.563232},{"店舗名":"ケンタッキーフライドチキン 新座野火止店","住所":"〒352-0011 埼玉県新座市野火止８丁目１−１６","ステータス":"APP_DISPLAY","region":"Niiza","lat":35.797478,"lng":139.567169},{"店舗名":"蔵出し味噌 門左衛門 新座店","住所":"〒352-0011 埼玉県新座市野火止８丁目３−１１","ステータス":"APP_DISPLAY","region":"Niiza","lat":35.795856,"lng":139.571182},{"店舗名":"コナズ珈琲 新座店","住所":"〒352-0012 埼玉県新座市畑中１丁目１５−３７","ステータス":"APP_DISPLAY","region":"Niiza","lat":35.785587,"lng":139.574921},{"店舗名":"ケンタッキーフライドチキン いなげや大泉学園店","住所":"〒352-0014 埼玉県新座市栄４丁目１−２６","ステータス":"APP_DISPLAY","region":"Niiza","lat":35.776833,"lng":139.585709},{"店舗名":"蘭亭","住所":"〒352-0014 埼玉県新座市栄４丁目５−１","ステータス":"APP_DISPLAY","region":"Niiza","lat":35.775387,"lng":139.585846},{"店舗名":"丸源ラーメン 新座片山店","住所":"〒352-0024 埼玉県新座市道場２丁目１２−７","ステータス":"APP_DISPLAY","region":"Niiza","lat":35.770641,"lng":139.56485},{"店舗名":"キッチンメリー","住所":"〒352-0025 埼玉県新座市片山１丁目２−２７","ステータス":"APP_DISPLAY","region":"Niiza","lat":35.771801,"lng":139.567505},{"店舗名":"NAベトナム料理","住所":"〒352-0032 埼玉県新座市新堀３丁目２−２","ステータス":"APP_DISPLAY","region":"Niiza","lat":35.768433,"lng":139.525558},{"店舗名":"【肉汁うどんが人気】打豚骨  350","住所":"〒352-0035 埼玉県新座市栗原３丁目６−２５","ステータス":"APP_DISPLAY","region":"Niiza","lat":35.758617,"lng":139.549667},{"店舗名":"手打ちうどんわだや","住所":"〒352-0035 埼玉県新座市栗原３丁目８−２８","ステータス":"APP_DISPLAY","region":"Niiza","lat":35.760841,"lng":139.549942},{"店舗名":"麺処 盛盛 ひばりヶ丘店","住所":"〒352-0035 埼玉県新座市栗原６丁目３−１","ステータス":"APP_DISPLAY","region":"Niiza","lat":35.758656,"lng":139.549545},{"店舗名":"釜山のり巻","住所":"埼玉県新座市北野3-2-12","ステータス":"APP_DISPLAY","region":"Niiza","lat":35.817799,"lng":139.566788},{"店舗名":"お弁当わかば","住所":"埼玉県新座市北野３丁目３−３","ステータス":"APP_DISPLAY","region":"Niiza","lat":35.817291,"lng":139.565979}]