[{"店舗名":"さくらナンカレーハウス","住所":"〒480-0102 愛知県丹羽郡扶桑町高雄天道8−８","ステータス":"RECEIPT","region":"Niwa District","lat":35.361923,"lng":136.914795},{"店舗名":"熟成豚骨一番軒アクロスプラザ扶桑店","住所":"〒480-0102 愛知県丹羽郡扶桑町高雄下野７","ステータス":"RECEIPT","region":"Niwa District","lat":35.365032,"lng":136.921814},{"店舗名":"MAA DURGA","住所":"〒480-0104 愛知県丹羽郡扶桑町斎藤本郷屋敷198","ステータス":"RECEIPT","region":"Niwa District","lat":35.353809,"lng":136.904297},{"店舗名":"シャルドン扶桑店","住所":"〒480-0107","ステータス":"APP_DISPLAY","region":"Niwa District","lat":35.359074,"lng":136.909821},{"店舗名":"ビンディ 扶桑店","住所":"〒480-0107 愛知県丹羽郡扶桑町高木吉山８０３","ステータス":"APP_DISPLAY","region":"Niwa District","lat":35.359989,"lng":136.906693},{"店舗名":"ビンディ　本格無添加インド料理 Bindi India restaurant","住所":"〒480-0107 愛知県丹羽郡扶桑町高木吉山８０３","ステータス":"RECEIPT","region":"Niwa District","lat":35.359989,"lng":136.906693},{"店舗名":"アジアンキッチンからうま　大口店","住所":"〒480-0142","ステータス":"APP_DISPLAY","region":"Niwa District","lat":35.346416,"lng":136.914932},{"店舗名":"中国料理　九龍居　大口店","住所":"〒480-0142 愛知県丹羽郡大口町中小口","ステータス":"APP_DISPLAY","region":"Niwa District","lat":35.346416,"lng":136.914932},{"店舗名":"かつや 愛知大口町店","住所":"〒480-0142 愛知県丹羽郡大口町中小口３丁目３１３−２","ステータス":"APP_DISPLAY","region":"Niwa District","lat":35.337948,"lng":136.92308},{"店舗名":"G99 RESTAURANT","住所":"〒480-0144 愛知県丹羽郡大口町下小口","ステータス":"RECEIPT","region":"Niwa District","lat":35.338821,"lng":136.910553},{"店舗名":"ぴろりんキッチン","住所":"〒480-0146 愛知県丹羽郡大口町余野３丁目５８６","ステータス":"RECEIPT","region":"Niwa District","lat":35.341194,"lng":136.910614}]