[{"店舗名":"がぶっとごっくん","住所":"〒474-0023 愛知県大府市大東町１丁目３６６","ステータス":"APP_DISPLAY","region":"Obu","lat":35.010395,"lng":136.972763},{"店舗名":"インドネシア料理Warung Rupa-Rupa","住所":"〒474-0027","ステータス":"APP_DISPLAY","region":"Obu","lat":35.030212,"lng":136.958176},{"店舗名":"ドミノ・ピザ 大府江端町","住所":"〒474-0035 愛知県大府市江端町２丁目６ プラシード柊山","ステータス":"APP_DISPLAY","region":"Obu","lat":35.012207,"lng":136.954178},{"店舗名":"カリーゾーン 大府店","住所":"〒474-0035 愛知県大府市江端町４丁目１９","ステータス":"APP_DISPLAY","region":"Obu","lat":35.01292,"lng":136.952789},{"店舗名":"ワンハンドレッドベーカリー大府 WANHANDBAKERYOBU","住所":"〒474-0035 愛知県大府市江端町４丁目６０","ステータス":"RECEIPT","region":"Obu","lat":35.012775,"lng":136.953384},{"店舗名":"ドウターリアジアンレストラン 大府店","住所":"〒474-0037","ステータス":"APP_DISPLAY","region":"Obu","lat":35.006351,"lng":136.941772},{"店舗名":"冨田屋ハッピータウンCREMIA CAFE","住所":"〒474-0056  愛知県大府市明成町３－２４２－１","ステータス":"APP_DISPLAY","region":"Obu","lat":35.023426,"lng":136.949799},{"店舗名":"居酒屋ーICHI","住所":"〒474-0061","ステータス":"APP_DISPLAY","region":"Obu","lat":35.039486,"lng":136.952026},{"店舗名":"もてなし源旬や","住所":"〒474-0061 愛知県大府市共和町２丁目１７−１１","ステータス":"APP_DISPLAY","region":"Obu","lat":35.035011,"lng":136.953415},{"店舗名":"ベトナム料理PHAO RESTAURANT","住所":"〒474-0071 愛知県大府市梶田町２丁目２９−１","ステータス":"APP_DISPLAY","region":"Obu","lat":35.040237,"lng":136.96666},{"店舗名":"いちご農家直営カフェ Klabocafe","住所":"〒474-0072 愛知県大府市北山町３丁目７５","ステータス":"APP_DISPLAY","region":"Obu","lat":35.031902,"lng":136.970123},{"店舗名":"中国菜館味味大府店","住所":"〒474-0072 愛知県大府市北山町３丁目８０−１","ステータス":"APP_DISPLAY","region":"Obu","lat":35.031902,"lng":136.970123},{"店舗名":"”泊まれる\"居酒屋Imura","住所":"〒474-0073 愛知県大府市東新町３丁目６８","ステータス":"APP_DISPLAY","region":"Obu","lat":35.031258,"lng":136.955765}]