[{"店舗名":"おつまみダイニング阿・光","住所":"〒904-0001 沖縄県沖縄市越来１丁目１−３３","ステータス":"RECEIPT","region":"Okinawa","lat":26.34347,"lng":127.813515},{"店舗名":"cafeキッチン　花","住所":"〒904-0003","ステータス":"RECEIPT","region":"Okinawa","lat":26.339279,"lng":127.809914},{"店舗名":"STAR BAR","住所":"〒904-0004","ステータス":"RECEIPT","region":"Okinawa","lat":26.33708,"lng":127.799782},{"店舗名":"素材の旨味感じるハンバーガー HARVEST HAMBURGERコザ店","住所":"〒904-0004 沖縄県沖縄市中央","ステータス":"RECEIPT","region":"Okinawa","lat":26.33708,"lng":127.799782},{"店舗名":"ニーハオ酒場 ちゃおちゃお","住所":"〒904-0004 沖縄県沖縄市中央","ステータス":"RECEIPT","region":"Okinawa","lat":26.33708,"lng":127.799782},{"店舗名":"麺と飯ソウハチヤ コザ店","住所":"〒904-0004 沖縄県沖縄市中央","ステータス":"RECEIPT","region":"Okinawa","lat":26.33708,"lng":127.799782},{"店舗名":"GIN CHEF TURKISH KITCHEN（ギンシェフターキッシュキッチン）","住所":"〒904-0004 沖縄県沖縄市中央1-7-17","ステータス":"RECEIPT","region":"Okinawa","lat":26.336517,"lng":127.800499},{"店舗名":"カロリーの爆弾","住所":"〒904-0004 沖縄県沖縄市中央１丁目１０−７ 中央卸売市場 105号","ステータス":"RECEIPT","region":"Okinawa","lat":26.336185,"lng":127.799301},{"店舗名":"居酒屋 ドラキン","住所":"〒904-0004 沖縄県沖縄市中央１丁目１７−１９","ステータス":"RECEIPT","region":"Okinawa","lat":26.337254,"lng":127.800858},{"店舗名":"TANK/DINER","住所":"〒904-0004 沖縄県沖縄市中央２丁目６−５","ステータス":"RECEIPT","region":"Okinawa","lat":26.338463,"lng":127.799011},{"店舗名":"Loco Island","住所":"〒904-0004 沖縄県沖縄市中央２丁目７−４１","ステータス":"RECEIPT","region":"Okinawa","lat":26.339685,"lng":127.799469},{"店舗名":"KOZA DINER Luck","住所":"〒904-0004 沖縄県沖縄市中央３丁目１５−２","ステータス":"RECEIPT","region":"Okinawa","lat":26.338594,"lng":127.800758},{"店舗名":"Asian Spice & Sweets Houseアジアンスパイス&スイーツハウス","住所":"〒904-0011 沖縄県沖縄市照屋","ステータス":"RECEIPT","region":"Okinawa","lat":26.336987,"lng":127.815315},{"店舗名":"Orso Campo","住所":"〒904-0021 沖縄県沖縄市胡屋２丁目１−６７","ステータス":"RECEIPT","region":"Okinawa","lat":26.334272,"lng":127.799561},{"店舗名":"CAFE REWARD【こだわり生パスタのお店】","住所":"〒904-0021 沖縄県沖縄市胡屋７丁目１−１８","ステータス":"RECEIPT","region":"Okinawa","lat":26.325382,"lng":127.810165},{"店舗名":"Brother's Rock　ブラザーズロック","住所":"〒904-0022 沖縄県沖縄市園田３丁目６−１３","ステータス":"RECEIPT","region":"Okinawa","lat":26.328911,"lng":127.794434},{"店舗名":"LA.LA.STYLE Cafe","住所":"〒904-0023 沖縄県沖縄市久保田３丁目１１−１","ステータス":"RECEIPT","region":"Okinawa","lat":26.318275,"lng":127.793533},{"店舗名":"BLACK GROVE RIBS","住所":"〒904-0031","ステータス":"RECEIPT","region":"Okinawa","lat":26.334595,"lng":127.797577},{"店舗名":"ルーラーズタコライス　コザ店　 RuLer's TACORiCE KOZA","住所":"〒904-0031 沖縄県沖縄市上地","ステータス":"RECEIPT","region":"Okinawa","lat":26.334595,"lng":127.797577},{"店舗名":"BAR LAZY BONES","住所":"〒904-0031 沖縄県沖縄市上地","ステータス":"RECEIPT","region":"Okinawa","lat":26.334595,"lng":127.797577},{"店舗名":"大衆鉄板酒場着火","住所":"〒904-0031 沖縄県沖縄市上地１丁目","ステータス":"RECEIPT","region":"Okinawa","lat":26.334595,"lng":127.797577},{"店舗名":"宮古そば 愛　Miyako soba ai","住所":"〒904-0031 沖縄県沖縄市上地１丁目１４−６","ステータス":"RECEIPT","region":"Okinawa","lat":26.333071,"lng":127.796707},{"店舗名":"Donald's Poke Shop","住所":"〒904-0031 沖縄県沖縄市上地１丁目１６−２","ステータス":"RECEIPT","region":"Okinawa","lat":26.333742,"lng":127.797729},{"店舗名":"【パスタとジャークチキン】FoodBar#Taro","住所":"〒904-0031 沖縄県沖縄市上地１丁目１６−８","ステータス":"RECEIPT","region":"Okinawa","lat":26.334116,"lng":127.797409},{"店舗名":"GOYA CAKE Jr.","住所":"〒904-0031 沖縄県沖縄市上地１丁目５−１７","ステータス":"RECEIPT","region":"Okinawa","lat":26.336346,"lng":127.796684},{"店舗名":"金城商店 串かつと焼きそば","住所":"〒904-0032","ステータス":"RECEIPT","region":"Okinawa","lat":26.330706,"lng":127.792564},{"店舗名":"おつまみdining Laria","住所":"〒904-0032 沖縄県沖縄市諸見里１丁目１−２７","ステータス":"RECEIPT","region":"Okinawa","lat":26.330292,"lng":127.795135},{"店舗名":"大衆中華　足立屋","住所":"〒904-0035 沖縄県沖縄市南桃原１丁目９−３","ステータス":"RECEIPT","region":"Okinawa","lat":26.320215,"lng":127.784958},{"店舗名":"テイクアウト専門店プラス１","住所":"〒904-0035 沖縄県沖縄市南桃原２丁目１０−３","ステータス":"RECEIPT","region":"Okinawa","lat":26.319853,"lng":127.782074},{"店舗名":"元祖からあげ本舗まるたけ 登川店","住所":"〒904-2142 沖縄県沖縄市登川２丁目３−２","ステータス":"RECEIPT","region":"Okinawa","lat":26.363892,"lng":127.822342},{"店舗名":"YOSHIMOTO COFFEE","住所":"〒904-2143","ステータス":"RECEIPT","region":"Okinawa","lat":26.359909,"lng":127.816879},{"店舗名":"Jerk chicken&Over rice Tank","住所":"〒904-2143 沖縄県沖縄市知花１丁目２５−５","ステータス":"RECEIPT","region":"Okinawa","lat":26.360731,"lng":127.818382},{"店舗名":"キーズカフェ沖縄なかがみ西病院店","住所":"〒904-2143 沖縄県沖縄市知花６丁目２５−５","ステータス":"RECEIPT","region":"Okinawa","lat":26.36437,"lng":127.816345},{"店舗名":"【アサイーボウル】mom’s acai（マムズ アサイー）","住所":"〒904-2151 沖縄県沖縄市松本","ステータス":"RECEIPT","region":"Okinawa","lat":26.355064,"lng":127.815201},{"店舗名":"大衆食堂　つかでん","住所":"〒904-2151 沖縄県沖縄市松本","ステータス":"RECEIPT","region":"Okinawa","lat":26.355064,"lng":127.815201},{"店舗名":"まつもと食堂","住所":"〒904-2151 沖縄県沖縄市松本６丁目９−９","ステータス":"RECEIPT","region":"Okinawa","lat":26.356037,"lng":127.806686},{"店舗名":"焼肉 びーばー yakinikubeaver","住所":"〒904-2153 沖縄県沖縄市美里","ステータス":"RECEIPT","region":"Okinawa","lat":26.341375,"lng":127.816307},{"店舗名":"台湾料理 福楽 美里店","住所":"〒904-2153 沖縄県沖縄市美里３丁目９−５","ステータス":"RECEIPT","region":"Okinawa","lat":26.348314,"lng":127.811729},{"店舗名":"HAMBURG THE BUTLER","住所":"〒904-2154","ステータス":"RECEIPT","region":"Okinawa","lat":26.342495,"lng":127.820938},{"店舗名":"CORECURRY 美原本店","住所":"〒904-2155 沖縄県沖縄市美原","ステータス":"RECEIPT","region":"Okinawa","lat":26.347721,"lng":127.821449},{"店舗名":"DER　BURG","住所":"〒904-2155 沖縄県沖縄市美原１丁目","ステータス":"RECEIPT","region":"Okinawa","lat":26.347721,"lng":127.821449},{"店舗名":"ひとさら屋 想 沖縄市美原店","住所":"〒904-2155 沖縄県沖縄市美原２丁目１−２２","ステータス":"RECEIPT","region":"Okinawa","lat":26.34317,"lng":127.81855},{"店舗名":"沖縄産パイナップル専門スイーツ店『Fine_Pine_Time』","住所":"〒904-2156 沖縄県沖縄市美里仲原町１−２６","ステータス":"RECEIPT","region":"Okinawa","lat":26.348314,"lng":127.825119},{"店舗名":"ZakimiTuanMart-Okinawa","住所":"〒904-2163","ステータス":"RECEIPT","region":"Okinawa","lat":26.328417,"lng":127.82},{"店舗名":"yoru  ya-ru-","住所":"〒904-2163 沖縄県沖縄市大里","ステータス":"RECEIPT","region":"Okinawa","lat":26.328417,"lng":127.82},{"店舗名":"ドコデモタコス　宮里店","住所":"〒904-2165 沖縄県沖縄市宮里３丁目","ステータス":"RECEIPT","region":"Okinawa","lat":26.337341,"lng":127.822319},{"店舗名":"アワセそば食堂","住所":"〒904-2171 沖縄県沖縄市高原","ステータス":"RECEIPT","region":"Okinawa","lat":26.32543,"lng":127.813232},{"店舗名":"いまここおむすびや","住所":"〒904-2171 沖縄県沖縄市高原２丁目６−３７","ステータス":"RECEIPT","region":"Okinawa","lat":26.326036,"lng":127.816086},{"店舗名":"パーラーうさぎ","住所":"〒904-2171 沖縄県沖縄市高原５丁目１８−１５","ステータス":"RECEIPT","region":"Okinawa","lat":26.321323,"lng":127.827576},{"店舗名":"ミルクティー専門店【everybody Milktea　okinawa】","住所":"〒904-2172","ステータス":"RECEIPT","region":"Okinawa","lat":26.321293,"lng":127.83741},{"店舗名":"米八そば","住所":"〒904-2172 沖縄県沖縄市泡瀬","ステータス":"RECEIPT","region":"Okinawa","lat":26.321293,"lng":127.83741},{"店舗名":"韓風創酒家 蓮","住所":"〒904-2172 沖縄県沖縄市泡瀬","ステータス":"RECEIPT","region":"Okinawa","lat":26.321293,"lng":127.83741},{"店舗名":"和食と蕎麦・稲庭うどん 山本","住所":"〒904-2172 沖縄県沖縄市泡瀬２丁目１７−１７","ステータス":"RECEIPT","region":"Okinawa","lat":26.320177,"lng":127.834816},{"店舗名":"手作りうちな〜弁当【はなちゃん弁当】","住所":"〒904-2172 沖縄県沖縄市泡瀬３丁目１９−２９","ステータス":"RECEIPT","region":"Okinawa","lat":26.316036,"lng":127.831284},{"店舗名":"PAL yogurt","住所":"〒904-2172 沖縄県沖縄市泡瀬３丁目３９−１７ インテルメッツォビル","ステータス":"RECEIPT","region":"Okinawa","lat":26.314695,"lng":127.834671},{"店舗名":"カスタマンダップ泡瀬店","住所":"〒904-2172 沖縄県沖縄市泡瀬４丁目２１−１２","ステータス":"RECEIPT","region":"Okinawa","lat":26.316624,"lng":127.83036},{"店舗名":"tacos amacuma (アマクマ タコス)","住所":"〒904-2172 沖縄県沖縄市泡瀬５丁目２１−２","ステータス":"RECEIPT","region":"Okinawa","lat":26.326401,"lng":127.830872},{"店舗名":"GOOD EATS Chicken Sandwich【絶品ハンバーガー】Hamburger","住所":"〒904-2173 沖縄県沖縄市比屋根７丁目２６−５ ストレージタウンアワセ B23","ステータス":"RECEIPT","region":"Okinawa","lat":26.319,"lng":127.813179},{"店舗名":"バッファローウィング専門 比屋根店","住所":"〒904-2173 沖縄県沖縄市比屋根７丁目６−７","ステータス":"RECEIPT","region":"Okinawa","lat":26.32159,"lng":127.810043},{"店舗名":"ひかり食堂 与儀店","住所":"〒904-2174 沖縄県沖縄市与儀３丁目２１−７","ステータス":"RECEIPT","region":"Okinawa","lat":26.305628,"lng":127.812073},{"店舗名":"広島お好み焼き赤いへるめっと","住所":"〒904-2214 沖縄県沖縄市比屋根１丁目１４−１６","ステータス":"RECEIPT","region":"Okinawa","lat":26.315258,"lng":127.822968}]