[{"店舗名":"夜Cafe〜k〜","住所":"〒856-0026 長崎県大村市池田２丁目１３８６−１","ステータス":"RECEIPT","region":"Omura","lat":32.933746,"lng":129.970367},{"店舗名":"オリーブママのから揚げ","住所":"〒856-0801 長崎県大村市寿古町３０６−２","ステータス":"RECEIPT","region":"Omura","lat":32.96809,"lng":129.93631},{"店舗名":"カレーレストラン ナマステ富の原店","住所":"〒856-0806","ステータス":"RECEIPT","region":"Omura","lat":32.938309,"lng":129.936462},{"店舗名":"プリン専門店mojito","住所":"〒856-0806 長崎県大村市富の原2丁目207-1","ステータス":"RECEIPT","region":"Omura","lat":32.943546,"lng":129.940872},{"店舗名":"ONE HAND","住所":"〒856-0806 長崎県大村市富の原２丁目３１２−１","ステータス":"RECEIPT","region":"Omura","lat":32.944378,"lng":129.939148},{"店舗名":"ひとひ/こびとぱん大村","住所":"〒856-0813 長崎県大村市西本町502-5","ステータス":"RECEIPT","region":"Omura","lat":32.905857,"lng":129.958084},{"店舗名":"協和飯店","住所":"〒856-0815 長崎県大村市森園町1590-2","ステータス":"RECEIPT","region":"Omura","lat":32.92049,"lng":129.942917},{"店舗名":"niko","住所":"〒856-0817 長崎県大村市古賀島町１４４１−２","ステータス":"RECEIPT","region":"Omura","lat":32.926762,"lng":129.941376},{"店舗名":"ribbon","住所":"〒856-0817 長崎県大村市古賀島町525-4","ステータス":"RECEIPT","region":"Omura","lat":32.928535,"lng":129.942749},{"店舗名":"tenten工房","住所":"〒856-0828","ステータス":"RECEIPT","region":"Omura","lat":32.91161,"lng":129.950348},{"店舗名":"ベビーフェイスプラネッツ長崎大村店","住所":"〒856-0828 長崎県大村市杭出津３丁目４０１−１","ステータス":"RECEIPT","region":"Omura","lat":32.916618,"lng":129.950958},{"店舗名":"カジュアルレストラン OLIMAMA","住所":"〒856-0831 長崎県大村市東本町４８１","ステータス":"RECEIPT","region":"Omura","lat":32.908916,"lng":129.961609},{"店舗名":"おべんとう＆ kitchen みしま","住所":"〒856-0832","ステータス":"RECEIPT","region":"Omura","lat":32.906796,"lng":129.959412},{"店舗名":"カレーレストラン ナマステ久原店","住所":"〒856-0835","ステータス":"RECEIPT","region":"Omura","lat":32.893852,"lng":129.962112},{"店舗名":"GinMaru","住所":"〒856-0837","ステータス":"RECEIPT","region":"Omura","lat":32.905731,"lng":129.957214},{"店舗名":"ソフトクリーム専門店 Milfy","住所":"〒856-0837 長崎県大村市西本町568","ステータス":"RECEIPT","region":"Omura","lat":32.906849,"lng":129.957855},{"店舗名":"ROLLN","住所":"〒856-0842 長崎県大村市中里町１３１５－１１","ステータス":"RECEIPT","region":"Omura","lat":32.886978,"lng":129.998383}]