[{"店舗名":"炭焼お肉","住所":"〒143-0001 東京都大田区東海５丁目５−１","ステータス":"APP_DISPLAY","region":"Ota","lat":35.590073,"lng":139.770309},{"店舗名":"ゼッテリア ZETTERIA BIGFUN平和島店","住所":"〒143-0006 東京都大田区平和島１丁目１−１","ステータス":"PENDING","region":"Ota","lat":35.584396,"lng":139.740753},{"店舗名":"シディーク　東京流通センター店","住所":"〒143-0006 東京都大田区平和島６丁目","ステータス":"APP_DISPLAY","region":"Ota","lat":35.579189,"lng":139.749435},{"店舗名":"インド料理　ＳＥＢＩＫＡ　ＫＩＴＣＨＥＮ","住所":"〒143-0011","ステータス":"APP_DISPLAY","region":"Ota","lat":35.584747,"lng":139.737366},{"店舗名":"キュリードシゲール","住所":"〒143-0011","ステータス":"APP_DISPLAY","region":"Ota","lat":35.584747,"lng":139.737366},{"店舗名":"インド料理SEBIKA KITCHEN","住所":"〒143-0011 東京都大田区大森本町２丁目２８−５ ヒロエヤマグチビル","ステータス":"APP_DISPLAY","region":"Ota","lat":35.577705,"lng":139.737137},{"店舗名":"すき家 環七平和島店","住所":"〒143-0011 東京都大田区大森本町２丁目３０−２","ステータス":"PENDING","region":"Ota","lat":35.577492,"lng":139.736389},{"店舗名":"鶴見家 平和島店","住所":"〒143-0011 東京都大田区大森本町２丁目３１−２１","ステータス":"APP_DISPLAY","region":"Ota","lat":35.578285,"lng":139.735641},{"店舗名":"酒香閣","住所":"〒143-0012 東京都大田区大森東１丁目１６−２１ 綱島ビル","ステータス":"APP_DISPLAY","region":"Ota","lat":35.575569,"lng":139.735413},{"店舗名":"エス キッチン","住所":"〒143-0012 東京都大田区大森東１丁目１６−２２ 赤峯ビル 1階","ステータス":"APP_DISPLAY","region":"Ota","lat":35.575699,"lng":139.735489},{"店舗名":"ラーメン大 大森店","住所":"〒143-0012 東京都大田区大森東１丁目３−１２","ステータス":"RECEIPT","region":"Ota","lat":35.57563,"lng":139.734711},{"店舗名":"鯖とだし巻き玉子 石井【鯖】商店","住所":"〒143-0012 東京都大田区大森東１丁目６−６","ステータス":"APP_DISPLAY","region":"Ota","lat":35.577148,"lng":139.735977},{"店舗名":"Hamro chahari ghar(ハムロ チャハリ ガル)","住所":"〒143-0012 東京都大田区大森東２丁目２−１１","ステータス":"APP_DISPLAY","region":"Ota","lat":35.575008,"lng":139.735153},{"店舗名":"まると屋","住所":"〒143-0013 東京都大田区大森南１丁目１８−１４","ステータス":"APP_DISPLAY","region":"Ota","lat":35.562229,"lng":139.739899},{"店舗名":"ロイヤルキッチン ROYAL KITCHEN","住所":"〒143-0013 東京都大田区大森南２丁目２−１８","ステータス":"APP_DISPLAY","region":"Ota","lat":35.562794,"lng":139.74173},{"店舗名":"RuLer's TACORICE （ルーラーズタコライス）","住所":"〒143-0013 東京都大田区大森南４丁目１０−１７","ステータス":"APP_DISPLAY","region":"Ota","lat":35.567181,"lng":139.747925},{"店舗名":"【メガ盛り‼】大盛りからあげお弁当 大森中店","住所":"〒143-0014 東京都大田区大森中","ステータス":"APP_DISPLAY","region":"Ota","lat":35.571148,"lng":139.733383},{"店舗名":"デニーズ 大森中店","住所":"〒143-0014 東京都大田区大森中１丁目１−３","ステータス":"APP_DISPLAY","region":"Ota","lat":35.573021,"lng":139.733994},{"店舗名":"中華居酒屋 慶錦閣 大森町店","住所":"〒143-0014 東京都大田区大森中１丁目１７−２６","ステータス":"APP_DISPLAY","region":"Ota","lat":35.57019,"lng":139.731537},{"店舗名":"華の星","住所":"〒143-0014 東京都大田区大森中2-2-14","ステータス":"APP_DISPLAY","region":"Ota","lat":35.566895,"lng":139.729141},{"店舗名":"アジアンレストラン 大森カレー OmoriCurry","住所":"〒143-0014 東京都大田区大森中２丁目１４−１７","ステータス":"APP_DISPLAY","region":"Ota","lat":35.567341,"lng":139.735626},{"店舗名":"らーめん亭 ひなり竜王","住所":"〒143-0014 東京都大田区大森中２丁目１４−１７ 源八","ステータス":"APP_DISPLAY","region":"Ota","lat":35.567341,"lng":139.735626},{"店舗名":"ドミノ・ピザ 梅屋敷東通り店","住所":"〒143-0014 東京都大田区大森中２丁目１５−２５","ステータス":"APP_DISPLAY","region":"Ota","lat":35.567497,"lng":139.735092},{"店舗名":"うなぎ仙見","住所":"〒143-0014 東京都大田区大森中２丁目２−１","ステータス":"APP_DISPLAY","region":"Ota","lat":35.56773,"lng":139.729752},{"店舗名":"カマロチキン梅屋敷店","住所":"〒143-0014 東京都大田区大森中２丁目２１−５","ステータス":"APP_DISPLAY","region":"Ota","lat":35.567329,"lng":139.731888},{"店舗名":"ASIAN DINING SAINO","住所":"〒143-0014 東京都大田区大森中２丁目２１−５","ステータス":"APP_DISPLAY","region":"Ota","lat":35.567329,"lng":139.731888},{"店舗名":"香港の中華点心まん 龍宮包子（パウズ） Hong Kong Chinese Dim Sum Buns - Dragon Palace Bao Zi 山王店","住所":"〒143-0015","ステータス":"RECEIPT","region":"Ota","lat":35.577538,"lng":139.72467},{"店舗名":"すき家 大田東邦医大通店","住所":"〒143-0015 東京都大田区大森西１丁目８−１７","ステータス":"PENDING","region":"Ota","lat":35.577873,"lng":139.727051},{"店舗名":"パフェメディア学部 Parfait Media 山王店","住所":"〒143-0015 東京都大田区大森西１丁目９-２８","ステータス":"APP_DISPLAY","region":"Ota","lat":35.577835,"lng":139.725601},{"店舗名":"ルーローハンのお店 lur rou fan Pork Rice 豚肉庵 butaniku an 山王店","住所":"〒143-0015 東京都大田区大森西１丁目９−２８","ステータス":"APP_DISPLAY","region":"Ota","lat":35.577835,"lng":139.725601},{"店舗名":"骨肉の旨味！特制牛骨味x肉炒めご飯 Beef Bone Flavour Stir-Fried Meat Rice 山王店","住所":"〒143-0015 東京都大田区大森西１丁目９−２８","ステータス":"APP_DISPLAY","region":"Ota","lat":35.577835,"lng":139.725601},{"店舗名":"Hawaiiアサイーボウル 栄養満点 fruit acai bowl 山王店","住所":"〒143-0015 東京都大田区大森西１丁目９−２８","ステータス":"APP_DISPLAY","region":"Ota","lat":35.577835,"lng":139.725601},{"店舗名":"肉たっぷり大阪名物 - 肉吸い - 特製だし The dish is loaded with meat 山王店","住所":"〒143-0015 東京都大田区大森西１丁目９−２８","ステータス":"APP_DISPLAY","region":"Ota","lat":35.577835,"lng":139.725601},{"店舗名":"ビア鶏唐揚げ 秘伝の味 bier fried chicken 山王店","住所":"〒143-0015 東京都大田区大森西１丁目９−２８","ステータス":"APP_DISPLAY","region":"Ota","lat":35.577835,"lng":139.725601},{"店舗名":"正月餃子「餃子は最高」SYOUGATSU Dumpling 山王店","住所":"〒143-0015 東京都大田区大森西１丁目９−２８","ステータス":"APP_DISPLAY","region":"Ota","lat":35.577835,"lng":139.725601},{"店舗名":"夏の惠み 冷やし中華そば市場chilled CN noodles 山王店","住所":"〒143-0015 東京都大田区大森西１丁目９−２８","ステータス":"APP_DISPLAY","region":"Ota","lat":35.577835,"lng":139.725601},{"店舗名":"好的鴨 いいカモ ii Quack 山王店","住所":"〒143-0015 東京都大田区大森西１丁目９−２８","ステータス":"APP_DISPLAY","region":"Ota","lat":35.577835,"lng":139.725601},{"店舗名":"地元のルーロー麺 台湾屋台料理 local lurou noodles TAIWAN street food 山王店","住所":"〒143-0015 東京都大田区大森西１丁目９−２８","ステータス":"APP_DISPLAY","region":"Ota","lat":35.577835,"lng":139.725601},{"店舗名":"自家特製タレ元気スタミナ丼 stamina bowl 山王店","住所":"〒143-0015 東京都大田区大森西１丁目９−２８","ステータス":"APP_DISPLAY","region":"Ota","lat":35.577835,"lng":139.725601},{"店舗名":"健康と美容 筋トレプロテイン Health and Beauty care Proteion 健康革命 Health Revolution 山王店","住所":"〒143-0015 東京都大田区大森西１丁目９−２８","ステータス":"APP_DISPLAY","region":"Ota","lat":35.577835,"lng":139.725601},{"店舗名":"伝説の台湾南部スペシャル トンポーロー豚骨麺X特製煮込スープ Taiwan special pork noodles 山王店","住所":"〒143-0015 東京都大田区大森西１丁目９−２８","ステータス":"APP_DISPLAY","region":"Ota","lat":35.577835,"lng":139.725601},{"店舗名":"タロ芋圓物語 (Taro Yuyuan Story) 山王店","住所":"〒143-0015 東京都大田区大森西１丁目９−２８","ステータス":"APP_DISPLAY","region":"Ota","lat":35.577835,"lng":139.725601},{"店舗名":"五馬街パオズ(自家製中華まん)Legendary Chinese steamed bun 山王店","住所":"〒143-0015 東京都大田区大森西１丁目９−２８","ステータス":"APP_DISPLAY","region":"Ota","lat":35.577835,"lng":139.725601},{"店舗名":"パワーアップ！！超濃厚バナナジュース バナナxエニシング Banana Juice specialty shop 山王店","住所":"〒143-0015 東京都大田区大森西１丁目９−２８","ステータス":"APP_DISPLAY","region":"Ota","lat":35.577835,"lng":139.725601},{"店舗名":"高菜トントン丼 Takana TonTon Don 山王店","住所":"〒143-0015 東京都大田区大森西１丁目９−２８","ステータス":"APP_DISPLAY","region":"Ota","lat":35.577835,"lng":139.725601},{"店舗名":"やっぱブタキム pork kimuchi Don 山王店","住所":"〒143-0015 東京都大田区大森西１丁目９−２８","ステータス":"APP_DISPLAY","region":"Ota","lat":35.577835,"lng":139.725601},{"店舗名":"ChuuChuuフルーツ盛り盛りアサイーボウル Fruit-packed Acai Bowl 山王店","住所":"〒143-0015 東京都大田区大森西１丁目９−２８","ステータス":"APP_DISPLAY","region":"Ota","lat":35.577835,"lng":139.725601},{"店舗名":"SHIBUYA lassi ラッシーのお店 山王店","住所":"〒143-0015 東京都大田区大森西１丁目９−２８","ステータス":"APP_DISPLAY","region":"Ota","lat":35.577835,"lng":139.725601},{"店舗名":"どうしてもシェキシェキミルク 山王店","住所":"〒143-0015 東京都大田区大森西１丁目９−２８","ステータス":"APP_DISPLAY","region":"Ota","lat":35.577835,"lng":139.725601},{"店舗名":"ガーリックライスと挽肉 garlic rice and minced meat 山王店","住所":"〒143-0015 東京都大田区大森西１丁目９−２８","ステータス":"APP_DISPLAY","region":"Ota","lat":35.577835,"lng":139.725601},{"店舗名":"タンパク質が取れるバナナミルク Protein-Rich Banana Milk 山王店","住所":"〒143-0015 東京都大田区大森西１丁目９−２８","ステータス":"APP_DISPLAY","region":"Ota","lat":35.577835,"lng":139.725601},{"店舗名":"苺の宝石箱ストロベリーボウル strawberry bowl 山王店","住所":"〒143-0015 東京都大田区大森西１丁目９−２８","ステータス":"APP_DISPLAY","region":"Ota","lat":35.577835,"lng":139.725601},{"店舗名":"台湾ダダダダダジーパイ 美香珍 Taiwan huge fried chicken 山王店","住所":"〒143-0015 東京都大田区大森西１丁目９−２８","ステータス":"APP_DISPLAY","region":"Ota","lat":35.577835,"lng":139.725601},{"店舗名":"天下無双 王様バターご飯 Matchless King Butter Rice 山王店","住所":"〒143-0015 東京都大田区大森西１丁目９−２８","ステータス":"APP_DISPLAY","region":"Ota","lat":35.577835,"lng":139.725601},{"店舗名":"江原道の金さん ソルロンタン 솔론탄 山王店","住所":"〒143-0015 東京都大田区大森西１丁目９−２８","ステータス":"APP_DISPLAY","region":"Ota","lat":35.577835,"lng":139.725601},{"店舗名":"豚汁専門 とんとん亭 tontontei 山王店","住所":"〒143-0015 東京都大田区大森西１丁目９−２８","ステータス":"APP_DISPLAY","region":"Ota","lat":35.577835,"lng":139.725601},{"店舗名":"金子抹茶カネコMATCHA TOKYO ONLINE STORE 山王店","住所":"〒143-0015 東京都大田区大森西１丁目９−２８","ステータス":"APP_DISPLAY","region":"Ota","lat":35.577835,"lng":139.725601},{"店舗名":"新ちゃんたこ焼き Shinntyann Takoyaki 山王店","住所":"〒143-0015 東京都大田区大森西１丁目９−２８","ステータス":"APP_DISPLAY","region":"Ota","lat":35.577835,"lng":139.725601},{"店舗名":"金星 ヴィーナス ビューティアサイーフルーツボウル Venus beauty Acai fruit-bowl 山王店","住所":"〒143-0015 東京都大田区大森西１丁目９−２８ 第三丸久コーポ","ステータス":"APP_DISPLAY","region":"Ota","lat":35.577835,"lng":139.725601},{"店舗名":"豚でもない角煮丼 豊豚 HOUTON 山王店","住所":"〒143-0015 東京都大田区大森西１丁目９−２８ 第三丸久コーポ","ステータス":"APP_DISPLAY","region":"Ota","lat":35.577835,"lng":139.725601},{"店舗名":"両面焼きそば 九州やき麺 山王店","住所":"〒143-0015 東京都大田区大森西１丁目９−２８ 第三丸久コーポ","ステータス":"APP_DISPLAY","region":"Ota","lat":35.577835,"lng":139.725601},{"店舗名":"半日分の野菜が摂れるとんでもない豚汁 山王店","住所":"〒143-0015 東京都大田区大森西１丁目９−２８ 第三丸久コーポ","ステータス":"APP_DISPLAY","region":"Ota","lat":35.577835,"lng":139.725601},{"店舗名":"ルーメン 自家製魯肉出汁に中華麺山王店","住所":"〒143-0015 東京都大田区大森西１丁目９−２８ 第三丸久コーポ","ステータス":"APP_DISPLAY","region":"Ota","lat":35.577835,"lng":139.725601},{"店舗名":"韓国熟成焼肉 コギヤ 山王","住所":"〒143-0015 東京都大田区大森西１丁目９−２８ 第三丸久コーポ","ステータス":"APP_DISPLAY","region":"Ota","lat":35.577835,"lng":139.725601},{"店舗名":"スタミナどんじろう 山王","住所":"〒143-0015 東京都大田区大森西１丁目９−２８ 第三丸久コーポ","ステータス":"APP_DISPLAY","region":"Ota","lat":35.577835,"lng":139.725601},{"店舗名":"幸せのHappyチュロス 山王店","住所":"〒143-0015 東京都大田区大森西１丁目９−２８ 第三丸久コーポ","ステータス":"APP_DISPLAY","region":"Ota","lat":35.577835,"lng":139.725601},{"店舗名":"Spain Leon churros スペインレオン チュロス 山王店","住所":"〒143-0015 東京都大田区大森西１丁目９−２８ 第三丸久コーポ","ステータス":"APP_DISPLAY","region":"Ota","lat":35.577835,"lng":139.725601},{"店舗名":"九轉大腸地元名物スペシャルxホルモンx炒めx煮込み 山王店","住所":"〒143-0015 東京都大田区大森西１丁目９−２８ 第三丸久コーポ","ステータス":"APP_DISPLAY","region":"Ota","lat":35.577835,"lng":139.725601},{"店舗名":"『この一杯で美と健康』絶品スムージー 麗飲 山王店","住所":"〒143-0015 東京都大田区大森西１丁目９−２８ 第三丸久コーポ","ステータス":"APP_DISPLAY","region":"Ota","lat":35.577835,"lng":139.725601},{"店舗名":"明洞본죽&비빔밥 ビビンバと本格スンドゥブ 山王店","住所":"〒143-0015 東京都大田区大森西１丁目９−２８ 第三丸久コーポ","ステータス":"APP_DISPLAY","region":"Ota","lat":35.577835,"lng":139.725601},{"店舗名":"水鏡 伝説の角煮うどん Udon Noodles 山王店","住所":"〒143-0015 東京都大田区大森西１丁目９−２８ 第三丸久コーポ","ステータス":"APP_DISPLAY","region":"Ota","lat":35.577835,"lng":139.725601},{"店舗名":"常安夜食 山王店","住所":"〒143-0015 東京都大田区大森西１丁目９−２８ 第三丸久コーポ","ステータス":"APP_DISPLAY","region":"Ota","lat":35.577835,"lng":139.725601},{"店舗名":"背徳スイーツ揚げパン サクちゃん 山王店","住所":"〒143-0015 東京都大田区大森西１丁目９−２８ 第三丸久コーポ","ステータス":"APP_DISPLAY","region":"Ota","lat":35.577835,"lng":139.725601},{"店舗名":"魅惑の台湾めし「魯肉飯(ルーローハン)」 TAIWAN lurou rice 山王店","住所":"〒143-0015 東京都大田区大森西１丁目９−２８ 第三丸久コーポ","ステータス":"APP_DISPLAY","region":"Ota","lat":35.577835,"lng":139.725601},{"店舗名":"御袋チャーハン 山王店","住所":"〒143-0015 東京都大田区大森西１丁目９−２８ 第三丸久コーポ","ステータス":"APP_DISPLAY","region":"Ota","lat":35.577835,"lng":139.725601},{"店舗名":"南国マンゴー＆スイーツガーデン Tropical Mango & Sweets Garden 山王店","住所":"〒143-0015 東京都大田区大森西１丁目９−２８ 第三丸久コーポ","ステータス":"APP_DISPLAY","region":"Ota","lat":35.577835,"lng":139.725601},{"店舗名":"博多ラーメン長浜や 平和島店","住所":"〒143-0015 東京都大田区大森西２丁目３３−２","ステータス":"APP_DISPLAY","region":"Ota","lat":35.577496,"lng":139.734802},{"店舗名":"ファーストキッチン マチノマ大森店","住所":"〒143-0015 東京都大田区大森西3-1-38 マチノマ大森2Fフードコート内","ステータス":"APP_DISPLAY","region":"Ota","lat":35.574562,"lng":139.725647},{"店舗名":"焼肉 結","住所":"〒143-0015 東京都大田区大森西３丁目１２−２８","ステータス":"APP_DISPLAY","region":"Ota","lat":35.572819,"lng":139.724777},{"店舗名":"ケンタッキーフライドチキン マチノマ大森店","住所":"〒143-0015 東京都大田区大森西３丁目１−３８","ステータス":"APP_DISPLAY","region":"Ota","lat":35.574562,"lng":139.725647},{"店舗名":"インドカレーレストラン マサラ マチノマ大森店","住所":"〒143-0015 東京都大田区大森西３丁目１−３８","ステータス":"APP_DISPLAY","region":"Ota","lat":35.574562,"lng":139.725647},{"店舗名":"サーティワンアイスクリーム マチノマ大森店","住所":"〒143-0015 東京都大田区大森西３丁目１−３８","ステータス":"APP_DISPLAY","region":"Ota","lat":35.574562,"lng":139.725647},{"店舗名":"オアシス","住所":"〒143-0015 東京都大田区大森西３丁目２４−６ 道林ビル","ステータス":"APP_DISPLAY","region":"Ota","lat":35.571922,"lng":139.732086},{"店舗名":"らあめん花月嵐 大森町店","住所":"〒143-0015 東京都大田区大森西３丁目２５−５","ステータス":"APP_DISPLAY","region":"Ota","lat":35.572018,"lng":139.732483},{"店舗名":"すき家 大森町駅前店","住所":"〒143-0015 東京都大田区大森西３丁目２５−７","ステータス":"PENDING","region":"Ota","lat":35.571854,"lng":139.732346},{"店舗名":"バル喫茶みーとあっぷ","住所":"〒143-0015 東京都大田区大森西３丁目８−８ 石政ビル","ステータス":"APP_DISPLAY","region":"Ota","lat":35.574165,"lng":139.730896},{"店舗名":"WELCOME INDIAN NEPALI RESTAURANT","住所":"〒143-0015 東京都大田区大森西４丁目４−１５","ステータス":"APP_DISPLAY","region":"Ota","lat":35.574253,"lng":139.725204},{"店舗名":"インドネパールカレー シリヴァリ","住所":"〒143-0015 東京都大田区大森西４丁目４−１５ ハイネス大森","ステータス":"APP_DISPLAY","region":"Ota","lat":35.574253,"lng":139.725204},{"店舗名":"MUKHABBAT KEBAB","住所":"〒143-0015 東京都大田区大森西５丁目","ステータス":"APP_DISPLAY","region":"Ota","lat":35.570808,"lng":139.727936},{"店舗名":"銀匠　どんまる　大森町店","住所":"〒143-0015 東京都大田区大森西５丁目１０−１２","ステータス":"APP_DISPLAY","region":"Ota","lat":35.571938,"lng":139.731659},{"店舗名":"ちよだ鮨 京急大森町店","住所":"〒143-0015 東京都大田区大森西５丁目１０−９","ステータス":"APP_DISPLAY","region":"Ota","lat":35.572075,"lng":139.731262},{"店舗名":"焼肉味一 大森町店","住所":"〒143-0015 東京都大田区大森西５丁目１１−１３","ステータス":"APP_DISPLAY","region":"Ota","lat":35.571037,"lng":139.729843},{"店舗名":"ドミノ・ピザ 大森西店","住所":"〒143-0015 東京都大田区大森西５丁目１−３","ステータス":"APP_DISPLAY","region":"Ota","lat":35.572647,"lng":139.725128},{"店舗名":"焼肉 礎","住所":"〒143-0015 東京都大田区大森西６丁目１１−１７ 大塚ビル","ステータス":"APP_DISPLAY","region":"Ota","lat":35.568192,"lng":139.724014},{"店舗名":"ロードブッダ LORD BUDDHA 梅屋敷","住所":"〒143-0015 東京都大田区大森西６丁目１２−１１","ステータス":"APP_DISPLAY","region":"Ota","lat":35.568333,"lng":139.725662},{"店舗名":"インド・ネパール料理 ロードブッダ","住所":"〒143-0015 東京都大田区大森西６丁目１２−１１","ステータス":"APP_DISPLAY","region":"Ota","lat":35.568333,"lng":139.725662},{"店舗名":"アジアンダイニング スハナ","住所":"〒143-0015 東京都大田区大森西７丁目５−３３","ステータス":"APP_DISPLAY","region":"Ota","lat":35.570347,"lng":139.721939},{"店舗名":"ラーメン大木戸","住所":"〒143-0015 東京都大田区大森西７丁目７−１７","ステータス":"APP_DISPLAY","region":"Ota","lat":35.568485,"lng":139.722565},{"店舗名":"インドラキッチン（Nan Karee Hausu）","住所":"〒143-0015 東京都大田区大森西７丁目７−２７","ステータス":"APP_DISPLAY","region":"Ota","lat":35.569065,"lng":139.721481},{"店舗名":"韓国家庭料理　本場ソウルの味","住所":"〒143-0015 東京都大田区大森西７丁目８−８ クレール大森西","ステータス":"APP_DISPLAY","region":"Ota","lat":35.56953,"lng":139.720947},{"店舗名":"タコスカ","住所":"〒143-0016 東京都大田区大森北","ステータス":"APP_DISPLAY","region":"Ota","lat":35.58728,"lng":139.729645},{"店舗名":"ワインとお酒とお惣菜の店 十六夜","住所":"〒143-0016 東京都大田区大森北","ステータス":"RECEIPT","region":"Ota","lat":35.58728,"lng":139.729645},{"店舗名":"中華料理 大福館 DAIFUKU","住所":"〒143-0016 東京都大田区大森北1-13-11","ステータス":"APP_DISPLAY","region":"Ota","lat":35.585781,"lng":139.728653},{"店舗名":"PEGOPA大森店","住所":"〒143-0016 東京都大田区大森北１丁目１０−９","ステータス":"APP_DISPLAY","region":"Ota","lat":35.585957,"lng":139.72847},{"店舗名":"焼肉ホルモンぺごぱ","住所":"〒143-0016 東京都大田区大森北１丁目１０−９","ステータス":"APP_DISPLAY","region":"Ota","lat":35.585957,"lng":139.72847},{"店舗名":"イタメシ&ステーキ リフランド","住所":"〒143-0016 東京都大田区大森北１丁目１１−１０ コンドミニアム大森","ステータス":"APP_DISPLAY","region":"Ota","lat":35.586838,"lng":139.728912},{"店舗名":"Pizzeria SALUTE","住所":"〒143-0016 東京都大田区大森北１丁目１１ー３","ステータス":"APP_DISPLAY","region":"Ota","lat":35.587227,"lng":139.728592},{"店舗名":"居酒屋 晴れ晴れ 大森店","住所":"〒143-0016 東京都大田区大森北１丁目１１−３ アイリス大森シティ","ステータス":"APP_DISPLAY","region":"Ota","lat":35.587227,"lng":139.728592},{"店舗名":"本格和食割烹 日本海庄や 大森店","住所":"〒143-0016 東京都大田区大森北１丁目１−２","ステータス":"APP_DISPLAY","region":"Ota","lat":35.589523,"lng":139.729507},{"店舗名":"BON WORLD BUFFET","住所":"〒143-0016 東京都大田区大森北１丁目１−２","ステータス":"APP_DISPLAY","region":"Ota","lat":35.589523,"lng":139.729507},{"店舗名":"中華居酒屋 兎月","住所":"〒143-0016 東京都大田区大森北１丁目１２−１","ステータス":"APP_DISPLAY","region":"Ota","lat":35.58728,"lng":139.72937},{"店舗名":"中華居酒屋 兎月","住所":"〒143-0016 東京都大田区大森北１丁目１２−１","ステータス":"APP_DISPLAY","region":"Ota","lat":35.58728,"lng":139.72937},{"店舗名":"タイ料理専門店　メッタ","住所":"〒143-0016 東京都大田区大森北１丁目１２−９","ステータス":"APP_DISPLAY","region":"Ota","lat":35.586441,"lng":139.729233},{"店舗名":"925麻辣烫","住所":"〒143-0016 東京都大田区大森北１丁目１３−１１","ステータス":"APP_DISPLAY","region":"Ota","lat":35.585781,"lng":139.728653},{"店舗名":"TORUS-トーラス-","住所":"〒143-0016 東京都大田区大森北１丁目１３−１１ ダイヤビル","ステータス":"APP_DISPLAY","region":"Ota","lat":35.585781,"lng":139.728653},{"店舗名":"東京油そば 江戸川橋亭 大森店","住所":"〒143-0016 東京都大田区大森北１丁目２２−１","ステータス":"APP_DISPLAY","region":"Ota","lat":35.586048,"lng":139.730011},{"店舗名":"ネギトロ一本勝負 大森店","住所":"〒143-0016 東京都大田区大森北１丁目２２−１","ステータス":"APP_DISPLAY","region":"Ota","lat":35.586048,"lng":139.730011},{"店舗名":"台湾まぜそば 麺屋 ひらり　大森店","住所":"〒143-0016 東京都大田区大森北１丁目２２−１","ステータス":"APP_DISPLAY","region":"Ota","lat":35.586048,"lng":139.730011},{"店舗名":"サーモンを喰らえ　大森店","住所":"〒143-0016 東京都大田区大森北１丁目２２−１","ステータス":"APP_DISPLAY","region":"Ota","lat":35.586048,"lng":139.730011},{"店舗名":"海鮮ユッケ丼 鮪家 toroya 大森店","住所":"〒143-0016 東京都大田区大森北１丁目２２−１大庄大森北ビル 5F","ステータス":"APP_DISPLAY","region":"Ota","lat":35.586048,"lng":139.730011},{"店舗名":"回転寿司みさき 大森東口店","住所":"〒143-0016 東京都大田区大森北１丁目２−４","ステータス":"APP_DISPLAY","region":"Ota","lat":35.587791,"lng":139.729309},{"店舗名":"らちゃんた","住所":"〒143-0016 東京都大田区大森北１丁目２９−１２","ステータス":"APP_DISPLAY","region":"Ota","lat":35.585449,"lng":139.728043},{"店舗名":"【本格麻辣×自家製春雨】白虎麻辣湯 大森北1丁目店","住所":"〒143-0016 東京都大田区大森北１丁目２９−１２","ステータス":"APP_DISPLAY","region":"Ota","lat":35.585449,"lng":139.728043},{"店舗名":"【アサイー&グリークヨーグルト】GREEKSPOON 大森北1丁目店","住所":"〒143-0016 東京都大田区大森北１丁目２９−１２","ステータス":"APP_DISPLAY","region":"Ota","lat":35.585449,"lng":139.728043},{"店舗名":"究極のソーセージエッグ丼 大森北1丁目店","住所":"〒143-0016 東京都大田区大森北１丁目２９−１２","ステータス":"APP_DISPLAY","region":"Ota","lat":35.585449,"lng":139.728043},{"店舗名":"博多ラーメン長浜や 長浜や大森店","住所":"〒143-0016 東京都大田区大森北１丁目２９-６","ステータス":"APP_DISPLAY","region":"Ota","lat":35.585625,"lng":139.728745},{"店舗名":"タイ スマイル キッチン THAI SMILE KITCHEN","住所":"〒143-0016 東京都大田区大森北１丁目２９−６","ステータス":"APP_DISPLAY","region":"Ota","lat":35.585625,"lng":139.728745},{"店舗名":"ラーメンタロー 大森の陣","住所":"〒143-0016 東京都大田区大森北１丁目３−１２","ステータス":"APP_DISPLAY","region":"Ota","lat":35.587677,"lng":139.728561},{"店舗名":"PaL","住所":"〒143-0016 東京都大田区大森北１丁目３３−１０","ステータス":"APP_DISPLAY","region":"Ota","lat":35.58519,"lng":139.726715},{"店舗名":"ビストロたけんこ","住所":"〒143-0016 東京都大田区大森北１丁目３４−１４","ステータス":"APP_DISPLAY","region":"Ota","lat":35.585732,"lng":139.726639},{"店舗名":"居酒屋 鳥基宮 大森2号店","住所":"〒143-0016 東京都大田区大森北１丁目３５−１","ステータス":"APP_DISPLAY","region":"Ota","lat":35.586704,"lng":139.727097},{"店舗名":"NEW SARANGI RESTAURANT & BAR","住所":"〒143-0016 東京都大田区大森北１丁目３５−８","ステータス":"APP_DISPLAY","region":"Ota","lat":35.58646,"lng":139.726852},{"店舗名":"【ヘルシー&高タンパク弁当】鶏あえずタンパク 大森北店","住所":"〒143-0016 東京都大田区大森北１丁目３５−８","ステータス":"APP_DISPLAY","region":"Ota","lat":35.58646,"lng":139.726852},{"店舗名":"【旨辛&濃厚チーズ&野菜たっぷり】天才のタコライス 大森北店","住所":"〒143-0016 東京都大田区大森北１丁目３５−８","ステータス":"APP_DISPLAY","region":"Ota","lat":35.58646,"lng":139.726852},{"店舗名":"玄米ビビンバ 韓美菜（ハンヤチェ） 大森北店","住所":"〒143-0016 東京都大田区大森北１丁目３５−８","ステータス":"APP_DISPLAY","region":"Ota","lat":35.58646,"lng":139.726852},{"店舗名":"アサイー&グリークヨーグルト GREEK DAYS 大森北店","住所":"〒143-0016 東京都大田区大森北１丁目３５−８","ステータス":"APP_DISPLAY","region":"Ota","lat":35.58646,"lng":139.726852},{"店舗名":"王府家宴 OUFUKAEN","住所":"〒143-0016 東京都大田区大森北１丁目３５−９","ステータス":"APP_DISPLAY","region":"Ota","lat":35.586571,"lng":139.726929},{"店舗名":"韓国料理 とんとら","住所":"〒143-0016 東京都大田区大森北１丁目３−７ サファイア北ビル","ステータス":"APP_DISPLAY","region":"Ota","lat":35.58741,"lng":139.728943},{"店舗名":"本格中華 沁香苑 Shinkaen","住所":"〒143-0016 東京都大田区大森北１丁目３−８","ステータス":"APP_DISPLAY","region":"Ota","lat":35.58741,"lng":139.728775},{"店舗名":"リンガーハット 大森店","住所":"〒143-0016 東京都大田区大森北１丁目３−８","ステータス":"APP_DISPLAY","region":"Ota","lat":35.58741,"lng":139.728775},{"店舗名":"Abby music bar","住所":"〒143-0016 東京都大田区大森北１丁目３８−１","ステータス":"APP_DISPLAY","region":"Ota","lat":35.58683,"lng":139.726929},{"店舗名":"野郎ラーメン 大森店","住所":"〒143-0016 東京都大田区大森北１丁目３−９","ステータス":"APP_DISPLAY","region":"Ota","lat":35.58744,"lng":139.728622},{"店舗名":"赤ほむら大森店","住所":"〒143-0016 東京都大田区大森北１丁目４−１","ステータス":"APP_DISPLAY","region":"Ota","lat":35.588081,"lng":139.728577},{"店舗名":"インドネパールレストランアロマ","住所":"〒143-0016 東京都大田区大森北１丁目４−１０","ステータス":"APP_DISPLAY","region":"Ota","lat":35.587982,"lng":139.728378},{"店舗名":"本格点心と台湾料理のダパイダン105 大森東口店","住所":"〒143-0016 東京都大田区大森北１丁目４−１０ 大森駅前共同ビル","ステータス":"APP_DISPLAY","region":"Ota","lat":35.587982,"lng":139.728378},{"店舗名":"らあめん花月嵐 大森東口店","住所":"〒143-0016 東京都大田区大森北１丁目４−２","ステータス":"APP_DISPLAY","region":"Ota","lat":35.587982,"lng":139.728638},{"店舗名":"松ちゃんのたこ焼き屋DX　大森店","住所":"〒143-0016 東京都大田区大森北１丁目４−６","ステータス":"APP_DISPLAY","region":"Ota","lat":35.587498,"lng":139.728226},{"店舗名":"クリスピー・クリーム・ドーナツ アトレ大森店","住所":"〒143-0016 東京都大田区大森北１丁目６−１６","ステータス":"APP_DISPLAY","region":"Ota","lat":35.588772,"lng":139.728455},{"店舗名":"BAGEL & BAGEL アトレ大森店","住所":"〒143-0016 東京都大田区大森北１丁目６−１６","ステータス":"APP_DISPLAY","region":"Ota","lat":35.588772,"lng":139.728455},{"店舗名":"築地銀だこ アトレ大森店","住所":"〒143-0016 東京都大田区大森北１丁目６−１６","ステータス":"APP_DISPLAY","region":"Ota","lat":35.588772,"lng":139.728455},{"店舗名":"海鮮処寿し常 アトレ大森店","住所":"〒143-0016 東京都大田区大森北１丁目６−１６ アトレ大森 5F","ステータス":"APP_DISPLAY","region":"Ota","lat":35.588772,"lng":139.728455},{"店舗名":"POWER KEBAB 大森店","住所":"〒143-0016 東京都大田区大森北１丁目７−１ 酒かおり","ステータス":"APP_DISPLAY","region":"Ota","lat":35.587479,"lng":139.727463},{"店舗名":"汁なしラーメン専門店 山小屋","住所":"〒143-0016 東京都大田区大森北１丁目７−２","ステータス":"APP_DISPLAY","region":"Ota","lat":35.587387,"lng":139.727386},{"店舗名":"吉野家 大森店","住所":"〒143-0016 東京都大田区大森北１丁目７−６","ステータス":"APP_DISPLAY","region":"Ota","lat":35.586929,"lng":139.726944},{"店舗名":"カレーハウス CoCo壱番屋 ＪＲ大森駅東口店","住所":"〒143-0016 東京都大田区大森北１丁目８−１５ ラ・トゥール・ヴェルディー","ステータス":"APP_DISPLAY","region":"Ota","lat":35.586842,"lng":139.727142},{"店舗名":"なるとキッチン 大森東口店","住所":"〒143-0016 東京都大田区大森北１丁目９−３","ステータス":"APP_DISPLAY","region":"Ota","lat":35.586689,"lng":139.727921},{"店舗名":"伝説のすた丼屋 大森東口店","住所":"〒143-0016 東京都大田区大森北１丁目９−４","ステータス":"APP_DISPLAY","region":"Ota","lat":35.586628,"lng":139.727966},{"店舗名":"ピザハット 大森店","住所":"〒143-0016 東京都大田区大森北２丁目１０−５","ステータス":"APP_DISPLAY","region":"Ota","lat":35.584538,"lng":139.734573},{"店舗名":"チキン・ウイングストリート 大森店","住所":"〒143-0016 東京都大田区大森北２丁目１０−５","ステータス":"APP_DISPLAY","region":"Ota","lat":35.584538,"lng":139.734573},{"店舗名":"トスカーニパスタ 大森店","住所":"〒143-0016 東京都大田区大森北２丁目１０−５","ステータス":"APP_DISPLAY","region":"Ota","lat":35.584538,"lng":139.734573},{"店舗名":"ウッフ 大森店","住所":"〒143-0016 東京都大田区大森北２丁目１３−１","ステータス":"APP_DISPLAY","region":"Ota","lat":35.587242,"lng":139.732544},{"店舗名":"至福の贅沢「恋するクレープ」 大森店","住所":"〒143-0016 東京都大田区大森北２丁目１３−１","ステータス":"APP_DISPLAY","region":"Ota","lat":35.587242,"lng":139.732544},{"店舗名":"玄米&腸活 健康ごはん お玄さんのねばとろ丼 大森店","住所":"〒143-0016 東京都大田区大森北２丁目１３−１","ステータス":"APP_DISPLAY","region":"Ota","lat":35.587242,"lng":139.732544},{"店舗名":"しっとりパンケーキ 恋するスフレ 大森店","住所":"〒143-0016 東京都大田区大森北２丁目１３−１","ステータス":"APP_DISPLAY","region":"Ota","lat":35.587242,"lng":139.732544},{"店舗名":"【理想の自分へ】まめたまのアサイーボウル 大森店","住所":"〒143-0016 東京都大田区大森北２丁目１３−１","ステータス":"APP_DISPLAY","region":"Ota","lat":35.587242,"lng":139.732544},{"店舗名":"肉屋のハンバーグとガーリックライス 大森店","住所":"〒143-0016 東京都大田区大森北２丁目１３−１","ステータス":"APP_DISPLAY","region":"Ota","lat":35.587242,"lng":139.732544},{"店舗名":"パフェBar「YORUYORU」 大森店","住所":"〒143-0016 東京都大田区大森北２丁目１３−１","ステータス":"APP_DISPLAY","region":"Ota","lat":35.587242,"lng":139.732544},{"店舗名":"ネギトロ&海鮮ユッケ丼 ととたま 大森店","住所":"〒143-0016 東京都大田区大森北２丁目１３−１","ステータス":"APP_DISPLAY","region":"Ota","lat":35.587242,"lng":139.732544},{"店舗名":"濃厚ローストビーフとハラミ丼「タルビー」 大森店","住所":"〒143-0016 東京都大田区大森北２丁目１３−１","ステータス":"APP_DISPLAY","region":"Ota","lat":35.587242,"lng":139.732544},{"店舗名":"肉テロ！肉たらしくてぎゅう 大森店","住所":"〒143-0016 東京都大田区大森北２丁目１３−１","ステータス":"APP_DISPLAY","region":"Ota","lat":35.587242,"lng":139.732544},{"店舗名":"【胃腸回復&健康】お粥定食 いこい亭 大森店","住所":"〒143-0016 東京都大田区大森北２丁目１３−１","ステータス":"APP_DISPLAY","region":"Ota","lat":35.587242,"lng":139.732544},{"店舗名":"【十八穀米&美食美人】どんぶりde健康ごはん 大森店","住所":"〒143-0016 東京都大田区大森北２丁目１３−１","ステータス":"APP_DISPLAY","region":"Ota","lat":35.587242,"lng":139.732544},{"店舗名":"【低糖質・低脂質・低カロリー】ダイエットカレーLAB. 大森店","住所":"〒143-0016 東京都大田区大森北２丁目１３−１","ステータス":"APP_DISPLAY","region":"Ota","lat":35.587242,"lng":139.732544},{"店舗名":"東京精肉卸問屋 焼肉山河 大森店","住所":"〒143-0016 東京都大田区大森北２丁目１３−１","ステータス":"APP_DISPLAY","region":"Ota","lat":35.587242,"lng":139.732544},{"店舗名":"サーティワンアイスクリーム 大森イトーヨーカドー店","住所":"〒143-0016 東京都大田区大森北２丁目１３−１","ステータス":"APP_DISPLAY","region":"Ota","lat":35.587242,"lng":139.732544},{"店舗名":"ワイルドステーキ&ジム飯 ブロビー 大森店","住所":"〒143-0016 東京都大田区大森北２丁目１３−１ イトーヨーカドー大森 店","ステータス":"APP_DISPLAY","region":"Ota","lat":35.587242,"lng":139.732544},{"店舗名":"すき家 大森北三丁目店","住所":"〒143-0016 東京都大田区大森北３丁目１−１３","ステータス":"PENDING","region":"Ota","lat":35.584377,"lng":139.730774},{"店舗名":"とり天うどん専門店 千吉","住所":"〒143-0016 東京都大田区大森北３丁目１−４","ステータス":"APP_DISPLAY","region":"Ota","lat":35.584614,"lng":139.731552},{"店舗名":"ぼん・あみ","住所":"〒143-0016 東京都大田区大森北３丁目１−４ 斉藤ビル 102","ステータス":"APP_DISPLAY","region":"Ota","lat":35.584614,"lng":139.731552},{"店舗名":"鶏処 新松 TORIDOKORO SHINMATSU","住所":"〒143-0016 東京都大田区大森北３丁目２４−２８ルーフオオモリ","ステータス":"APP_DISPLAY","region":"Ota","lat":35.583748,"lng":139.730423},{"店舗名":"【韓国牛骨スープ料理】 ソルロンタン 설렁탕 牛骨の匠","住所":"〒143-0016 東京都大田区大森北３丁目３９−１３","ステータス":"APP_DISPLAY","region":"Ota","lat":35.581715,"lng":139.736221},{"店舗名":"【濃厚豚骨の旨辛麻辣湯】辰 TATU 大森店","住所":"〒143-0016 東京都大田区大森北３丁目３９−１３","ステータス":"APP_DISPLAY","region":"Ota","lat":35.581715,"lng":139.736221},{"店舗名":"白湯庵の看板白湯 大森店","住所":"〒143-0016 東京都大田区大森北３丁目３９−１３","ステータス":"APP_DISPLAY","region":"Ota","lat":35.581715,"lng":139.736221},{"店舗名":"【韓国本格】釜山カルグクス 大森店","住所":"〒143-0016 東京都大田区大森北３丁目３９−１３","ステータス":"APP_DISPLAY","region":"Ota","lat":35.581715,"lng":139.736221},{"店舗名":"匠の味・濃厚カルボうどん 大森店","住所":"〒143-0016 東京都大田区大森北３丁目３９−１３","ステータス":"APP_DISPLAY","region":"Ota","lat":35.581715,"lng":139.736221},{"店舗名":"中華一番パオズ【自家製中華まん】大森店","住所":"〒143-0016 東京都大田区大森北３丁目３９−１３","ステータス":"APP_DISPLAY","region":"Ota","lat":35.581715,"lng":139.736221},{"店舗名":"スープで食べる一日分の野菜「ゴロゴローネ」大森店","住所":"〒143-0016 東京都大田区大森北３丁目３９−１３","ステータス":"APP_DISPLAY","region":"Ota","lat":35.581715,"lng":139.736221},{"店舗名":"温もりクリームシチュー 大森店","住所":"〒143-0016 東京都大田区大森北３丁目３９−１３","ステータス":"APP_DISPLAY","region":"Ota","lat":35.581715,"lng":139.736221},{"店舗名":"熱々ホットサント 大森店","住所":"〒143-0016 東京都大田区大森北３丁目３９−１３","ステータス":"APP_DISPLAY","region":"Ota","lat":35.581715,"lng":139.736221},{"店舗名":"おいしい牧場シェイク 大森店","住所":"〒143-0016 東京都大田区大森北３丁目３９−１３","ステータス":"APP_DISPLAY","region":"Ota","lat":35.581715,"lng":139.736221},{"店舗名":"本家おかゆ庵 大森店","住所":"〒143-0016 東京都大田区大森北３丁目３９−１３","ステータス":"APP_DISPLAY","region":"Ota","lat":35.581715,"lng":139.736221},{"店舗名":"味噌と米 みそ姫 大森店","住所":"〒143-0016 東京都大田区大森北３丁目３９−１３","ステータス":"APP_DISPLAY","region":"Ota","lat":35.581715,"lng":139.736221},{"店舗名":"明洞タッカルックス 명동 터커스 大森店","住所":"〒143-0016 東京都大田区大森北３丁目３９−１３","ステータス":"APP_DISPLAY","region":"Ota","lat":35.581715,"lng":139.736221},{"店舗名":"肉とバターとごはん 大森店","住所":"〒143-0016 東京都大田区大森北３丁目３９−１３","ステータス":"APP_DISPLAY","region":"Ota","lat":35.581715,"lng":139.736221},{"店舗名":"西五ソルロンタン(서쪽오설렁탕) 大森店","住所":"〒143-0016 東京都大田区大森北３丁目３９−１３","ステータス":"APP_DISPLAY","region":"Ota","lat":35.581715,"lng":139.736221},{"店舗名":"豚汁と米 大森店","住所":"〒143-0016 東京都大田区大森北３丁目３９−１３","ステータス":"APP_DISPLAY","region":"Ota","lat":35.581715,"lng":139.736221},{"店舗名":"クリームシチューのお店 君にシチュー Cream stew shop Kimi ni stew 大森店","住所":"〒143-0016 東京都大田区大森北３丁目３９−１３","ステータス":"APP_DISPLAY","region":"Ota","lat":35.581715,"lng":139.736221},{"店舗名":"絶望のカルボナーラうどん GARUBO 大森店","住所":"〒143-0016 東京都大田区大森北３丁目３９−１３","ステータス":"APP_DISPLAY","region":"Ota","lat":35.581715,"lng":139.736221},{"店舗名":"絶望のカレーうどん カレーなる一族 大森店","住所":"〒143-0016 東京都大田区大森北３丁目３９−１３","ステータス":"APP_DISPLAY","region":"Ota","lat":35.581715,"lng":139.736221},{"店舗名":"羅州コムタン・純豆腐（나주곰탕・순두부）大森店","住所":"〒143-0016 東京都大田区大森北３丁目３９−１３","ステータス":"APP_DISPLAY","region":"Ota","lat":35.581715,"lng":139.736221},{"店舗名":"Aloha Hawaiiフルーツアサイーボウル fruit acai bowl 大森店","住所":"〒143-0016 東京都大田区大森北３丁目３９–１３","ステータス":"APP_DISPLAY","region":"Ota","lat":35.582775,"lng":139.73317},{"店舗名":"【元祖たこ焼き屋台】だしタコ-DashiTako- 平和島北店","住所":"〒143-0016 東京都大田区大森北３丁目３９−１３ 世紀コーポ平和島 1f","ステータス":"APP_DISPLAY","region":"Ota","lat":35.581715,"lng":139.736221},{"店舗名":"【出汁の旨みとたっぷり具材】雑炊の気分 平和島北店","住所":"〒143-0016 東京都大田区大森北３丁目３９−１３ 世紀コーポ平和島 1f","ステータス":"APP_DISPLAY","region":"Ota","lat":35.581715,"lng":139.736221},{"店舗名":"吉野家 平和島店","住所":"〒143-0016 東京都大田区大森北３丁目３９－１８","ステータス":"APP_DISPLAY","region":"Ota","lat":35.581509,"lng":139.735931},{"店舗名":"中国料理 菜香園","住所":"〒143-0016 東京都大田区大森北３丁目４２−１ メゾンシミズ","ステータス":"APP_DISPLAY","region":"Ota","lat":35.584217,"lng":139.735443},{"店舗名":"デニーズ 大森北店","住所":"〒143-0016 東京都大田区大森北４丁目１０−５","ステータス":"APP_DISPLAY","region":"Ota","lat":35.584518,"lng":139.73056},{"店舗名":"焼酎BAR 平和島","住所":"〒143-0016 東京都大田区大森北４丁目２２−１０","ステータス":"APP_DISPLAY","region":"Ota","lat":35.582104,"lng":139.725845},{"店舗名":"南国飯店 角煮家","住所":"〒143-0016 東京都大田区大森北６丁目１３−６","ステータス":"APP_DISPLAY","region":"Ota","lat":35.579033,"lng":139.734299},{"店舗名":"焼鳥きらり【テイクアウト専門】","住所":"〒143-0016 東京都大田区大森北６丁目１３−９","ステータス":"APP_DISPLAY","region":"Ota","lat":35.57869,"lng":139.734283},{"店舗名":"カレーハウス CoCo壱番屋 京急平和島駅前店","住所":"〒143-0016 東京都大田区大森北６丁目２７−１０","ステータス":"APP_DISPLAY","region":"Ota","lat":35.577957,"lng":139.734253},{"店舗名":"らーめん楓 平和島店","住所":"〒143-0016 東京都大田区大森北６丁目２９−１０","ステータス":"RECEIPT","region":"Ota","lat":35.578888,"lng":139.735306},{"店舗名":"MAKKI KEBAB","住所":"〒143-0016 東京都大田区大森北６丁目２９−１3","ステータス":"APP_DISPLAY","region":"Ota","lat":35.578529,"lng":139.735092},{"店舗名":"アジアンキッチン カリー香道 スパイスの香り","住所":"〒143-0016 東京都大田区大森北６丁目３０−１９ ＫＴエンゼルハイム大森本町第３","ステータス":"APP_DISPLAY","region":"Ota","lat":35.57975,"lng":139.735458},{"店舗名":"虎魚","住所":"〒143-0016 東京都大田区大森北四丁目４-１１","ステータス":"APP_DISPLAY","region":"Ota","lat":35.584728,"lng":139.726471},{"店舗名":"旨辛ラー油つけそば 天空 大森北3丁目店","住所":"〒143-0016 東京都大田区大森北三丁目３９－１３","ステータス":"APP_DISPLAY","region":"Ota","lat":35.581715,"lng":139.736221},{"店舗名":"親子丼鳥茶屋 鶏介 大森北3丁目店","住所":"〒143-0016 東京都大田区大森北三丁目３９－１３","ステータス":"APP_DISPLAY","region":"Ota","lat":35.581715,"lng":139.736221},{"店舗名":"雑炊と米 大森店","住所":"〒143-0016 東京都大田区大森北三丁目３９－１３","ステータス":"APP_DISPLAY","region":"Ota","lat":35.581715,"lng":139.736221},{"店舗名":"ホットサンドとスープ ホットさん 大森店","住所":"〒143-0016 東京都大田区大森北三丁目３９－１３","ステータス":"APP_DISPLAY","region":"Ota","lat":35.581715,"lng":139.736221},{"店舗名":"ビーフシチューと米 大森店","住所":"〒143-0016 東京都大田区大森北三丁目３９－１３","ステータス":"APP_DISPLAY","region":"Ota","lat":35.581715,"lng":139.736221},{"店舗名":"ハヤシライスのお店 米ト林 大森店","住所":"〒143-0016 東京都大田区大森北三丁目３９－１３","ステータス":"APP_DISPLAY","region":"Ota","lat":35.581715,"lng":139.736221},{"店舗名":"ボーノカルボナーラトラットリア 大森店","住所":"〒143-0016 東京都大田区大森北三丁目３９－１３","ステータス":"APP_DISPLAY","region":"Ota","lat":35.581715,"lng":139.736221},{"店舗名":"きみと揚げパン 너와 튀김빵 大森店","住所":"〒143-0016 東京都大田区大森北三丁目３９－１３","ステータス":"APP_DISPLAY","region":"Ota","lat":35.581715,"lng":139.736221},{"店舗名":"チーズリゾットのお店 米トチーズ 大森店","住所":"〒143-0016 東京都大田区大森北三丁目３９－１３","ステータス":"APP_DISPLAY","region":"Ota","lat":35.581715,"lng":139.736221},{"店舗名":"つじ田大森店","住所":"〒143-0016 東京都大田区大森北一丁日30番4号","ステータス":"APP_DISPLAY","region":"Ota","lat":35.58728,"lng":139.729645},{"店舗名":"楡 本店","住所":"〒143-0021 東京都大田区北馬込","ステータス":"APP_DISPLAY","region":"Ota","lat":35.599789,"lng":139.705353},{"店舗名":"ドミノ・ピザ 北馬込店","住所":"〒143-0021 東京都大田区北馬込２丁目１３−８","ステータス":"APP_DISPLAY","region":"Ota","lat":35.597248,"lng":139.708969},{"店舗名":"中村屋","住所":"〒143-0021 東京都大田区北馬込二丁目27番13号","ステータス":"APP_DISPLAY","region":"Ota","lat":35.596596,"lng":139.710312},{"店舗名":"ナムさんのやみつきカオマンガイ【アジアンフード 】 馬込店","住所":"〒143-0022 東京都大田区東馬込１丁目３３−１９","ステータス":"APP_DISPLAY","region":"Ota","lat":35.594311,"lng":139.714661},{"店舗名":"健康志向のねばとろ日和 馬込店","住所":"〒143-0022 東京都大田区東馬込１丁目３３−１９","ステータス":"APP_DISPLAY","region":"Ota","lat":35.594311,"lng":139.714661},{"店舗名":"本気のねぎとろ市場 鬼塚 馬込店","住所":"〒143-0022 東京都大田区東馬込１丁目３３−１９","ステータス":"APP_DISPLAY","region":"Ota","lat":35.594311,"lng":139.714661},{"店舗名":"東京タコライス 馬込店","住所":"〒143-0022 東京都大田区東馬込１丁目３３−１９","ステータス":"APP_DISPLAY","region":"Ota","lat":35.594311,"lng":139.714661},{"店舗名":"【美味しくヘルシー】やみつき海鮮ポキ丼 馬込店","住所":"〒143-0022 東京都大田区東馬込１丁目３３−１９","ステータス":"APP_DISPLAY","region":"Ota","lat":35.594311,"lng":139.714661},{"店舗名":"祇園とろろ亭","住所":"〒143-0022 東京都大田区東馬込１丁目３３−１９","ステータス":"APP_DISPLAY","region":"Ota","lat":35.594311,"lng":139.714661},{"店舗名":"とろろ美人青森本舗","住所":"〒143-0022 東京都大田区東馬込１丁目３３−１９","ステータス":"APP_DISPLAY","region":"Ota","lat":35.594311,"lng":139.714661},{"店舗名":"ポキのきもち","住所":"〒143-0022 東京都大田区東馬込１丁目３３−１９","ステータス":"APP_DISPLAY","region":"Ota","lat":35.594311,"lng":139.714661},{"店舗名":"みんな大好きタコライス","住所":"〒143-0022 東京都大田区東馬込１丁目３３−１９","ステータス":"APP_DISPLAY","region":"Ota","lat":35.594311,"lng":139.714661},{"店舗名":"デリハックカオマンガイ帝国","住所":"〒143-0022 東京都大田区東馬込１丁目３３−１９","ステータス":"APP_DISPLAY","region":"Ota","lat":35.594311,"lng":139.714661},{"店舗名":"ムスタング アジアン レストラン Mustang Asian Restaurant","住所":"〒143-0022 東京都大田区東馬込２丁目１２−４","ステータス":"APP_DISPLAY","region":"Ota","lat":35.592255,"lng":139.717911},{"店舗名":"おだしとクラフト坂道","住所":"〒143-0023 東京都大田区山王１丁目３１−１５","ステータス":"APP_DISPLAY","region":"Ota","lat":35.591923,"lng":139.722977},{"店舗名":"アジアンダイニング ホットポット asian dining hotpot","住所":"〒143-0023 東京都大田区山王１丁目４２−１３ 寺内ビル","ステータス":"APP_DISPLAY","region":"Ota","lat":35.592068,"lng":139.7211},{"店舗名":"ドミノ・ピザ 大森山王店","住所":"〒143-0023 東京都大田区山王１丁目６−５","ステータス":"APP_DISPLAY","region":"Ota","lat":35.590939,"lng":139.728302},{"店舗名":"そば処 笑庵","住所":"〒143-0023 東京都大田区山王２丁目１−３","ステータス":"APP_DISPLAY","region":"Ota","lat":35.589893,"lng":139.728027},{"店舗名":"サーティワンアイスクリーム ToGo大森ララ店","住所":"〒143-0023 東京都大田区山王２丁目１−５","ステータス":"APP_DISPLAY","region":"Ota","lat":35.590153,"lng":139.728134},{"店舗名":"青山小火鍋","住所":"〒143-0023 東京都大田区山王２丁目１−８","ステータス":"APP_DISPLAY","region":"Ota","lat":35.590534,"lng":139.728302},{"店舗名":"スタミナ丼 活家 山王店","住所":"〒143-0023 東京都大田区山王２丁目１８−１","ステータス":"RECEIPT","region":"Ota","lat":35.591728,"lng":139.723358},{"店舗名":"台湾カフェ 時香茶 山王店","住所":"〒143-0023 東京都大田区山王２丁目１８−１","ステータス":"APP_DISPLAY","region":"Ota","lat":35.591728,"lng":139.723358},{"店舗名":"かつ丼屋 のぶお 山王店","住所":"〒143-0023 東京都大田区山王２丁目１８−１","ステータス":"APP_DISPLAY","region":"Ota","lat":35.591728,"lng":139.723358},{"店舗名":"韓国カルビ丼とスンドゥブ 洞山 山王店","住所":"〒143-0023 東京都大田区山王２丁目１８−１","ステータス":"APP_DISPLAY","region":"Ota","lat":35.591728,"lng":139.723358},{"店舗名":"焼きかつ丼 勝吉 山王店","住所":"〒143-0023 東京都大田区山王２丁目１８−１","ステータス":"APP_DISPLAY","region":"Ota","lat":35.591728,"lng":139.723358},{"店舗名":"鶏弁 とり日和 山王店","住所":"〒143-0023 東京都大田区山王２丁目１８−１","ステータス":"APP_DISPLAY","region":"Ota","lat":35.591728,"lng":139.723358},{"店舗名":"旨辛スタミナ鉄板焼き 天神軒 山王店","住所":"〒143-0023 東京都大田区山王２丁目１８−１","ステータス":"APP_DISPLAY","region":"Ota","lat":35.591728,"lng":139.723358},{"店舗名":"韓国クッパとビビンバ 全州 山王店","住所":"〒143-0023 東京都大田区山王２丁目１８−１","ステータス":"APP_DISPLAY","region":"Ota","lat":35.591728,"lng":139.723358},{"店舗名":"どんぶり 神宮軒 山王店","住所":"〒143-0023 東京都大田区山王２丁目１８−１","ステータス":"APP_DISPLAY","region":"Ota","lat":35.591728,"lng":139.723358},{"店舗名":"お粥 煮え花 山王店","住所":"〒143-0023 東京都大田区山王２丁目１８−１","ステータス":"APP_DISPLAY","region":"Ota","lat":35.591728,"lng":139.723358},{"店舗名":"うどんと肉 角立 山王店","住所":"〒143-0023 東京都大田区山王２丁目１８−１","ステータス":"APP_DISPLAY","region":"Ota","lat":35.591728,"lng":139.723358},{"店舗名":"とりめし かえで食堂 山王店","住所":"〒143-0023 東京都大田区山王２丁目１８−１","ステータス":"APP_DISPLAY","region":"Ota","lat":35.591728,"lng":139.723358},{"店舗名":"背徳めし食堂 山王店","住所":"〒143-0023 東京都大田区山王２丁目１８−１","ステータス":"APP_DISPLAY","region":"Ota","lat":35.591728,"lng":139.723358},{"店舗名":"元祖金沢チャンピオンカレーデリバリー 山王店","住所":"〒143-0023 東京都大田区山王２丁目１８−１","ステータス":"APP_DISPLAY","region":"Ota","lat":35.591728,"lng":139.723358},{"店舗名":"さぬきうどん・どんぶり 博好 山王店","住所":"〒143-0023 東京都大田区山王２丁目１８−１","ステータス":"APP_DISPLAY","region":"Ota","lat":35.591728,"lng":139.723358},{"店舗名":"肉汁つけうどん 六三四 山王店","住所":"〒143-0023 東京都大田区山王２丁目１８−１","ステータス":"APP_DISPLAY","region":"Ota","lat":35.591728,"lng":139.723358},{"店舗名":"鶏天豚天 通天道 山王店","住所":"〒143-0023 東京都大田区山王２丁目１８−１","ステータス":"APP_DISPLAY","region":"Ota","lat":35.591728,"lng":139.723358},{"店舗名":"出前家系ラーメン 吉祥寺 武蔵家 山王店","住所":"〒143-0023 東京都大田区山王２丁目１８−１","ステータス":"APP_DISPLAY","region":"Ota","lat":35.591728,"lng":139.723358},{"店舗名":"宅配とんかつ かさねや 山王店","住所":"〒143-0023 東京都大田区山王２丁目１８−１","ステータス":"APP_DISPLAY","region":"Ota","lat":35.591728,"lng":139.723358},{"店舗名":"本格もつ鍋 竹名屋総本店 山王店","住所":"〒143-0023 東京都大田区山王２丁目１８−１","ステータス":"APP_DISPLAY","region":"Ota","lat":35.591728,"lng":139.723358},{"店舗名":"十勝帯広豚丼 三代目ぶた広 山王店","住所":"〒143-0023 東京都大田区山王２丁目１８−１","ステータス":"APP_DISPLAY","region":"Ota","lat":35.591728,"lng":139.723358},{"店舗名":"うなぎの照本 山王店","住所":"〒143-0023 東京都大田区山王２丁目１８−１","ステータス":"RECEIPT","region":"Ota","lat":35.591728,"lng":139.723358},{"店舗名":"ハンディーレストラン","住所":"〒143-0023 東京都大田区山王２丁目２−１１","ステータス":"APP_DISPLAY","region":"Ota","lat":35.588722,"lng":139.727524},{"店舗名":"サライケバブ大森駅前店","住所":"〒143-0023 東京都大田区山王２丁目２−１１","ステータス":"APP_DISPLAY","region":"Ota","lat":35.588722,"lng":139.727524},{"店舗名":"ちよだ鮨 大森店","住所":"〒143-0023 東京都大田区山王２丁目２−１２","ステータス":"APP_DISPLAY","region":"Ota","lat":35.588852,"lng":139.727585},{"店舗名":"中津からあげ専門店吉吾 (大森店)","住所":"〒143-0023 東京都大田区山王２丁目２−１２","ステータス":"APP_DISPLAY","region":"Ota","lat":35.588852,"lng":139.727585},{"店舗名":"ケンタッキーフライドチキン 大森西口店","住所":"〒143-0023 東京都大田区山王２丁目２−１２","ステータス":"APP_DISPLAY","region":"Ota","lat":35.588852,"lng":139.727585},{"店舗名":"シンガポールバルMisakiya","住所":"〒143-0023 東京都大田区山王２丁目２−１５","ステータス":"APP_DISPLAY","region":"Ota","lat":35.589214,"lng":139.727737},{"店舗名":"天-ten-JAPAN GREEK YOGURT","住所":"〒143-0023 東京都大田区山王２丁目２−１５","ステータス":"APP_DISPLAY","region":"Ota","lat":35.589214,"lng":139.727737},{"店舗名":"CANTEEN","住所":"〒143-0023 東京都大田区山王２丁目２−２","ステータス":"APP_DISPLAY","region":"Ota","lat":35.587566,"lng":139.72702},{"店舗名":"ベトナム料理BOKUN OMORI","住所":"〒143-0023 東京都大田区山王２丁目２−７","ステータス":"APP_DISPLAY","region":"Ota","lat":35.588219,"lng":139.727295},{"店舗名":"上島珈琲店　大森店","住所":"〒143-0023 東京都大田区山王２丁目３−３","ステータス":"APP_DISPLAY","region":"Ota","lat":35.5882,"lng":139.727112},{"店舗名":"竹岡式ラーメン 富津屋 大森店","住所":"〒143-0023 東京都大田区山王２丁目３－６","ステータス":"APP_DISPLAY","region":"Ota","lat":35.587822,"lng":139.726944},{"店舗名":"トクベツ。 大森店","住所":"〒143-0023 東京都大田区山王２丁目３−６","ステータス":"APP_DISPLAY","region":"Ota","lat":35.587822,"lng":139.726944},{"店舗名":"東京極上白湯 大森店","住所":"〒143-0023 東京都大田区山王２丁目３−６","ステータス":"APP_DISPLAY","region":"Ota","lat":35.587822,"lng":139.726944},{"店舗名":"横浜家系ラーメン 極上家 大森店","住所":"〒143-0023 東京都大田区山王２丁目３−６","ステータス":"APP_DISPLAY","region":"Ota","lat":35.587822,"lng":139.726944},{"店舗名":"熟成カレーうどん 咖哩庵 大森店","住所":"〒143-0023 東京都大田区山王２丁目３−６","ステータス":"APP_DISPLAY","region":"Ota","lat":35.587822,"lng":139.726944},{"店舗名":"究極の塩だしうどん 京都はんなり 大森店","住所":"〒143-0023 東京都大田区山王２丁目３−６","ステータス":"APP_DISPLAY","region":"Ota","lat":35.587822,"lng":139.726944},{"店舗名":"油そば研究所 大森店","住所":"〒143-0023 東京都大田区山王２丁目３−６","ステータス":"APP_DISPLAY","region":"Ota","lat":35.587822,"lng":139.726944},{"店舗名":"中華そば 昭和軒 大森店","住所":"〒143-0023 東京都大田区山王２丁目３−６","ステータス":"APP_DISPLAY","region":"Ota","lat":35.587822,"lng":139.726944},{"店舗名":"辛激の麺人 大森店","住所":"〒143-0023 東京都大田区山王２丁目３−６","ステータス":"APP_DISPLAY","region":"Ota","lat":35.587822,"lng":139.726944},{"店舗名":"【極上炒飯】チャーハンマニア 大森店","住所":"〒143-0023 東京都大田区山王２丁目３−６","ステータス":"APP_DISPLAY","region":"Ota","lat":35.587822,"lng":139.726944},{"店舗名":"ぶた家 大森店","住所":"〒143-0023 東京都大田区山王２丁目３−６","ステータス":"APP_DISPLAY","region":"Ota","lat":35.587822,"lng":139.726944},{"店舗名":"究極の食べるスープ！極上汁と飯 大森店","住所":"〒143-0023 東京都大田区山王２丁目３−６","ステータス":"APP_DISPLAY","region":"Ota","lat":35.587822,"lng":139.726944},{"店舗名":"つけ麺 大かわ 大森店","住所":"〒143-0023 東京都大田区山王２丁目３−６","ステータス":"APP_DISPLAY","region":"Ota","lat":35.587822,"lng":139.726944},{"店舗名":"東京極上煮干 大森店","住所":"〒143-0023 東京都大田区山王２丁目３−６","ステータス":"APP_DISPLAY","region":"Ota","lat":35.587822,"lng":139.726944},{"店舗名":"つけ麺大戦争 大森店","住所":"〒143-0023 東京都大田区山王２丁目３−６","ステータス":"APP_DISPLAY","region":"Ota","lat":35.587822,"lng":139.726944},{"店舗名":"釜玉中華そば 世田谷製麺所 大森店","住所":"〒143-0023 東京都大田区山王２丁目３−６","ステータス":"APP_DISPLAY","region":"Ota","lat":35.587822,"lng":139.726944},{"店舗名":"圧倒的背徳感!炙り豚RUSH! 大森店","住所":"〒143-0023 東京都大田区山王２丁目３−６","ステータス":"APP_DISPLAY","region":"Ota","lat":35.587822,"lng":139.726944},{"店舗名":"TKM 卵かけ麺製造所 大森店","住所":"〒143-0023 東京都大田区山王２丁目３−６","ステータス":"APP_DISPLAY","region":"Ota","lat":35.587822,"lng":139.726944},{"店舗名":"ニンニク入れますか？豚二郎 大森店","住所":"〒143-0023 東京都大田区山王２丁目３−６","ステータス":"APP_DISPLAY","region":"Ota","lat":35.587822,"lng":139.726944},{"店舗名":"ラーメン屋が本気でカレー作ってみた。 大森店","住所":"〒143-0023 東京都大田区山王２丁目３−６","ステータス":"APP_DISPLAY","region":"Ota","lat":35.587822,"lng":139.726944},{"店舗名":"極上粥三昧 大森店","住所":"〒143-0023 東京都大田区山王２丁目３−６","ステータス":"APP_DISPLAY","region":"Ota","lat":35.587822,"lng":139.726944},{"店舗名":"東京極上坦坦 大森店","住所":"〒143-0023 東京都大田区山王２丁目３−６","ステータス":"APP_DISPLAY","region":"Ota","lat":35.587822,"lng":139.726944},{"店舗名":"ゴル麺。 THE GOLDEN TSUKEMEN 大森店","住所":"〒143-0023 東京都大田区山王２丁目３−６","ステータス":"APP_DISPLAY","region":"Ota","lat":35.587822,"lng":139.726944},{"店舗名":"褒美チャーシュー丼 ぶた丸 大森店","住所":"〒143-0023 東京都大田区山王２丁目３−６","ステータス":"APP_DISPLAY","region":"Ota","lat":35.587822,"lng":139.726944},{"店舗名":"塩出汁おうどん 京の花 大森店","住所":"〒143-0023 東京都大田区山王２丁目３−６","ステータス":"APP_DISPLAY","region":"Ota","lat":35.587822,"lng":139.726944},{"店舗名":"背徳の節ラーうどん 至福の一杯。 大森店","住所":"〒143-0023 東京都大田区山王２丁目３−６","ステータス":"APP_DISPLAY","region":"Ota","lat":35.587822,"lng":139.726944},{"店舗名":"勝浦タンタンメン 赤鬼 大森店","住所":"〒143-0023 東京都大田区山王２丁目３−６","ステータス":"APP_DISPLAY","region":"Ota","lat":35.587822,"lng":139.726944},{"店舗名":"勝浦タンタンメン 奥さわ 大森店","住所":"〒143-0023 東京都大田区山王２丁目３−６","ステータス":"APP_DISPLAY","region":"Ota","lat":35.587822,"lng":139.726944},{"店舗名":"横浜家系ラーメン松壱家 大森店","住所":"〒143-0023 東京都大田区山王２丁目３−６","ステータス":"APP_DISPLAY","region":"Ota","lat":35.587822,"lng":139.726944},{"店舗名":"竹岡式ラーメン 松乃家 大森店","住所":"〒143-0023 東京都大田区山王２丁目３−６ MBFビル","ステータス":"APP_DISPLAY","region":"Ota","lat":35.587822,"lng":139.726944},{"店舗名":"元祖牛タン串 あだち屋","住所":"〒143-0023 東京都大田区山王２丁目３−８ 山王智勇ビル","ステータス":"APP_DISPLAY","region":"Ota","lat":35.587559,"lng":139.726822},{"店舗名":"すき家 大森駅西口店","住所":"〒143-0023 東京都大田区山王２丁目４−４","ステータス":"PENDING","region":"Ota","lat":35.588509,"lng":139.727249},{"店舗名":"玄品 大森 山王 ふぐ・うなぎ料理","住所":"〒143-0023 東京都大田区山王２丁目５−２","ステータス":"APP_DISPLAY","region":"Ota","lat":35.590729,"lng":139.727661},{"店舗名":"Best 3 kitchen & Curry & Bar","住所":"〒143-0023 東京都大田区山王２丁目５−５","ステータス":"RECEIPT","region":"Ota","lat":35.590546,"lng":139.728104},{"店舗名":"カフェ＆ベーカリー 究極の食パンMIYABI 大森店","住所":"〒143-0023 東京都大田区山王２丁目５−７","ステータス":"APP_DISPLAY","region":"Ota","lat":35.590267,"lng":139.728027},{"店舗名":"Nai'aCafe","住所":"〒143-0023 東京都大田区山王３丁目１−３","ステータス":"APP_DISPLAY","region":"Ota","lat":35.584721,"lng":139.724838},{"店舗名":"METTA","住所":"〒143-0023 東京都大田区山王３丁目２４−１","ステータス":"APP_DISPLAY","region":"Ota","lat":35.583988,"lng":139.723892},{"店舗名":"デリフードクッキングサチコ","住所":"〒143-0023 東京都大田区山王３丁目３−７","ステータス":"APP_DISPLAY","region":"Ota","lat":35.584068,"lng":139.724762},{"店舗名":"神来月","住所":"〒143-0023 東京都大田区山王３丁目６−２７","ステータス":"APP_DISPLAY","region":"Ota","lat":35.58284,"lng":139.723267},{"店舗名":"バーガーキングMEGAドン・キホーテ大森山王店","住所":"〒143-0023 東京都大田区山王３丁目６−３","ステータス":"APP_DISPLAY","region":"Ota","lat":35.583221,"lng":139.723343},{"店舗名":"すき家 環七山王店","住所":"〒143-0023 東京都大田区山王４丁目１２−４","ステータス":"PENDING","region":"Ota","lat":35.589561,"lng":139.719162},{"店舗名":"出前つけ麺専門店 三田製麺所 山王店","住所":"〒143-0023東京都大田区山王２－１８－１","ステータス":"APP_DISPLAY","region":"Ota","lat":35.591728,"lng":139.723358},{"店舗名":"チェさんの台所","住所":"〒143-0024 東京都大田区中央１丁目１１−１","ステータス":"APP_DISPLAY","region":"Ota","lat":35.582691,"lng":139.720322},{"店舗名":"おやこcafe verde","住所":"〒143-0024 東京都大田区中央１丁目１５−１ 榎本マンション","ステータス":"APP_DISPLAY","region":"Ota","lat":35.580662,"lng":139.71907},{"店舗名":"KOPILA","住所":"〒143-0024 東京都大田区中央３丁目７−９","ステータス":"APP_DISPLAY","region":"Ota","lat":35.576721,"lng":139.718048},{"店舗名":"多田商店","住所":"〒143-0024 東京都大田区中央４丁目１５−１２","ステータス":"APP_DISPLAY","region":"Ota","lat":35.578468,"lng":139.714813},{"店舗名":"寿々㐂","住所":"〒143-0024 東京都大田区中央４丁目３４−５ 菅野ビル","ステータス":"APP_DISPLAY","region":"Ota","lat":35.578205,"lng":139.716965},{"店舗名":"CHAINON lien","住所":"〒143-0024 東京都大田区中央６丁目１４−１７","ステータス":"APP_DISPLAY","region":"Ota","lat":35.57798,"lng":139.71283},{"店舗名":"すき家 池上通り中央店","住所":"〒143-0024 東京都大田区中央７丁目３−１","ステータス":"PENDING","region":"Ota","lat":35.576298,"lng":139.71373},{"店舗名":"デニーズ 池上通り店","住所":"〒143-0024 東京都大田区中央７丁目３−３","ステータス":"APP_DISPLAY","region":"Ota","lat":35.576424,"lng":139.714005},{"店舗名":"アジアンレストラン＆バー ディヤロ","住所":"〒143-0024 東京都大田区中央８丁目３９−１","ステータス":"APP_DISPLAY","region":"Ota","lat":35.573826,"lng":139.718994},{"店舗名":"Spice.Lunch.Labo","住所":"〒143-0025 東京都大田区南馬込","ステータス":"APP_DISPLAY","region":"Ota","lat":35.591808,"lng":139.713867},{"店舗名":"チョアチキン馬込店","住所":"〒143-0025 東京都大田区南馬込１丁目１０−５","ステータス":"APP_DISPLAY","region":"Ota","lat":35.594231,"lng":139.713837},{"店舗名":"Kalka Dining & bar","住所":"〒143-0025 東京都大田区南馬込１丁目１５−２ サンライフ南馬込","ステータス":"APP_DISPLAY","region":"Ota","lat":35.593002,"lng":139.716064},{"店舗名":"手作りごはん カフェ・カラノス","住所":"〒143-0025 東京都大田区南馬込１丁目１５−４","ステータス":"APP_DISPLAY","region":"Ota","lat":35.592854,"lng":139.716339},{"店舗名":"【ごほうびスイーツ】カフェ・カラノス","住所":"〒143-0025 東京都大田区南馬込１丁目１５−４","ステータス":"APP_DISPLAY","region":"Ota","lat":35.592854,"lng":139.716339},{"店舗名":"アジアン ダイニング サカール キッチン","住所":"〒143-0025 東京都大田区南馬込１丁目１５−４","ステータス":"APP_DISPLAY","region":"Ota","lat":35.592854,"lng":139.716339},{"店舗名":"Grilled Chicken Dine MORENITOS馬込店","住所":"〒143-0025 東京都大田区南馬込１丁目１５−４","ステータス":"APP_DISPLAY","region":"Ota","lat":35.592854,"lng":139.716339},{"店舗名":"【ご飯特盛まで無料！】悪魔のスパイシーガーリックライス 南馬込店","住所":"〒143-0025 東京都大田区南馬込１丁目１５−４","ステータス":"APP_DISPLAY","region":"Ota","lat":35.592854,"lng":139.716339},{"店舗名":"【タピオカ】OWL TEA 南馬込店","住所":"〒143-0025 東京都大田区南馬込１丁目１５−４","ステータス":"APP_DISPLAY","region":"Ota","lat":35.592854,"lng":139.716339},{"店舗名":"海鮮ポキボウル POKE Kitchen 南馬込店","住所":"〒143-0025 東京都大田区南馬込１丁目１５−４","ステータス":"APP_DISPLAY","region":"Ota","lat":35.592854,"lng":139.716339},{"店舗名":"ボックスチュロス ～Churros time～ 南馬込店","住所":"〒143-0025 東京都大田区南馬込１丁目１５−４","ステータス":"APP_DISPLAY","region":"Ota","lat":35.592854,"lng":139.716339},{"店舗名":"お出汁うどん ぶっかけとろろ日和 南馬込店","住所":"〒143-0025 東京都大田区南馬込１丁目１５−４","ステータス":"APP_DISPLAY","region":"Ota","lat":35.592854,"lng":139.716339},{"店舗名":"こだわりの熟成牛ハラミ丼 南馬込店","住所":"〒143-0025 東京都大田区南馬込１丁目１５−４","ステータス":"APP_DISPLAY","region":"Ota","lat":35.592854,"lng":139.716339},{"店舗名":"ご飯と牛タンと。 南馬込店","住所":"〒143-0025 東京都大田区南馬込１丁目１５−４","ステータス":"APP_DISPLAY","region":"Ota","lat":35.592854,"lng":139.716339},{"店舗名":"【アサイーボウル】ALOHA SPOON ～Acai bowl cafe～ 南馬込店","住所":"〒143-0025 東京都大田区南馬込１丁目１５−４","ステータス":"APP_DISPLAY","region":"Ota","lat":35.592854,"lng":139.716339},{"店舗名":"香麗麻辣湯（シャンリーマーラータン） 南馬込店","住所":"〒143-0025 東京都大田区南馬込１丁目１５−４","ステータス":"APP_DISPLAY","region":"Ota","lat":35.592854,"lng":139.716339},{"店舗名":"パンとスープ。Cafe Karanos[カラノス]","住所":"〒143-0025 東京都大田区南馬込１丁目１５−４ 大光組ビル","ステータス":"APP_DISPLAY","region":"Ota","lat":35.592854,"lng":139.716339},{"店舗名":"ミモザカレー Mimosa Curry","住所":"〒143-0025 東京都大田区南馬込４丁目２８−１","ステータス":"APP_DISPLAY","region":"Ota","lat":35.58744,"lng":139.713745},{"店舗名":"【もっちり玄米と低脂質チキン】とりげん食堂 南馬込5丁目店","住所":"〒143-0025 東京都大田区南馬込５丁目","ステータス":"APP_DISPLAY","region":"Ota","lat":35.588505,"lng":139.709305},{"店舗名":"【出汁の旨みとたっぷり具材】雑炊の気分 南馬込5丁目店","住所":"〒143-0025 東京都大田区南馬込５丁目","ステータス":"APP_DISPLAY","region":"Ota","lat":35.588505,"lng":139.709305},{"店舗名":"【とろじゅわフレンチトースト】CafeBonheur 南馬込5丁目店","住所":"〒143-0025 東京都大田区南馬込５丁目","ステータス":"APP_DISPLAY","region":"Ota","lat":35.588505,"lng":139.709305},{"店舗名":"インド料理 ビンディ","住所":"〒143-0025 東京都大田区南馬込５丁目３８−４","ステータス":"APP_DISPLAY","region":"Ota","lat":35.586582,"lng":139.706818},{"店舗名":"こだわりのバナナジュース＆ラッシーのお店","住所":"〒143-0025 東京都大田区南馬込５丁目３８−４","ステータス":"APP_DISPLAY","region":"Ota","lat":35.586582,"lng":139.706818},{"店舗名":"オリジナル ケバブ","住所":"〒143-0025 東京都大田区南馬込５丁目３８−４","ステータス":"APP_DISPLAY","region":"Ota","lat":35.586582,"lng":139.706818},{"店舗名":"タンドオリチキンオーバーライス","住所":"〒143-0025 東京都大田区南馬込５丁目３８−４","ステータス":"APP_DISPLAY","region":"Ota","lat":35.586582,"lng":139.706818},{"店舗名":"カオマンガイ&ガバ オライス PAPAS キッチン","住所":"〒143-0025 東京都大田区南馬込５丁目３８−４","ステータス":"APP_DISPLAY","region":"Ota","lat":35.586582,"lng":139.706818},{"店舗名":"こだわりのバナナジ ュース&ラッシーの お店","住所":"〒143-0025 東京都大田区南馬込５丁目３８−４","ステータス":"RECEIPT","region":"Ota","lat":35.586582,"lng":139.706818},{"店舗名":"Wrap ニューヨークチキンラップ","住所":"〒143-0025 東京都大田区南馬込５丁目３８−４","ステータス":"APP_DISPLAY","region":"Ota","lat":35.586582,"lng":139.706818},{"店舗名":"【アジアン食堂】ママのココナッツカレ 一西馬込店","住所":"〒143-0025 東京都大田区南馬込５丁目３８−４ ホーメイレジデンス南馬込","ステータス":"RECEIPT","region":"Ota","lat":35.586582,"lng":139.706818},{"店舗名":"鉄板焼 焼きうどん 伊鉄","住所":"〒143-0025 東京都大田区南馬込５丁目４０−１","ステータス":"APP_DISPLAY","region":"Ota","lat":35.586636,"lng":139.705902},{"店舗名":"本格中華食堂 デリヤ","住所":"〒143-0025 東京都大田区南馬込５丁目40-2","ステータス":"APP_DISPLAY","region":"Ota","lat":35.586769,"lng":139.705994},{"店舗名":"ドミノ・ピザ 南馬込店","住所":"〒143-0025 東京都大田区南馬込６丁目３−１１","ステータス":"APP_DISPLAY","region":"Ota","lat":35.585197,"lng":139.707275},{"店舗名":"ラーメン 一䤚","住所":"〒143-0027 東京都大田区中馬込１丁目１−１","ステータス":"APP_DISPLAY","region":"Ota","lat":35.599243,"lng":139.703827},{"店舗名":"しゃぶしゃぶ温野菜 馬込店","住所":"〒143-0027 東京都大田区中馬込２丁目８−１","ステータス":"APP_DISPLAY","region":"Ota","lat":35.597244,"lng":139.708359},{"店舗名":"ナポリの窯 馬込店","住所":"〒143-0027 東京都大田区中馬込３丁目２６−１","ステータス":"APP_DISPLAY","region":"Ota","lat":35.594215,"lng":139.710266},{"店舗名":"すき家 梅屋敷駅東店","住所":"〒144-0031 東京都大田区東蒲田１丁目１−１","ステータス":"PENDING","region":"Ota","lat":35.56683,"lng":139.729095},{"店舗名":"肉汁ミートボール 円円円（まるまるまる）糀谷","住所":"〒144-0032 東京都大田区北糀谷１丁目1−1","ステータス":"RECEIPT","region":"Ota","lat":35.565609,"lng":139.735397},{"店舗名":"トロじゅわ煮込食堂 豚角丸 糀谷","住所":"〒144-0032 東京都大田区北糀谷１丁目１−１","ステータス":"APP_DISPLAY","region":"Ota","lat":35.565609,"lng":139.735397},{"店舗名":"東京スパイス飯 チキンオーバーライス WHITE YELLOW 糀谷","住所":"〒144-0032 東京都大田区北糀谷１丁目１−１","ステータス":"APP_DISPLAY","region":"Ota","lat":35.565609,"lng":139.735397},{"店舗名":"腸活サラダラップ！SUNNY WRAP HERO 糀谷","住所":"〒144-0032 東京都大田区北糀谷１丁目１−１","ステータス":"APP_DISPLAY","region":"Ota","lat":35.565609,"lng":139.735397},{"店舗名":"コク旨スパイスカレー CURRYWAY 糀谷","住所":"〒144-0032 東京都大田区北糀谷１丁目１−１","ステータス":"APP_DISPLAY","region":"Ota","lat":35.565609,"lng":139.735397},{"店舗名":"豚汁とお弁当のマスマス Pork Miso Soup MASUMASU 糀谷","住所":"〒144-0032 東京都大田区北糀谷１丁目１−１","ステータス":"APP_DISPLAY","region":"Ota","lat":35.565609,"lng":139.735397},{"店舗名":"ハラミステーキ イナズマ 糀谷","住所":"〒144-0032 東京都大田区北糀谷１丁目１−１","ステータス":"APP_DISPLAY","region":"Ota","lat":35.565609,"lng":139.735397},{"店舗名":"旨味！牛飯カオマンガイ KHAO MAN GOOD 糀谷","住所":"〒144-0032 東京都大田区北糀谷１丁目１−１","ステータス":"APP_DISPLAY","region":"Ota","lat":35.565609,"lng":139.735397},{"店舗名":"芳醇な明太子生パスタ MENTAI TABLE 糀谷","住所":"〒144-0032 東京都大田区北糀谷１丁目１−１","ステータス":"APP_DISPLAY","region":"Ota","lat":35.565609,"lng":139.735397},{"店舗名":"ねぎとろサーモン海苔弁 磯雲 糀谷","住所":"〒144-0032 東京都大田区北糀谷１丁目１−１","ステータス":"APP_DISPLAY","region":"Ota","lat":35.565609,"lng":139.735397},{"店舗名":"しみる旨さ極濃ソルロンタン ソルロン堂 糀谷","住所":"〒144-0032 東京都大田区北糀谷１丁目１−１","ステータス":"APP_DISPLAY","region":"Ota","lat":35.565609,"lng":139.735397},{"店舗名":"クセになる選べる麻婆豆腐 MAPO&MORE 糀谷","住所":"〒144-0032 東京都大田区北糀谷１丁目１−１","ステータス":"APP_DISPLAY","region":"Ota","lat":35.565609,"lng":139.735397},{"店舗名":"罪悪感なしのご褒美 Greek Yoghurt (Bliss) 糀谷","住所":"〒144-0032 東京都大田区北糀谷１丁目１−１","ステータス":"APP_DISPLAY","region":"Ota","lat":35.565609,"lng":139.735397},{"店舗名":"牛すじ煮込まぜそば 麺ビート 糀谷","住所":"〒144-0032 東京都大田区北糀谷１丁目１−１","ステータス":"APP_DISPLAY","region":"Ota","lat":35.565609,"lng":139.735397},{"店舗名":"【気分の上がるお弁当】AGARUKE LAB. by FOOD RECORDS 糀谷","住所":"〒144-0032 東京都大田区北糀谷１丁目１−１","ステータス":"APP_DISPLAY","region":"Ota","lat":35.565609,"lng":139.735397},{"店舗名":"インディアンレストラン　プザ","住所":"〒144-0033","ステータス":"APP_DISPLAY","region":"Ota","lat":35.559116,"lng":139.740448},{"店舗名":"鰻の成瀬 大鳥居店","住所":"〒144-0033 東京都大田区東糀谷２丁目１３−９","ステータス":"APP_DISPLAY","region":"Ota","lat":35.55394,"lng":139.740845},{"店舗名":"大衆鰻 うな銀 大鳥居東口駅前店","住所":"〒144-0033 東京都大田区東糀谷３丁目６−１１","ステータス":"APP_DISPLAY","region":"Ota","lat":35.552361,"lng":139.742188},{"店舗名":"千年の宴 大鳥居東口駅前店","住所":"〒144-0033 東京都大田区東糀谷３丁目６−１１","ステータス":"APP_DISPLAY","region":"Ota","lat":35.552361,"lng":139.742188},{"店舗名":"カミナリステーキ 大鳥居東口駅前店","住所":"〒144-0033 東京都大田区東糀谷３丁目６−１１","ステータス":"APP_DISPLAY","region":"Ota","lat":35.552361,"lng":139.742188},{"店舗名":"インド料理インディアンレストランマヤ","住所":"〒144-0034 東京都大田区西糀谷２丁目１１−４","ステータス":"APP_DISPLAY","region":"Ota","lat":35.559097,"lng":139.738251},{"店舗名":"イレブンフーズ源流 西糀谷店 Eleven Foods Genryu nishikoujiyaten","住所":"〒144-0034 東京都大田区西糀谷２丁目２６−４","ステータス":"APP_DISPLAY","region":"Ota","lat":35.557682,"lng":139.737518},{"店舗名":"アサイーボウル西糀谷店（仮称）","住所":"〒144-0034 東京都大田区西糀谷２丁目２６−４ 西糀谷二丁目第２アパート４号棟","ステータス":"APP_DISPLAY","region":"Ota","lat":35.557682,"lng":139.737518},{"店舗名":"すき家 大鳥居店","住所":"〒144-0034 東京都大田区西糀谷３丁目２１−２","ステータス":"PENDING","region":"Ota","lat":35.554344,"lng":139.739609},{"店舗名":"ステーキ＆カフェ・ブラット","住所":"〒144-0034 東京都大田区西糀谷３丁目２１−４","ステータス":"APP_DISPLAY","region":"Ota","lat":35.554157,"lng":139.739716},{"店舗名":"Rosy Roman","住所":"〒144-0034 東京都大田区西糀谷３丁目３９−６","ステータス":"APP_DISPLAY","region":"Ota","lat":35.552582,"lng":139.73851},{"店舗名":"丼丸 海桜 糀谷店","住所":"〒144-0034 東京都大田区西糀谷４丁目１３−１８","ステータス":"APP_DISPLAY","region":"Ota","lat":35.554401,"lng":139.730011},{"店舗名":"MOLAKEBAB","住所":"〒144-0034 東京都大田区西糀谷４丁目２７－８","ステータス":"APP_DISPLAY","region":"Ota","lat":35.553761,"lng":139.72995},{"店舗名":"若鶏からあげ店","住所":"〒144-0034 東京都大田区西糀谷４丁目２７−８","ステータス":"APP_DISPLAY","region":"Ota","lat":35.553761,"lng":139.72995},{"店舗名":"職人の寿司～築地日本海 糀谷店","住所":"〒144-0034 東京都大田区西糀谷４丁目２７−９","ステータス":"APP_DISPLAY","region":"Ota","lat":35.553871,"lng":139.72995},{"店舗名":"チョイ飲み くみたん","住所":"〒144-0034 東京都大田区西糀谷４丁目２８−１０","ステータス":"APP_DISPLAY","region":"Ota","lat":35.553928,"lng":139.729889},{"店舗名":"大阪王将 糀谷駅前店","住所":"〒144-0034 東京都大田区西糀谷４丁目２８−９","ステータス":"APP_DISPLAY","region":"Ota","lat":35.554062,"lng":139.729919},{"店舗名":"青森煮干 和渦製麺","住所":"〒144-0035 東京都大田区南蒲田１丁目２２−１２","ステータス":"APP_DISPLAY","region":"Ota","lat":35.557579,"lng":139.724823},{"店舗名":"うなぎ処 濱吉","住所":"〒144-0035 東京都大田区南蒲田１丁目７−２２","ステータス":"APP_DISPLAY","region":"Ota","lat":35.559238,"lng":139.727219},{"店舗名":"アサイー&グリークヨーグルト GREEK DAYS 蒲田店","住所":"〒144-0035 東京都大田区南蒲田２丁目２７−１","ステータス":"APP_DISPLAY","region":"Ota","lat":35.555611,"lng":139.720673},{"店舗名":"淡路島バーガー　蒲田店","住所":"〒144-0035 東京都大田区南蒲田２丁目２７−１","ステータス":"APP_DISPLAY","region":"Ota","lat":35.555611,"lng":139.720673},{"店舗名":"ステーキハンバーグ&生パスタけん蒲田店","住所":"〒144-0035 東京都大田区南蒲田２丁目２７−１ トーショービル","ステータス":"APP_DISPLAY","region":"Ota","lat":35.555611,"lng":139.720673},{"店舗名":"国産うなぎのやなぎ","住所":"〒144-0035 東京都大田区南蒲田２丁目２７−１ トーショービル","ステータス":"APP_DISPLAY","region":"Ota","lat":35.555611,"lng":139.720673},{"店舗名":"厚切り牛タンと絶品TKG よしたん YOSHITAN 蒲田店","住所":"〒144-0035 東京都大田区南蒲田２丁目２７−１ トーショービル","ステータス":"APP_DISPLAY","region":"Ota","lat":35.555611,"lng":139.720673},{"店舗名":"田島珈琲製作所","住所":"〒144-0035 東京都大田区南蒲田２丁目７−１１","ステータス":"APP_DISPLAY","region":"Ota","lat":35.556484,"lng":139.725159},{"店舗名":"ブーランジェリー ミモレット","住所":"〒144-0035 東京都大田区南蒲田２丁目８−１１","ステータス":"APP_DISPLAY","region":"Ota","lat":35.555519,"lng":139.725891},{"店舗名":"【本格インドカレー】ニューナマステヒマール New Namaste Himal","住所":"〒144-0035 東京都大田区南蒲田２丁目８−９","ステータス":"APP_DISPLAY","region":"Ota","lat":35.555752,"lng":139.726059},{"店舗名":"NOBEE BASE (ノビーベース)","住所":"〒144-0035 東京都大田区南蒲田３丁目１２ー２０","ステータス":"APP_DISPLAY","region":"Ota","lat":35.553265,"lng":139.728485},{"店舗名":"パキスタン家庭料理 ザイカ","住所":"〒144-0035 東京都大田区南蒲田３丁目２−６","ステータス":"APP_DISPLAY","region":"Ota","lat":35.554775,"lng":139.727997},{"店舗名":"すき家 糀谷店","住所":"〒144-0035 東京都大田区南蒲田３丁目３−１","ステータス":"PENDING","region":"Ota","lat":35.554344,"lng":139.728607},{"店舗名":"カレーハウス CoCo壱番屋 大田区南蒲田店","住所":"〒144-0035 東京都大田区南蒲田３丁目３−６ オーパスオピフェクス","ステータス":"APP_DISPLAY","region":"Ota","lat":35.553932,"lng":139.729187},{"店舗名":"和楽","住所":"〒144-0035 東京都大田区南蒲田３丁目６−２５","ステータス":"APP_DISPLAY","region":"Ota","lat":35.554852,"lng":139.725449},{"店舗名":"GURUNAVI FOODHALL WYE 天空橋","住所":"〒144-0041","ステータス":"APP_DISPLAY","region":"Ota","lat":35.554813,"lng":139.756943},{"店舗名":"しんぱち食堂　羽田エアポートガーデン店","住所":"〒144-0041 東京都大田区羽田空港２丁目7番1号","ステータス":"APP_DISPLAY","region":"Ota","lat":35.543854,"lng":139.764679},{"店舗名":"麺屋ごせつ","住所":"〒144-0042 東京都大田区羽田旭町３−６","ステータス":"APP_DISPLAY","region":"Ota","lat":35.551914,"lng":139.745819},{"店舗名":"大衆うなぎ　西尾の鰻","住所":"〒144-0043","ステータス":"APP_DISPLAY","region":"Ota","lat":35.550613,"lng":139.742874},{"店舗名":"サブウェイ 大鳥居店","住所":"〒144-0043 東京都大田区羽田１丁目１−３","ステータス":"APP_DISPLAY","region":"Ota","lat":35.552177,"lng":139.741074},{"店舗名":"JUICY BURGER (ジューシーバーガー)","住所":"〒144-0043 東京都大田区羽田１丁目４−５ 日興パレス羽田","ステータス":"APP_DISPLAY","region":"Ota","lat":35.551697,"lng":139.745316},{"店舗名":"麺屋 銀星 穴守稲荷","住所":"〒144-0043 東京都大田区羽田４丁目１０−４","ステータス":"APP_DISPLAY","region":"Ota","lat":35.549686,"lng":139.74704},{"店舗名":"たこ焼き くうたろう","住所":"〒144-0043 東京都大田区羽田４丁目１６−１２","ステータス":"APP_DISPLAY","region":"Ota","lat":35.549381,"lng":139.746185},{"店舗名":"すき家 環八羽田店","住所":"〒144-0043 東京都大田区羽田４丁目３−３","ステータス":"PENDING","region":"Ota","lat":35.551369,"lng":139.747635},{"店舗名":"クレープ喫茶レピドプテラ","住所":"〒144-0043 東京都大田区羽田５丁目２０−６","ステータス":"APP_DISPLAY","region":"Ota","lat":35.548882,"lng":139.749039},{"店舗名":"S'EED Cafe & Restaurant","住所":"〒144-0043 東京都大田区羽田６丁目１−７","ステータス":"APP_DISPLAY","region":"Ota","lat":35.547867,"lng":139.748215},{"店舗名":"文左亭本羽田萩中店","住所":"〒144-0044 東京都大田区本羽田２丁目３−１","ステータス":"APP_DISPLAY","region":"Ota","lat":35.549603,"lng":139.731079},{"店舗名":"すき家 大田南六郷店","住所":"〒144-0045 東京都大田区南六郷２丁目３４−７","ステータス":"PENDING","region":"Ota","lat":35.546257,"lng":139.722702},{"店舗名":"韓味苑","住所":"〒144-0045 東京都大田区南六郷２丁目３５−１","ステータス":"APP_DISPLAY","region":"Ota","lat":35.544682,"lng":139.721436},{"店舗名":"熟成バスクチーズケーキ","住所":"〒144-0045 東京都大田区南六郷２丁目５−１０","ステータス":"APP_DISPLAY","region":"Ota","lat":35.548626,"lng":139.720154},{"店舗名":"酔ってこ れんれん","住所":"〒144-0046 東京都大田区東六郷１丁目１１−１４","ステータス":"APP_DISPLAY","region":"Ota","lat":35.552128,"lng":139.720978},{"店舗名":"Shanti Indian Nepali Restaurant","住所":"〒144-0046 東京都大田区東六郷２丁目１１−１１","ステータス":"APP_DISPLAY","region":"Ota","lat":35.54863,"lng":139.718292},{"店舗名":"K’キッチン(ケーズキッチン)","住所":"〒144-0046 東京都大田区東六郷２丁目１４−８","ステータス":"APP_DISPLAY","region":"Ota","lat":35.549511,"lng":139.716919},{"店舗名":"Ｋ'キッチン","住所":"〒144-0046 東京都大田区東六郷２丁目６−９ ハイツ辰巳","ステータス":"APP_DISPLAY","region":"Ota","lat":35.549442,"lng":139.718124},{"店舗名":"らーめん楓 雑色店","住所":"〒144-0046 東京都大田区東六郷２丁目８−１","ステータス":"RECEIPT","region":"Ota","lat":35.549828,"lng":139.716156},{"店舗名":"ハジレストラン HAJI RESTAURANT","住所":"〒144-0046 東京都大田区東六郷２丁目８−１０","ステータス":"APP_DISPLAY","region":"Ota","lat":35.550842,"lng":139.717041},{"店舗名":"らーめんOrange","住所":"〒144-0046 東京都大田区東六郷２丁目８−２","ステータス":"APP_DISPLAY","region":"Ota","lat":35.549942,"lng":139.716248},{"店舗名":"居酒屋 源六","住所":"〒144-0046東京都大田区東六郷２丁目８−２０","ステータス":"APP_DISPLAY","region":"Ota","lat":35.549858,"lng":139.71701},{"店舗名":"CREPE CITY　糀谷店","住所":"〒144-0047","ステータス":"APP_DISPLAY","region":"Ota","lat":35.551239,"lng":139.726379},{"店舗名":"からあげ大ちゃん 糀谷店","住所":"〒144-0047 東京都大田区萩中１丁目６−１２","ステータス":"APP_DISPLAY","region":"Ota","lat":35.551991,"lng":139.72963},{"店舗名":"GOCHI KŌJIYA66","住所":"〒144-0047 東京都大田区萩中１丁目６−５","ステータス":"APP_DISPLAY","region":"Ota","lat":35.552608,"lng":139.729019},{"店舗名":"中国料理　万里","住所":"〒144-0047 東京都大田区萩中１丁目８−５","ステータス":"APP_DISPLAY","region":"Ota","lat":35.551598,"lng":139.728088},{"店舗名":"エベレスト インドネパールレストラン","住所":"〒144-0047 東京都大田区萩中２－１１－３","ステータス":"APP_DISPLAY","region":"Ota","lat":35.551411,"lng":139.7314},{"店舗名":"インド料理さくらダイニング SAKURA DINING","住所":"〒144-0047 東京都大田区萩中２－１－１９","ステータス":"APP_DISPLAY","region":"Ota","lat":35.552711,"lng":139.729752},{"店舗名":"麺屋こころ糀谷萩中店","住所":"〒144-0047 東京都大田区萩中２丁目１１番１号","ステータス":"APP_DISPLAY","region":"Ota","lat":35.551434,"lng":139.731064},{"店舗名":"ちよだ鮨 糀谷店","住所":"〒144-0047 東京都大田区萩中２丁目１−２３","ステータス":"APP_DISPLAY","region":"Ota","lat":35.553242,"lng":139.729843},{"店舗名":"じゃんぼ総本店 マルエツ新糀谷店","住所":"〒144-0047 東京都大田区萩中２丁目１２−５","ステータス":"APP_DISPLAY","region":"Ota","lat":35.5513,"lng":139.733017},{"店舗名":"時は豚なり 糀谷店","住所":"〒144-0047 東京都大田区萩中２丁目１−４","ステータス":"APP_DISPLAY","region":"Ota","lat":35.553246,"lng":139.730392},{"店舗名":"バラエティ","住所":"〒144-0047 東京都大田区萩中２丁目１−４","ステータス":"APP_DISPLAY","region":"Ota","lat":35.553246,"lng":139.730392},{"店舗名":"ピザハット 糀谷店","住所":"〒144-0047 東京都大田区萩中２丁目４−８","ステータス":"APP_DISPLAY","region":"Ota","lat":35.552731,"lng":139.733444},{"店舗名":"チキン・ウイングストリート 糀谷店","住所":"〒144-0047 東京都大田区萩中２丁目４−８","ステータス":"APP_DISPLAY","region":"Ota","lat":35.552731,"lng":139.733444},{"店舗名":"トスカーニパスタ 糀谷店","住所":"〒144-0047 東京都大田区萩中２丁目４−８","ステータス":"APP_DISPLAY","region":"Ota","lat":35.552731,"lng":139.733444},{"店舗名":"ベーカリー カルテット","住所":"〒144-0047 東京都大田区萩中２丁目７−１２","ステータス":"APP_DISPLAY","region":"Ota","lat":35.551601,"lng":139.730347},{"店舗名":"豚吉 糀谷店","住所":"〒144-0047 東京都大田区萩中２丁目８−１５","ステータス":"APP_DISPLAY","region":"Ota","lat":35.551918,"lng":139.729706},{"店舗名":"ダージリンスパイス糀谷店","住所":"〒144-0047 東京都大田区萩中２丁目８−１５","ステータス":"APP_DISPLAY","region":"Ota","lat":35.551918,"lng":139.729706},{"店舗名":"サーティワンアイスクリーム 糀谷店","住所":"〒144-0047 東京都大田区萩中２丁目９−１","ステータス":"APP_DISPLAY","region":"Ota","lat":35.551498,"lng":139.729797},{"店舗名":"新潟発祥なおじ 糀谷店","住所":"〒144-0047 東京都大田区萩中2丁目9番4号","ステータス":"APP_DISPLAY","region":"Ota","lat":35.551476,"lng":139.730255},{"店舗名":"ドミノ・ピザ 環八通り萩中公園店","住所":"〒144-0047 東京都大田区萩中３丁目１−６","ステータス":"APP_DISPLAY","region":"Ota","lat":35.552715,"lng":139.734436},{"店舗名":"BAR FLAT(バーフラット)","住所":"〒144-0047 東京都大田区萩中３丁目７番２号","ステータス":"APP_DISPLAY","region":"Ota","lat":35.552158,"lng":139.739975},{"店舗名":"【タピオカ専門店】TOKI SEVEN TEA 特製フルーツティー　蒲田店","住所":"〒144-0051","ステータス":"APP_DISPLAY","region":"Ota","lat":35.571575,"lng":139.713013},{"店舗名":"WAVY","住所":"〒144-0051","ステータス":"APP_DISPLAY","region":"Ota","lat":35.571575,"lng":139.713013},{"店舗名":"いちばんぼし","住所":"〒144-0051","ステータス":"APP_DISPLAY","region":"Ota","lat":35.571575,"lng":139.713013},{"店舗名":"蒲田飲んでちゃん","住所":"〒144-0051","ステータス":"APP_DISPLAY","region":"Ota","lat":35.571575,"lng":139.713013},{"店舗名":"韓家Hanga","住所":"〒144-0051","ステータス":"APP_DISPLAY","region":"Ota","lat":35.571575,"lng":139.713013},{"店舗名":"お好み焼きとしちゃん","住所":"〒144-0051","ステータス":"APP_DISPLAY","region":"Ota","lat":35.571575,"lng":139.713013},{"店舗名":"横濱とんこつ TUKASA 蒲田店","住所":"〒144-0051 東京都大田区西蒲田","ステータス":"APP_DISPLAY","region":"Ota","lat":35.571575,"lng":139.713013},{"店舗名":"BAR Buzz","住所":"〒144-0051 東京都大田区西蒲田","ステータス":"APP_DISPLAY","region":"Ota","lat":35.571575,"lng":139.713013},{"店舗名":"sumino","住所":"〒144-0051 東京都大田区西蒲田","ステータス":"APP_DISPLAY","region":"Ota","lat":35.571575,"lng":139.713013},{"店舗名":"にく処 Re楽酒 Nikudokoro Re rakushu","住所":"〒144-0051 東京都大田区西蒲田２丁目８−２８ サンハイム戸根","ステータス":"APP_DISPLAY","region":"Ota","lat":35.569427,"lng":139.706375},{"店舗名":"韓国料理・お惣菜 てんちゃんキッチン Tenchan Kitchen","住所":"〒144-0051 東京都大田区西蒲田４丁目１−９","ステータス":"APP_DISPLAY","region":"Ota","lat":35.570316,"lng":139.718475},{"店舗名":"志美津","住所":"〒144-0051 東京都大田区西蒲田４丁目３０−９ 関口マンション","ステータス":"APP_DISPLAY","region":"Ota","lat":35.568062,"lng":139.716293},{"店舗名":"シバタクレープ","住所":"〒144-0051 東京都大田区西蒲田５丁目１１−２２","ステータス":"APP_DISPLAY","region":"Ota","lat":35.566929,"lng":139.714249},{"店舗名":"激盛り豚丼メガトン西蒲田店","住所":"〒144-0051 東京都大田区西蒲田５丁目１２−５","ステータス":"APP_DISPLAY","region":"Ota","lat":35.567146,"lng":139.71611},{"店舗名":"【熟成からあげ】唐源 西蒲田店","住所":"〒144-0051 東京都大田区西蒲田５丁目１２−５","ステータス":"APP_DISPLAY","region":"Ota","lat":35.567146,"lng":139.71611},{"店舗名":"たまごたんぱくオムライス","住所":"〒144-0051 東京都大田区西蒲田５丁目１２−５","ステータス":"APP_DISPLAY","region":"Ota","lat":35.567146,"lng":139.71611},{"店舗名":"【和牛ハンバーグステーキ弁当】MEAT PROTEIN ～西蒲田店～","住所":"〒144-0051 東京都大田区西蒲田５丁目１２−５","ステータス":"APP_DISPLAY","region":"Ota","lat":35.567146,"lng":139.71611},{"店舗名":"神戸洋食グリル金プラハヤシライス＆カレーライス 西蒲田店","住所":"〒144-0051 東京都大田区西蒲田５丁目１２−５","ステータス":"APP_DISPLAY","region":"Ota","lat":35.567146,"lng":139.71611},{"店舗名":"【チキンステーキ弁当】Master Of Chicken～西蒲田店～","住所":"〒144-0051 東京都大田区西蒲田５丁目１２−５","ステータス":"APP_DISPLAY","region":"Ota","lat":35.567146,"lng":139.71611},{"店舗名":"【熟成肉】アヴィーズキッチン","住所":"〒144-0051 東京都大田区西蒲田５丁目１２−５","ステータス":"APP_DISPLAY","region":"Ota","lat":35.567146,"lng":139.71611},{"店舗名":"【和牛ハンバーグステーキ弁当】GOD OF MEAT～西蒲田店～","住所":"〒144-0051 東京都大田区西蒲田５丁目１２−５","ステータス":"APP_DISPLAY","region":"Ota","lat":35.567146,"lng":139.71611},{"店舗名":"【カラダが喜ぶオムライスCafe】Egg House～西蒲田店～","住所":"〒144-0051 東京都大田区西蒲田５丁目１２−５","ステータス":"APP_DISPLAY","region":"Ota","lat":35.567146,"lng":139.71611},{"店舗名":"【もっちり玄米と低脂質チキン】とりげん食堂蒲田駅前店","住所":"〒144-0051 東京都大田区西蒲田５丁目１２−５","ステータス":"APP_DISPLAY","region":"Ota","lat":35.567146,"lng":139.71611},{"店舗名":"蒲田カフェ","住所":"〒144-0051 東京都大田区西蒲田５丁目１４−５","ステータス":"APP_DISPLAY","region":"Ota","lat":35.566257,"lng":139.716141},{"店舗名":"MALA TOKYO","住所":"〒144-0051 東京都大田区西蒲田５丁目１９−１０","ステータス":"APP_DISPLAY","region":"Ota","lat":35.564724,"lng":139.7146},{"店舗名":"アジア物産展","住所":"〒144-0051 東京都大田区西蒲田５丁目１９−１３","ステータス":"APP_DISPLAY","region":"Ota","lat":35.564419,"lng":139.714508},{"店舗名":"ラウンジ2nd","住所":"〒144-0051 東京都大田区西蒲田５丁目２７−４","ステータス":"APP_DISPLAY","region":"Ota","lat":35.564697,"lng":139.713928},{"店舗名":"おばんざい Ber Mii","住所":"〒144-0051 東京都大田区西蒲田５丁目２７−６","ステータス":"APP_DISPLAY","region":"Ota","lat":35.564533,"lng":139.714203},{"店舗名":"油そば豚魂西蒲田店","住所":"〒144-0051 東京都大田区西蒲田５丁目４−１３","ステータス":"APP_DISPLAY","region":"Ota","lat":35.567184,"lng":139.716125},{"店舗名":"ASIAN Restaurant Ever Green","住所":"〒144-0051 東京都大田区西蒲田５丁目４−１３","ステータス":"APP_DISPLAY","region":"Ota","lat":35.567184,"lng":139.716125},{"店舗名":"インド料理シャンティ","住所":"〒144-0051 東京都大田区西蒲田６丁目３０−７ 1f","ステータス":"APP_DISPLAY","region":"Ota","lat":35.564613,"lng":139.70871},{"店舗名":"中華料理 嘉宴 蒲田店","住所":"〒144-0051 東京都大田区西蒲田６丁目３１−６","ステータス":"APP_DISPLAY","region":"Ota","lat":35.564613,"lng":139.709183},{"店舗名":"玉屋","住所":"〒144-0051 東京都大田区西蒲田６丁目３３−６","ステータス":"APP_DISPLAY","region":"Ota","lat":35.564674,"lng":139.711121},{"店舗名":"インド・ネパール料理 ヒルビュウ 蒲田店","住所":"〒144-0051 東京都大田区西蒲田６丁目３７−９","ステータス":"APP_DISPLAY","region":"Ota","lat":35.564388,"lng":139.713089},{"店舗名":"タコとハイボール蒲田店","住所":"〒144-0051 東京都大田区西蒲田７－６２－６","ステータス":"APP_DISPLAY","region":"Ota","lat":35.562061,"lng":139.712997},{"店舗名":"タンタンメン金家 蒲田店","住所":"〒144-0051 東京都大田区西蒲田７丁目","ステータス":"RECEIPT","region":"Ota","lat":35.563007,"lng":139.712494},{"店舗名":"KAKUMEI Burger&cafe","住所":"〒144-0051 東京都大田区西蒲田７丁目１０−１０","ステータス":"APP_DISPLAY","region":"Ota","lat":35.564007,"lng":139.711945},{"店舗名":"とん豚テジ 韓国料理 蒲田店 TONTON-TEGI Korean Restaurant KAMATA","住所":"〒144-0051 東京都大田区西蒲田７丁目１−１１","ステータス":"APP_DISPLAY","region":"Ota","lat":35.563904,"lng":139.716171},{"店舗名":"伝説のすた丼屋 蒲田店","住所":"〒144-0051 東京都大田区西蒲田７丁目１−１１ ダイヤビル","ステータス":"APP_DISPLAY","region":"Ota","lat":35.563904,"lng":139.716171},{"店舗名":"麺屋にぼじ","住所":"〒144-0051 東京都大田区西蒲田７丁目１−５","ステータス":"APP_DISPLAY","region":"Ota","lat":35.563541,"lng":139.716232},{"店舗名":"和バル　ふわり","住所":"〒144-0051 東京都大田区西蒲田７丁目１７−３","ステータス":"APP_DISPLAY","region":"Ota","lat":35.564243,"lng":139.708649},{"店舗名":"Kamata doner kebab","住所":"〒144-0051 東京都大田区西蒲田７丁目１−８","ステータス":"APP_DISPLAY","region":"Ota","lat":35.563526,"lng":139.716019},{"店舗名":"うどん038","住所":"〒144-0051 東京都大田区西蒲田７丁目１−９","ステータス":"APP_DISPLAY","region":"Ota","lat":35.563656,"lng":139.71608},{"店舗名":"横浜家系ラーメン 武","住所":"〒144-0051 東京都大田区西蒲田７丁目１−９","ステータス":"APP_DISPLAY","region":"Ota","lat":35.563656,"lng":139.71608},{"店舗名":"MAX SEE","住所":"〒144-0051 東京都大田区西蒲田７丁目１−９","ステータス":"APP_DISPLAY","region":"Ota","lat":35.563656,"lng":139.71608},{"店舗名":"ドミノ・ピザ 蒲田店","住所":"〒144-0051 東京都大田区西蒲田７丁目２２−２","ステータス":"APP_DISPLAY","region":"Ota","lat":35.564011,"lng":139.710693},{"店舗名":"SNACK Dream","住所":"〒144-0051 東京都大田区西蒲田７丁目２６−９","ステータス":"APP_DISPLAY","region":"Ota","lat":35.563457,"lng":139.71344},{"店舗名":"タイレストラン タイチャン","住所":"〒144-0051 東京都大田区西蒲田７丁目２６−９ 第５春野ビル ５階","ステータス":"APP_DISPLAY","region":"Ota","lat":35.563457,"lng":139.71344},{"店舗名":"韓国 居酒屋 ちょーあよ","住所":"〒144-0051 東京都大田区西蒲田７丁目２７−２","ステータス":"APP_DISPLAY","region":"Ota","lat":35.563755,"lng":139.714203},{"店舗名":"門限やぶり","住所":"〒144-0051 東京都大田区西蒲田７丁目２７−８","ステータス":"APP_DISPLAY","region":"Ota","lat":35.563404,"lng":139.714142},{"店舗名":"香楽園 蒲田西口店","住所":"〒144-0051 東京都大田区西蒲田７丁目２９−３","ステータス":"APP_DISPLAY","region":"Ota","lat":35.563278,"lng":139.714874},{"店舗名":"健康厨房 薬膳麻辣湯","住所":"〒144-0051 東京都大田区西蒲田７丁目２９−５","ステータス":"APP_DISPLAY","region":"Ota","lat":35.563194,"lng":139.715149},{"店舗名":"牡蠣だけじゃないよ。","住所":"〒144-0051 東京都大田区西蒲田７丁目２９−５ ニューカマタビル","ステータス":"APP_DISPLAY","region":"Ota","lat":35.563194,"lng":139.715149},{"店舗名":"鳥金セクワコーナー Torikin Sekuwa Corner","住所":"〒144-0051 東京都大田区西蒲田７丁目２９−５ ニューカマタビル","ステータス":"APP_DISPLAY","region":"Ota","lat":35.563194,"lng":139.715149},{"店舗名":"鍋・居酒屋 金ちゃん 蒲田店","住所":"〒144-0051 東京都大田区西蒲田７丁目２９−８ 田中ビル","ステータス":"APP_DISPLAY","region":"Ota","lat":35.563061,"lng":139.714844},{"店舗名":"大人の焼肉みなと","住所":"〒144-0051 東京都大田区西蒲田７丁目３１−２","ステータス":"APP_DISPLAY","region":"Ota","lat":35.563377,"lng":139.713562},{"店舗名":"Pub Venus","住所":"〒144-0051 東京都大田区西蒲田７丁目３１−３","ステータス":"APP_DISPLAY","region":"Ota","lat":35.563366,"lng":139.713745},{"店舗名":"味爱特麻辣烫","住所":"〒144-0051 東京都大田区西蒲田７丁目３１−９","ステータス":"APP_DISPLAY","region":"Ota","lat":35.56319,"lng":139.713303},{"店舗名":"aladdin shishabar 蒲田店","住所":"〒144-0051 東京都大田区西蒲田７丁目３−２","ステータス":"APP_DISPLAY","region":"Ota","lat":35.563473,"lng":139.715805},{"店舗名":"しなそば天味","住所":"〒144-0051 東京都大田区西蒲田７丁目３２−３","ステータス":"APP_DISPLAY","region":"Ota","lat":35.563408,"lng":139.712845},{"店舗名":"プリミエール・カフェ","住所":"〒144-0051 東京都大田区西蒲田７丁目３２−３ コーポ潮","ステータス":"APP_DISPLAY","region":"Ota","lat":35.563408,"lng":139.712845},{"店舗名":"薬膳茶 茶々音 蒲田店","住所":"〒144-0051 東京都大田区西蒲田７丁目３２−７","ステータス":"APP_DISPLAY","region":"Ota","lat":35.563187,"lng":139.713181},{"店舗名":"台湾菜館 弘城 蒲田西口店","住所":"〒144-0051 東京都大田区西蒲田７丁目３−７","ステータス":"APP_DISPLAY","region":"Ota","lat":35.563152,"lng":139.715469},{"店舗名":"シルクロード ウイグル料理 アリババ","住所":"〒144-0051 東京都大田区西蒲田７丁目４−１１ 2f","ステータス":"APP_DISPLAY","region":"Ota","lat":35.563633,"lng":139.715744},{"店舗名":"世界の山ちゃん　蒲田店","住所":"〒144-0051 東京都大田区西蒲田７丁目４２−１０","ステータス":"APP_DISPLAY","region":"Ota","lat":35.562851,"lng":139.711899},{"店舗名":"麺屋味方 蒲田店","住所":"〒144-0051 東京都大田区西蒲田７丁目４２−７","ステータス":"APP_DISPLAY","region":"Ota","lat":35.562912,"lng":139.712326},{"店舗名":"味来 茶酒坊","住所":"〒144-0051 東京都大田区西蒲田７丁目４３−６","ステータス":"APP_DISPLAY","region":"Ota","lat":35.563023,"lng":139.713165},{"店舗名":"Philippine Izakaya MAMITA CORA","住所":"〒144-0051 東京都大田区西蒲田７丁目４３−６","ステータス":"APP_DISPLAY","region":"Ota","lat":35.563023,"lng":139.713165},{"店舗名":"インドネパール料理シャングリーラ","住所":"〒144-0051 東京都大田区西蒲田７丁目４４−５ カマタITビル 3F","ステータス":"APP_DISPLAY","region":"Ota","lat":35.562874,"lng":139.713806},{"店舗名":"カレーハウス CoCo壱番屋 ＪＲ蒲田駅西口店","住所":"〒144-0051 東京都大田区西蒲田７丁目４−５","ステータス":"APP_DISPLAY","region":"Ota","lat":35.56403,"lng":139.716003},{"店舗名":"かまたでおにく","住所":"〒144-0051 東京都大田区西蒲田７丁目４－６","ステータス":"APP_DISPLAY","region":"Ota","lat":35.563938,"lng":139.71611},{"店舗名":"しゃぶしゃぶ温野菜 蒲田西口店","住所":"〒144-0051 東京都大田区西蒲田７丁目４−６","ステータス":"APP_DISPLAY","region":"Ota","lat":35.563938,"lng":139.71611},{"店舗名":"聚福園","住所":"〒144-0051 東京都大田区西蒲田７丁目４−６ 2階","ステータス":"APP_DISPLAY","region":"Ota","lat":35.563938,"lng":139.71611},{"店舗名":"好美味麻辣烫蒲田店","住所":"〒144-0051 東京都大田区西蒲田７丁目４６−１２","ステータス":"APP_DISPLAY","region":"Ota","lat":35.562866,"lng":139.714752},{"店舗名":"過橋米线＆ 麻辣香鍋蒲田店","住所":"〒144-0051 東京都大田区西蒲田７丁目４６−１２","ステータス":"APP_DISPLAY","region":"Ota","lat":35.562866,"lng":139.714752},{"店舗名":"かつや 蒲田西口店","住所":"〒144-0051 東京都大田区西蒲田７丁目４６−４","ステータス":"APP_DISPLAY","region":"Ota","lat":35.563007,"lng":139.714996},{"店舗名":"ちよだ鮨 蒲田店","住所":"〒144-0051 東京都大田区西蒲田７丁目４７−２","ステータス":"APP_DISPLAY","region":"Ota","lat":35.562584,"lng":139.714691},{"店舗名":"Cindy's Restaurant","住所":"〒144-0051 東京都大田区西蒲田７丁目４８−１４","ステータス":"APP_DISPLAY","region":"Ota","lat":35.56234,"lng":139.713547},{"店舗名":"アメイジングステーキ 蒲田店","住所":"〒144-0051 東京都大田区西蒲田７丁目４−９","ステータス":"APP_DISPLAY","region":"Ota","lat":35.563595,"lng":139.715973},{"店舗名":"油そばスタンド東京","住所":"〒144-0051 東京都大田区西蒲田７丁目４−９","ステータス":"RECEIPT","region":"Ota","lat":35.563595,"lng":139.715973},{"店舗名":"日乃屋カレー蒲田店","住所":"〒144-0051 東京都大田区西蒲田７丁目４９−８","ステータス":"APP_DISPLAY","region":"Ota","lat":35.562309,"lng":139.712845},{"店舗名":"Siddhartha","住所":"〒144-0051 東京都大田区西蒲田７丁目５０−１２","ステータス":"APP_DISPLAY","region":"Ota","lat":35.562248,"lng":139.711731},{"店舗名":"職人の寿司～築地日本海 蒲田店","住所":"〒144-0051 東京都大田区西蒲田７丁目５−１１","ステータス":"APP_DISPLAY","region":"Ota","lat":35.56356,"lng":139.715164},{"店舗名":"和馳走 蔵屋","住所":"〒144-0051 東京都大田区西蒲田７丁目５１−１１","ステータス":"APP_DISPLAY","region":"Ota","lat":35.562244,"lng":139.711243},{"店舗名":"工房直売所 藏屋洋菓子店","住所":"〒144-0051 東京都大田区西蒲田７丁目５１−１１","ステータス":"APP_DISPLAY","region":"Ota","lat":35.562244,"lng":139.711243},{"店舗名":"ラーメン 上吉","住所":"〒144-0051 東京都大田区西蒲田７丁目５１−１２","ステータス":"APP_DISPLAY","region":"Ota","lat":35.562244,"lng":139.71109},{"店舗名":"HANEDA BEER KICTHN","住所":"〒144-0051 東京都大田区西蒲田７丁目５１−１２","ステータス":"RECEIPT","region":"Ota","lat":35.562244,"lng":139.71109},{"店舗名":"吉野家 蒲田駅前店","住所":"〒144-0051 東京都大田区西蒲田７丁目５−１２","ステータス":"APP_DISPLAY","region":"Ota","lat":35.563683,"lng":139.715088},{"店舗名":"すき家 サンライズ蒲田店","住所":"〒144-0051 東京都大田区西蒲田７丁目５１−２","ステータス":"PENDING","region":"Ota","lat":35.562637,"lng":139.710754},{"店舗名":"MIRA","住所":"〒144-0051 東京都大田区西蒲田７丁目５−１４ シティプラザ蒲田","ステータス":"APP_DISPLAY","region":"Ota","lat":35.563942,"lng":139.714935},{"店舗名":"蒲田 松家カレー","住所":"〒144-0051 東京都大田区西蒲田７丁目５−４","ステータス":"APP_DISPLAY","region":"Ota","lat":35.563789,"lng":139.715393},{"店舗名":"鳥基宮・蒲田本店","住所":"〒144-0051 東京都大田区西蒲田７丁目５−６","ステータス":"APP_DISPLAY","region":"Ota","lat":35.56358,"lng":139.715546},{"店舗名":"粋酔 蒲田店","住所":"〒144-0051 東京都大田区西蒲田７丁目５−６","ステータス":"APP_DISPLAY","region":"Ota","lat":35.56358,"lng":139.715546},{"店舗名":"肉の牛焼屋　蒲田店","住所":"〒144-0051 東京都大田区西蒲田７丁目６０−１","ステータス":"APP_DISPLAY","region":"Ota","lat":35.562164,"lng":139.710602},{"店舗名":"林々町","住所":"〒144-0051 東京都大田区西蒲田７丁目６０−８","ステータス":"APP_DISPLAY","region":"Ota","lat":35.561962,"lng":139.711502},{"店舗名":"居酒屋けんちゃん","住所":"〒144-0051 東京都大田区西蒲田７丁目６０−８","ステータス":"APP_DISPLAY","region":"Ota","lat":35.561962,"lng":139.711502},{"店舗名":"月島もんじゃ焼き緑","住所":"〒144-0051 東京都大田区西蒲田７丁目６−１","ステータス":"APP_DISPLAY","region":"Ota","lat":35.563988,"lng":139.714676},{"店舗名":"シャイリーダイニング","住所":"〒144-0051 東京都大田区西蒲田７丁目６−１","ステータス":"APP_DISPLAY","region":"Ota","lat":35.563988,"lng":139.714676},{"店舗名":"ガチで濃いヤツ 蒲田店","住所":"〒144-0051 東京都大田区西蒲田７丁目６−１","ステータス":"APP_DISPLAY","region":"Ota","lat":35.563988,"lng":139.714676},{"店舗名":"SHAILY DINING 健康志向のねばとろ日和 蒲田店","住所":"〒144-0051 東京都大田区西蒲田７丁目６−１ 升本ビル 4f","ステータス":"APP_DISPLAY","region":"Ota","lat":35.563988,"lng":139.714676},{"店舗名":"本気のねぎとろ市場鬼塚  蒲田店","住所":"〒144-0051 東京都大田区西蒲田７丁目６−１ 升本ビル 4f","ステータス":"APP_DISPLAY","region":"Ota","lat":35.563988,"lng":139.714676},{"店舗名":"サーモンクラブ　蒲田店","住所":"〒144-0051 東京都大田区西蒲田７丁目６−１ 升本ビル 5F","ステータス":"APP_DISPLAY","region":"Ota","lat":35.563988,"lng":139.714676},{"店舗名":"東京タコライス 蒲田店","住所":"〒144-0051 東京都大田区西蒲田７丁目６−１ 升本ビル 5F","ステータス":"APP_DISPLAY","region":"Ota","lat":35.563988,"lng":139.714676},{"店舗名":"横浜まるざ唐揚げ工房 とりまる蒲田店","住所":"〒144-0051 東京都大田区西蒲田７丁目６１−６ シャルム・ペンシオン西蒲田","ステータス":"APP_DISPLAY","region":"Ota","lat":35.56213,"lng":139.712326},{"店舗名":"しゃれどう","住所":"〒144-0051 東京都大田区西蒲田７丁目６２−６ 西蒲田シンエイビル","ステータス":"APP_DISPLAY","region":"Ota","lat":35.562061,"lng":139.712997},{"店舗名":"大衆居酒屋 Meat＆Garic NO.29 蒲田","住所":"〒144-0051 東京都大田区西蒲田７丁目６２−９","ステータス":"APP_DISPLAY","region":"Ota","lat":35.562042,"lng":139.712509},{"店舗名":"アタラヨ","住所":"〒144-0051 東京都大田区西蒲田７丁目６３−１","ステータス":"APP_DISPLAY","region":"Ota","lat":35.562004,"lng":139.712494},{"店舗名":"中華龍","住所":"〒144-0051 東京都大田区西蒲田７丁目６３−８","ステータス":"APP_DISPLAY","region":"Ota","lat":35.561852,"lng":139.712692},{"店舗名":"牛骨ラーメン ｢不二家/蒲田店｣","住所":"〒144-0051 東京都大田区西蒲田７丁目６３−８ 2f","ステータス":"APP_DISPLAY","region":"Ota","lat":35.561852,"lng":139.712692},{"店舗名":"天ぷらすずき","住所":"〒144-0051 東京都大田区西蒲田７丁目６４−１","ステータス":"APP_DISPLAY","region":"Ota","lat":35.562023,"lng":139.713257},{"店舗名":"テラス・ドルチェ","住所":"〒144-0051 東京都大田区西蒲田７丁目６４−２","ステータス":"APP_DISPLAY","region":"Ota","lat":35.562031,"lng":139.713409},{"店舗名":"酔香園","住所":"〒144-0051 東京都大田区西蒲田７丁目６４−３","ステータス":"APP_DISPLAY","region":"Ota","lat":35.562038,"lng":139.713562},{"店舗名":"肉汁餃子のダンダダン 蒲田西口店","住所":"〒144-0051 東京都大田区西蒲田７丁目６４−６","ステータス":"APP_DISPLAY","region":"Ota","lat":35.561901,"lng":139.713776},{"店舗名":"しんぱち食堂蒲田西口はなれ","住所":"〒144-0051 東京都大田区西蒲田７丁目６５−１","ステータス":"APP_DISPLAY","region":"Ota","lat":35.562248,"lng":139.713242},{"店舗名":"韓国屋台 ペゴッパヨ 蒲田西口店","住所":"〒144-0051 東京都大田区西蒲田７丁目６５−１","ステータス":"APP_DISPLAY","region":"Ota","lat":35.562248,"lng":139.713242},{"店舗名":"鮨 おくうら 蒲田駅西口店","住所":"〒144-0051 東京都大田区西蒲田７丁目６５−１","ステータス":"APP_DISPLAY","region":"Ota","lat":35.562248,"lng":139.713242},{"店舗名":"鮨 酒 肴 杉玉 蒲田駅西口店","住所":"〒144-0051 東京都大田区西蒲田７丁目６５−１","ステータス":"APP_DISPLAY","region":"Ota","lat":35.562248,"lng":139.713242},{"店舗名":"大盛海鮮天丼マウンテン 蒲田駅西口店","住所":"〒144-0051 東京都大田区西蒲田７丁目６５−１","ステータス":"APP_DISPLAY","region":"Ota","lat":35.562248,"lng":139.713242},{"店舗名":"鮨 よし田 蒲田駅西口店","住所":"〒144-0051 東京都大田区西蒲田７丁目６５−１ ナカダビル 1F","ステータス":"APP_DISPLAY","region":"Ota","lat":35.562248,"lng":139.713242},{"店舗名":"まぐろ丼と海鮮丼 近衛 蒲田駅西口店","住所":"〒144-0051 東京都大田区西蒲田７丁目６５−１ ナカダビル 1F","ステータス":"APP_DISPLAY","region":"Ota","lat":35.562248,"lng":139.713242},{"店舗名":"ROCK鶏 台湾夜市 蒲田店","住所":"〒144-0051 東京都大田区西蒲田７丁目６５−４","ステータス":"APP_DISPLAY","region":"Ota","lat":35.562275,"lng":139.71376},{"店舗名":"ボボティ","住所":"〒144-0051 東京都大田区西蒲田７丁目６５−８","ステータス":"APP_DISPLAY","region":"Ota","lat":35.562088,"lng":139.713623},{"店舗名":"ODAN SUSELI","住所":"〒144-0051 東京都大田区西蒲田７丁目65番1号","ステータス":"APP_DISPLAY","region":"Ota","lat":35.562248,"lng":139.713242},{"店舗名":"はなまるうどん サンライズ蒲田店","住所":"〒144-0051 東京都大田区西蒲田７丁目６６−３","ステータス":"APP_DISPLAY","region":"Ota","lat":35.562378,"lng":139.714355},{"店舗名":"名代 富士そば 蒲田店","住所":"〒144-0051 東京都大田区西蒲田７丁目６６−６","ステータス":"APP_DISPLAY","region":"Ota","lat":35.562462,"lng":139.714767},{"店舗名":"回転寿司みさき 蒲田西口店","住所":"〒144-0051 東京都大田区西蒲田７丁目６６−７","ステータス":"APP_DISPLAY","region":"Ota","lat":35.562473,"lng":139.714844},{"店舗名":"蟹油そば 蟹専門crab台風。","住所":"〒144-0051 東京都大田区西蒲田７丁目６７−１２","ステータス":"APP_DISPLAY","region":"Ota","lat":35.561943,"lng":139.714188},{"店舗名":"ケンタッキーフライドチキン 蒲田店","住所":"〒144-0051 東京都大田区西蒲田７丁目６７−５","ステータス":"APP_DISPLAY","region":"Ota","lat":35.562126,"lng":139.714661},{"店舗名":"松ちゃんのたこ焼き屋DX　蒲田店","住所":"〒144-0051 東京都大田区西蒲田７丁目６７−５","ステータス":"APP_DISPLAY","region":"Ota","lat":35.562126,"lng":139.714661},{"店舗名":"揚げるんです！","住所":"〒144-0051 東京都大田区西蒲田７丁目６７−５","ステータス":"APP_DISPLAY","region":"Ota","lat":35.562126,"lng":139.714661},{"店舗名":"歓迎 西口店","住所":"〒144-0051 東京都大田区西蒲田７丁目６７−５","ステータス":"APP_DISPLAY","region":"Ota","lat":35.562126,"lng":139.714661},{"店舗名":"東京純豆腐グランデュオ蒲田店","住所":"〒144-0051 東京都大田区西蒲田７丁目６８−１ グランデュオ蒲田西館 6F","ステータス":"APP_DISPLAY","region":"Ota","lat":35.562431,"lng":139.715424},{"店舗名":"パンダ炭火串焼","住所":"〒144-0051 東京都大田区西蒲田７丁目７−４ MSビル2","ステータス":"APP_DISPLAY","region":"Ota","lat":35.564056,"lng":139.714493},{"店舗名":"Stickers","住所":"〒144-0051 東京都大田区西蒲田７丁目７−４ MSビルII 8F","ステータス":"APP_DISPLAY","region":"Ota","lat":35.564056,"lng":139.714493},{"店舗名":"GANG CAFE","住所":"〒144-0051 東京都大田区西蒲田８丁目","ステータス":"APP_DISPLAY","region":"Ota","lat":35.560478,"lng":139.71199},{"店舗名":"とんかつ檍のカレー屋 いっぺこっぺ 蒲田西口店","住所":"〒144-0051 東京都大田区西蒲田８丁目","ステータス":"APP_DISPLAY","region":"Ota","lat":35.560478,"lng":139.71199},{"店舗名":"ナポリの窯 蒲田店","住所":"〒144-0051 東京都大田区西蒲田８丁目１５−１１","ステータス":"APP_DISPLAY","region":"Ota","lat":35.559807,"lng":139.711334},{"店舗名":"ルシ インドビリヤニ 蒲田店","住所":"〒144-0051 東京都大田区西蒲田８丁目１−６ Ravina蒲田","ステータス":"APP_DISPLAY","region":"Ota","lat":35.561451,"lng":139.71489},{"店舗名":"バーガーキング蒲田駅東急口店","住所":"〒144-0051 東京都大田区西蒲田８丁目１−８","ステータス":"APP_DISPLAY","region":"Ota","lat":35.561256,"lng":139.714996},{"店舗名":"カフェ アサイーボウル Sacca Bacca(サッカバッカ)蒲田","住所":"〒144-0051 東京都大田区西蒲田８丁目１９−３","ステータス":"APP_DISPLAY","region":"Ota","lat":35.559959,"lng":139.712082},{"店舗名":"ラーメン鷹の目 蒲田店","住所":"〒144-0051 東京都大田区西蒲田８丁目２−１","ステータス":"APP_DISPLAY","region":"Ota","lat":35.561066,"lng":139.714066},{"店舗名":"漁師町三代目 牛とろいくら本舗 蒲田店","住所":"〒144-0051 東京都大田区西蒲田８丁目２２−３","ステータス":"APP_DISPLAY","region":"Ota","lat":35.560562,"lng":139.713821},{"店舗名":"糖質制限 ヘルシーカオマンガイの店 海南鶏飯本舗 蒲田店","住所":"〒144-0051 東京都大田区西蒲田８丁目２２−３","ステータス":"APP_DISPLAY","region":"Ota","lat":35.560562,"lng":139.713821},{"店舗名":"炙りトロ肉ホタテ丼 帆立男児 蒲田店","住所":"〒144-0051 東京都大田区西蒲田８丁目２２−３","ステータス":"APP_DISPLAY","region":"Ota","lat":35.560562,"lng":139.713821},{"店舗名":"ユッケの目線 蒲田店","住所":"〒144-0051 東京都大田区西蒲田８丁目２２−３","ステータス":"APP_DISPLAY","region":"Ota","lat":35.560562,"lng":139.713821},{"店舗名":"らーめん楓 鶴見店","住所":"〒144-0051 東京都大田区西蒲田８丁目２２−３","ステータス":"APP_DISPLAY","region":"Ota","lat":35.560562,"lng":139.713821},{"店舗名":"汁なし担々麺あおい","住所":"〒144-0051 東京都大田区西蒲田８丁目２３−８ 柴ビル 1階","ステータス":"APP_DISPLAY","region":"Ota","lat":35.560276,"lng":139.714722},{"店舗名":"Pêche (ペッシュ)","住所":"〒144-0051 東京都大田区西蒲田８丁目３−８ シャトレー西蒲田","ステータス":"APP_DISPLAY","region":"Ota","lat":35.560863,"lng":139.713913},{"店舗名":"アジアン バングラデシュ料理","住所":"〒144-0051 東京都大田区西蒲田四丁目2番9号","ステータス":"APP_DISPLAY","region":"Ota","lat":35.569324,"lng":139.718704},{"店舗名":"cheers","住所":"〒144-0051 東京都大田区西蒲田七丁目26番9号","ステータス":"APP_DISPLAY","region":"Ota","lat":35.563457,"lng":139.71344},{"店舗名":"らーめん蓮 蒲田本店","住所":"〒144-0051 東京都大田区西蒲田八丁目22番3号","ステータス":"APP_DISPLAY","region":"Ota","lat":35.560562,"lng":139.713821},{"店舗名":"CREPE CITY 京急蒲田店","住所":"〒144-0052","ステータス":"APP_DISPLAY","region":"Ota","lat":35.565697,"lng":139.719849},{"店舗名":"インドカレー　ドウターリ友達　蒲田本店","住所":"〒144-0052 東京都大田区蒲田","ステータス":"APP_DISPLAY","region":"Ota","lat":35.565697,"lng":139.719849},{"店舗名":"ラーメン大 蒲田店","住所":"〒144-0052 東京都大田区蒲田","ステータス":"RECEIPT","region":"Ota","lat":35.565697,"lng":139.719849},{"店舗名":"ひろまる","住所":"〒144-0052 東京都大田区蒲田１丁目１４−２６","ステータス":"RECEIPT","region":"Ota","lat":35.566101,"lng":139.72052},{"店舗名":"クレープマン89","住所":"〒144-0052 東京都大田区蒲田１丁目１９−５","ステータス":"APP_DISPLAY","region":"Ota","lat":35.564278,"lng":139.721725},{"店舗名":"韓国風居酒屋 てっちゃん","住所":"〒144-0052 東京都大田区蒲田１丁目２４−１６","ステータス":"APP_DISPLAY","region":"Ota","lat":35.564388,"lng":139.71965},{"店舗名":"エスパッソ・ブラジル","住所":"〒144-0052 東京都大田区蒲田１丁目３０−１５","ステータス":"APP_DISPLAY","region":"Ota","lat":35.56311,"lng":139.721329},{"店舗名":"らぁ麺 彩鶏 irodori","住所":"〒144-0052 東京都大田区蒲田２丁目４−５","ステータス":"APP_DISPLAY","region":"Ota","lat":35.567924,"lng":139.724884},{"店舗名":"ちよだ鮨 梅屋敷店","住所":"〒144-0052 東京都大田区蒲田２丁目７−１６","ステータス":"APP_DISPLAY","region":"Ota","lat":35.567364,"lng":139.727783},{"店舗名":"広島風お好み焼き鉄心 蒲田店","住所":"〒144-0052 東京都大田区蒲田３丁目１７−１５","ステータス":"APP_DISPLAY","region":"Ota","lat":35.562897,"lng":139.722412},{"店舗名":"ドミノ・ピザ 蒲田あやめ橋店","住所":"〒144-0052 東京都大田区蒲田３丁目１８−２２","ステータス":"APP_DISPLAY","region":"Ota","lat":35.562492,"lng":139.721405},{"店舗名":"甘藷まれのや KANSYO MARENOYA","住所":"〒144-0052 東京都大田区蒲田３丁目２−１","ステータス":"APP_DISPLAY","region":"Ota","lat":35.564583,"lng":139.722015},{"店舗名":"来富市場Raifuichiba","住所":"〒144-0052 東京都大田区蒲田４丁目１０−１４ プラウドシティ蒲田","ステータス":"APP_DISPLAY","region":"Ota","lat":35.561478,"lng":139.723312},{"店舗名":"鮨 よし田 京急蒲田店","住所":"〒144-0052 東京都大田区蒲田４丁目１６−８","ステータス":"APP_DISPLAY","region":"Ota","lat":35.561207,"lng":139.722397},{"店舗名":"まぐろ丼と海鮮丼 近衛 京急蒲田店","住所":"〒144-0052 東京都大田区蒲田４丁目１６−８","ステータス":"APP_DISPLAY","region":"Ota","lat":35.561207,"lng":139.722397},{"店舗名":"鮨 酒 肴 杉玉 京急蒲田店","住所":"〒144-0052 東京都大田区蒲田４丁目１６−８","ステータス":"APP_DISPLAY","region":"Ota","lat":35.561207,"lng":139.722397},{"店舗名":"大盛海鮮天丼マウンテン 京急蒲田店","住所":"〒144-0052 東京都大田区蒲田４丁目１６−８","ステータス":"APP_DISPLAY","region":"Ota","lat":35.561207,"lng":139.722397},{"店舗名":"鮨 おくうら 京急蒲田店","住所":"〒144-0052 東京都大田区蒲田４丁目１６−８ リビオ蒲田ザ・ゲート1階1号室","ステータス":"APP_DISPLAY","region":"Ota","lat":35.561207,"lng":139.722397},{"店舗名":"焼鳥美安","住所":"〒144-0052 東京都大田区蒲田４丁目１９−２","ステータス":"APP_DISPLAY","region":"Ota","lat":35.561604,"lng":139.722015},{"店舗名":"らーめん楓 京急蒲田店","住所":"〒144-0052 東京都大田区蒲田４丁目１９−２","ステータス":"APP_DISPLAY","region":"Ota","lat":35.561604,"lng":139.722015},{"店舗名":"焼肉はやし Yakiniku Hayashi","住所":"〒144-0052 東京都大田区蒲田４丁目２０−２","ステータス":"APP_DISPLAY","region":"Ota","lat":35.561779,"lng":139.721375},{"店舗名":"ナチュラルボウルアサイーNatural Açaí Bowl","住所":"〒144-0052 東京都大田区蒲田４丁目２０−２","ステータス":"APP_DISPLAY","region":"Ota","lat":35.561779,"lng":139.721375},{"店舗名":"鰻の成瀬 蒲田店","住所":"〒144-0052 東京都大田区蒲田４丁目２０−３","ステータス":"APP_DISPLAY","region":"Ota","lat":35.561771,"lng":139.721542},{"店舗名":"東京からあげ 舞","住所":"〒144-0052 東京都大田区蒲田４丁目２０−４ からあげ舞","ステータス":"APP_DISPLAY","region":"Ota","lat":35.561726,"lng":139.72168},{"店舗名":"ニーハオ 別館","住所":"〒144-0052 東京都大田区蒲田４丁目２５−７","ステータス":"APP_DISPLAY","region":"Ota","lat":35.560085,"lng":139.722031},{"店舗名":"インドカレー金丸","住所":"〒144-0052 東京都大田区蒲田４丁目３１−１","ステータス":"APP_DISPLAY","region":"Ota","lat":35.560589,"lng":139.719543},{"店舗名":"すき家 環八蒲田四丁目店","住所":"〒144-0052 東京都大田区蒲田４丁目４２−１２","ステータス":"PENDING","region":"Ota","lat":35.558903,"lng":139.718689},{"店舗名":"康楽蒲田店（コウラクカマタテン）","住所":"〒144-0052 東京都大田区蒲田４丁目４３−１３","ステータス":"APP_DISPLAY","region":"Ota","lat":35.55859,"lng":139.720123},{"店舗名":"七輪房　環八蒲田店","住所":"〒144-0052 東京都大田区蒲田４丁目４３−１５","ステータス":"APP_DISPLAY","region":"Ota","lat":35.558659,"lng":139.719803},{"店舗名":"すき家 京急蒲田駅前店","住所":"〒144-0052 東京都大田区蒲田４丁目５０−１１","ステータス":"PENDING","region":"Ota","lat":35.561001,"lng":139.724106},{"店舗名":"大戸屋ごはん処 ウィングキッチン京急蒲田店","住所":"〒144-0052 東京都大田区蒲田４丁目５０−１１","ステータス":"APP_DISPLAY","region":"Ota","lat":35.561001,"lng":139.724106},{"店舗名":"焼肉ホルモンぺごぱ 別館蒲田店 YAKINIKUHORUMONPEGOPABEXTUKANKAMATATEN","住所":"〒144-0052 東京都大田区蒲田４丁目５−８","ステータス":"APP_DISPLAY","region":"Ota","lat":35.561638,"lng":139.722275},{"店舗名":"名代 富士そば 京急蒲田店","住所":"〒144-0052 東京都大田区蒲田４丁目６−６","ステータス":"APP_DISPLAY","region":"Ota","lat":35.56131,"lng":139.723114},{"店舗名":"【豊洲市場直送！海鮮丼】ひもの屋　京急蒲田店","住所":"〒144-0052 東京都大田区蒲田４丁目６−８","ステータス":"RECEIPT","region":"Ota","lat":35.561417,"lng":139.722809},{"店舗名":"DJ魔の巣","住所":"〒144-0052 東京都大田区蒲田４丁目７−８ ハピネス蒲田","ステータス":"APP_DISPLAY","region":"Ota","lat":35.561657,"lng":139.722916},{"店舗名":"ファーストキッチン 蒲田東口店","住所":"〒144-0052 東京都大田区蒲田5-11-8","ステータス":"APP_DISPLAY","region":"Ota","lat":35.562874,"lng":139.717285},{"店舗名":"カラオケ ビッグエコー蒲田東口店","住所":"〒144-0052 東京都大田区蒲田５丁目","ステータス":"RECEIPT","region":"Ota","lat":35.561565,"lng":139.717636},{"店舗名":"ジャンボステーキはらぺこや 蒲田東口本店 JUMBO STEAK HATRAPEKOYA","住所":"〒144-0052 東京都大田区蒲田５丁目","ステータス":"APP_DISPLAY","region":"Ota","lat":35.561565,"lng":139.717636},{"店舗名":"ALO KEBAB 蒲田店","住所":"〒144-0052 東京都大田区蒲田５丁目１０−３","ステータス":"APP_DISPLAY","region":"Ota","lat":35.563576,"lng":139.717606},{"店舗名":"松翔苑 蒲田店","住所":"〒144-0052 東京都大田区蒲田５丁目１０−８","ステータス":"APP_DISPLAY","region":"Ota","lat":35.563511,"lng":139.717087},{"店舗名":"吞衆ノ鶏DONSYUNOTORI","住所":"〒144-0052 東京都大田区蒲田５丁目１２−１ リシェル・コート 1f","ステータス":"APP_DISPLAY","region":"Ota","lat":35.563675,"lng":139.717087},{"店舗名":"博多ラーメン一心堂 蒲田店","住所":"〒144-0052 東京都大田区蒲田５丁目１２−２","ステータス":"APP_DISPLAY","region":"Ota","lat":35.563541,"lng":139.717056},{"店舗名":"豚と脂。蒲田東口店","住所":"〒144-0052 東京都大田区蒲田５丁目１−３","ステータス":"APP_DISPLAY","region":"Ota","lat":35.564358,"lng":139.717178},{"店舗名":"近江牛の丼ぶり屋 蒲田東口店","住所":"〒144-0052 東京都大田区蒲田５丁目１−３","ステータス":"APP_DISPLAY","region":"Ota","lat":35.564358,"lng":139.717178},{"店舗名":"蟻諏北川 Alice","住所":"〒144-0052 東京都大田区蒲田５丁目１−４","ステータス":"APP_DISPLAY","region":"Ota","lat":35.564228,"lng":139.717148},{"店舗名":"濃厚魚介豚骨つけ麺 つじ田 蒲田店","住所":"〒144-0052 東京都大田区蒲田５丁目１−６","ステータス":"APP_DISPLAY","region":"Ota","lat":35.564011,"lng":139.716949},{"店舗名":"串カツ田中 蒲田店","住所":"〒144-0052 東京都大田区蒲田５丁目１−６ 蒲田駅前プラザ","ステータス":"APP_DISPLAY","region":"Ota","lat":35.564011,"lng":139.716949},{"店舗名":"カレーハウス CoCo壱番屋 ＪＲ蒲田駅東口店","住所":"〒144-0052 東京都大田区蒲田５丁目１６−９","ステータス":"APP_DISPLAY","region":"Ota","lat":35.562225,"lng":139.717087},{"店舗名":"果茶果茶 蒲田店","住所":"〒144-0052 東京都大田区蒲田５丁目１７−７","ステータス":"APP_DISPLAY","region":"Ota","lat":35.562469,"lng":139.717255},{"店舗名":"ごはんが進む！チキン南蛮本舗 蒲田東口店","住所":"〒144-0052 東京都大田区蒲田５丁目１７−７","ステータス":"APP_DISPLAY","region":"Ota","lat":35.562469,"lng":139.717255},{"店舗名":"『油そば桐ちゃん』～食べログ百名店 桐麺監修～ 蒲田東口店","住所":"〒144-0052 東京都大田区蒲田５丁目１７−７","ステータス":"APP_DISPLAY","region":"Ota","lat":35.562469,"lng":139.717255},{"店舗名":"ごはんがすすむ！油淋鶏飯店 蒲田東口店","住所":"〒144-0052 東京都大田区蒲田５丁目１７−７","ステータス":"APP_DISPLAY","region":"Ota","lat":35.562469,"lng":139.717255},{"店舗名":"ナポリデイズ 蒲田東口店","住所":"〒144-0052 東京都大田区蒲田５丁目１７−７","ステータス":"APP_DISPLAY","region":"Ota","lat":35.562469,"lng":139.717255},{"店舗名":"ミルゼリッチ 蒲田東口店","住所":"〒144-0052 東京都大田区蒲田５丁目１７−７","ステータス":"APP_DISPLAY","region":"Ota","lat":35.562469,"lng":139.717255},{"店舗名":"ビックエコーデリバリー 蒲田東口店","住所":"〒144-0052 東京都大田区蒲田５丁目１７−７","ステータス":"APP_DISPLAY","region":"Ota","lat":35.562469,"lng":139.717255},{"店舗名":"二段仕込み唐揚げ『鶏の福』 蒲田東口店","住所":"〒144-0052 東京都大田区蒲田５丁目１７−７","ステータス":"APP_DISPLAY","region":"Ota","lat":35.562469,"lng":139.717255},{"店舗名":"わらび餅茶屋 蒲田東口店","住所":"〒144-0052 東京都大田区蒲田５丁目１７−７","ステータス":"APP_DISPLAY","region":"Ota","lat":35.562469,"lng":139.717255},{"店舗名":"蒲田　増田屋そば店","住所":"〒144-0052 東京都大田区蒲田５丁目１８－３","ステータス":"APP_DISPLAY","region":"Ota","lat":35.562672,"lng":139.718124},{"店舗名":"エベレスト","住所":"〒144-0052 東京都大田区蒲田５丁目１８−３","ステータス":"APP_DISPLAY","region":"Ota","lat":35.562672,"lng":139.718124},{"店舗名":"スパイス研究所 MAD CHEFs 蒲田店","住所":"〒144-0052 東京都大田区蒲田５丁目１８−６","ステータス":"APP_DISPLAY","region":"Ota","lat":35.562702,"lng":139.718628},{"店舗名":"リンガーハット ＪＲ蒲田東口店","住所":"〒144-0052 東京都大田区蒲田５丁目１８−６ メイショウエステート","ステータス":"APP_DISPLAY","region":"Ota","lat":35.562702,"lng":139.718628},{"店舗名":"寛窄巷子 カンザイシャンズ 蒲田店","住所":"〒144-0052 東京都大田区蒲田５丁目１９−１６","ステータス":"APP_DISPLAY","region":"Ota","lat":35.562065,"lng":139.717804},{"店舗名":"中華そば 春夏O冬","住所":"〒144-0052 東京都大田区蒲田５丁目１９−５","ステータス":"APP_DISPLAY","region":"Ota","lat":35.562344,"lng":139.718445},{"店舗名":"華香楼東口 Karourou Higashiguchi","住所":"〒144-0052 東京都大田区蒲田５丁目２０−１","ステータス":"APP_DISPLAY","region":"Ota","lat":35.562,"lng":139.717758},{"店舗名":"蒲田 ダーツバー ノイズ","住所":"〒144-0052 東京都大田区蒲田５丁目２０−１ 蒲田東口一番街ビル","ステータス":"APP_DISPLAY","region":"Ota","lat":35.562,"lng":139.717758},{"店舗名":"らーめん潤 蒲田店","住所":"〒144-0052 東京都大田区蒲田５丁目２０−７","ステータス":"APP_DISPLAY","region":"Ota","lat":35.561886,"lng":139.71875},{"店舗名":"SOLMARI KAMATA","住所":"〒144-0052 東京都大田区蒲田５丁目２１−１３","ステータス":"APP_DISPLAY","region":"Ota","lat":35.562069,"lng":139.718933},{"店舗名":"牛タン×個室居酒屋 舌鼓 蒲田","住所":"〒144-0052 東京都大田区蒲田５丁目２１−１３","ステータス":"APP_DISPLAY","region":"Ota","lat":35.562069,"lng":139.718933},{"店舗名":"【本場の有名店が蒲田に登場！！】CHOTAROカレー 蒲田店","住所":"〒144-0052 東京都大田区蒲田５丁目２１−１３","ステータス":"APP_DISPLAY","region":"Ota","lat":35.562069,"lng":139.718933},{"店舗名":"ドウターリ友達 Local Uno","住所":"〒144-0052 東京都大田区蒲田５丁目２１−１３","ステータス":"APP_DISPLAY","region":"Ota","lat":35.562069,"lng":139.718933},{"店舗名":"話題の スープカレー専門店　   蒲田店","住所":"〒144-0052 東京都大田区蒲田５丁目２１−１３","ステータス":"APP_DISPLAY","region":"Ota","lat":35.562069,"lng":139.718933},{"店舗名":"話題のビリヤニ 専門店  蒲田店","住所":"〒144-0052 東京都大田区蒲田５丁目２１−１３","ステータス":"APP_DISPLAY","region":"Ota","lat":35.562069,"lng":139.718933},{"店舗名":"話題の タイ料理専門店  蒲田店","住所":"〒144-0052 東京都大田区蒲田５丁目２１−１３","ステータス":"APP_DISPLAY","region":"Ota","lat":35.562069,"lng":139.718933},{"店舗名":"大女優","住所":"〒144-0052 東京都大田区蒲田５丁目２２−７","ステータス":"APP_DISPLAY","region":"Ota","lat":35.562202,"lng":139.71904},{"店舗名":"ケンタッキーフライドチキン 蒲田東口店","住所":"〒144-0052 東京都大田区蒲田５丁目２３−１","ステータス":"APP_DISPLAY","region":"Ota","lat":35.562721,"lng":139.718948},{"店舗名":"吉野家 蒲田東口店","住所":"〒144-0052 東京都大田区蒲田５丁目２４−３","ステータス":"APP_DISPLAY","region":"Ota","lat":35.562679,"lng":139.719528},{"店舗名":"いきなりステーキ 蒲田店","住所":"〒144-0052 東京都大田区蒲田５丁目２５−２","ステータス":"APP_DISPLAY","region":"Ota","lat":35.562302,"lng":139.719849},{"店舗名":"俺の焼肉 蒲田店","住所":"〒144-0052 東京都大田区蒲田５丁目２６−５","ステータス":"APP_DISPLAY","region":"Ota","lat":35.562386,"lng":139.7202},{"店舗名":"しんぱち食堂蒲田店","住所":"〒144-0052 東京都大田区蒲田５丁目２７−９","ステータス":"APP_DISPLAY","region":"Ota","lat":35.561962,"lng":139.720718},{"店舗名":"フレッシュネスバーガー 蒲田店","住所":"〒144-0052 東京都大田区蒲田５丁目２８−１８","ステータス":"APP_DISPLAY","region":"Ota","lat":35.562141,"lng":139.720032},{"店舗名":"ボージングリハ","住所":"〒144-0052 東京都大田区蒲田５丁目２８−３","ステータス":"APP_DISPLAY","region":"Ota","lat":35.561989,"lng":139.720474},{"店舗名":"くら寿司 蒲田東店","住所":"〒144-0052 東京都大田区蒲田５丁目２８−８","ステータス":"APP_DISPLAY","region":"Ota","lat":35.561577,"lng":139.720612},{"店舗名":"KURIYA 鉄板焼き","住所":"〒144-0052 東京都大田区蒲田５丁目３０−１２","ステータス":"APP_DISPLAY","region":"Ota","lat":35.561687,"lng":139.719147},{"店舗名":"健康中華 青蓮 蒲田東口店","住所":"〒144-0052 東京都大田区蒲田５丁目３７−１","ステータス":"APP_DISPLAY","region":"Ota","lat":35.560673,"lng":139.718063},{"店舗名":"海鮮寿司めちゃんこ 蒲田東口駅前店","住所":"〒144-0052 東京都大田区蒲田５丁目３８−３","ステータス":"APP_DISPLAY","region":"Ota","lat":35.561638,"lng":139.717438},{"店舗名":"大衆鰻 うな銀 蒲田東口駅前店","住所":"〒144-0052 東京都大田区蒲田５丁目３８−３","ステータス":"APP_DISPLAY","region":"Ota","lat":35.561638,"lng":139.717438},{"店舗名":"からあげの鉄人 蒲田東口駅前店","住所":"〒144-0052 東京都大田区蒲田５丁目３８−３","ステータス":"APP_DISPLAY","region":"Ota","lat":35.561638,"lng":139.717438},{"店舗名":"カミナリステーキ 蒲田東口駅前店","住所":"〒144-0052 東京都大田区蒲田５丁目３８−３","ステータス":"APP_DISPLAY","region":"Ota","lat":35.561638,"lng":139.717438},{"店舗名":"魚民 蒲田東口駅前店","住所":"〒144-0052 東京都大田区蒲田５丁目３８−３ 蒲田朝日ビル","ステータス":"APP_DISPLAY","region":"Ota","lat":35.561638,"lng":139.717438},{"店舗名":"海鮮丼「一点極味屋」 蒲田東口駅前店","住所":"〒144-0052 東京都大田区蒲田５丁目３８−３ 蒲田朝日ビル","ステータス":"APP_DISPLAY","region":"Ota","lat":35.561638,"lng":139.717438},{"店舗名":"インドカレー・ネパール料理 ブラザーズモモ｜蒲田","住所":"〒144-0052 東京都大田区蒲田５丁目４１−２","ステータス":"APP_DISPLAY","region":"Ota","lat":35.561226,"lng":139.717239},{"店舗名":"鶏ポタラーメン THANK 蒲田店","住所":"〒144-0052 東京都大田区蒲田５丁目４３−６","ステータス":"APP_DISPLAY","region":"Ota","lat":35.560398,"lng":139.7173},{"店舗名":"生そば一力","住所":"〒144-0052 東京都大田区蒲田５丁目４３−６ 本田コーポ 1F","ステータス":"APP_DISPLAY","region":"Ota","lat":35.560398,"lng":139.7173},{"店舗名":"とんかつ檍のカレー屋 いっぺこっぺ 蒲田本店","住所":"〒144-0052 東京都大田区蒲田５丁目４３−７","ステータス":"APP_DISPLAY","region":"Ota","lat":35.560421,"lng":139.717148},{"店舗名":"インドネパールタイ アジアンレストラン&バーSITA 蒲田店","住所":"〒144-0052 東京都大田区蒲田５丁目４５−１","ステータス":"APP_DISPLAY","region":"Ota","lat":35.560444,"lng":139.716248},{"店舗名":"福建中華料理 源味","住所":"〒144-0052 東京都大田区蒲田５丁目４５−１","ステータス":"APP_DISPLAY","region":"Ota","lat":35.560444,"lng":139.716248},{"店舗名":"ポプラ東京タコライス 蒲田店","住所":"〒144-0052 東京都大田区蒲田５丁目４５−１","ステータス":"APP_DISPLAY","region":"Ota","lat":35.560444,"lng":139.716248},{"店舗名":"築地銀だこ マルエツかまた店","住所":"〒144-0052 東京都大田区蒲田５丁目４７−７","ステータス":"APP_DISPLAY","region":"Ota","lat":35.559505,"lng":139.716522},{"店舗名":"プリメスタ","住所":"〒144-0052 東京都大田区蒲田５丁目４８－１０","ステータス":"APP_DISPLAY","region":"Ota","lat":35.559467,"lng":139.716812},{"店舗名":"GAIA ジビエとナチュールワインの店","住所":"〒144-0052 東京都大田区蒲田５丁目７−６","ステータス":"APP_DISPLAY","region":"Ota","lat":35.56295,"lng":139.720093},{"店舗名":"バーガーキング蒲田駅東口店","住所":"〒144-0052 東京都大田区蒲田５丁目８−１","ステータス":"APP_DISPLAY","region":"Ota","lat":35.563377,"lng":139.718567},{"店舗名":"隠れ家オリエンス","住所":"〒144-0053 東京都大田区蒲田本町","ステータス":"APP_DISPLAY","region":"Ota","lat":35.557419,"lng":139.715744},{"店舗名":"【クリームたっぷり生ドーナツ】FuWaDonuts 大田区蒲田本町店","住所":"〒144-0053 東京都大田区蒲田本町","ステータス":"APP_DISPLAY","region":"Ota","lat":35.557419,"lng":139.715744},{"店舗名":"【出汁の旨みとたっぷり具材】雑炊の気分 大田区蒲田本町店","住所":"〒144-0053 東京都大田区蒲田本町","ステータス":"APP_DISPLAY","region":"Ota","lat":35.557419,"lng":139.715744},{"店舗名":"いちもん","住所":"〒144-0053 東京都大田区蒲田本町１丁目７−５","ステータス":"APP_DISPLAY","region":"Ota","lat":35.556511,"lng":139.717117},{"店舗名":"カンパイ 蒲田","住所":"〒144-0053 東京都大田区蒲田本町２丁目１５−７","ステータス":"APP_DISPLAY","region":"Ota","lat":35.556107,"lng":139.718567},{"店舗名":"FreshPokeWorks 蒲田本町2丁目店","住所":"〒144-0053 東京都大田区蒲田本町２丁目１５−７ みちのく商会","ステータス":"RECEIPT","region":"Ota","lat":35.556107,"lng":139.718567},{"店舗名":"【雑穀×発酵×ねばとろ丼】ねばとろみのり 蒲田本町2丁目店","住所":"〒144-0053 東京都大田区蒲田本町２丁目１５−７ みちのく商会","ステータス":"RECEIPT","region":"Ota","lat":35.556107,"lng":139.718567},{"店舗名":"カンパイ蒲田ナンカレーレストラン","住所":"〒144-0053 東京都大田区蒲田本町２丁目１５−７ みちのく商会 1階","ステータス":"APP_DISPLAY","region":"Ota","lat":35.556107,"lng":139.718567},{"店舗名":"台湾カフェ 時香茶 蒲田店","住所":"〒144-0054 東京都大田区新蒲田１丁目７−７","ステータス":"APP_DISPLAY","region":"Ota","lat":35.559372,"lng":139.712601},{"店舗名":"かつ丼屋 のぶお 蒲田店","住所":"〒144-0054 東京都大田区新蒲田１丁目７−７","ステータス":"APP_DISPLAY","region":"Ota","lat":35.559372,"lng":139.712601},{"店舗名":"韓国カルビ丼とスンドゥブ 洞山 蒲田店","住所":"〒144-0054 東京都大田区新蒲田１丁目７−７","ステータス":"APP_DISPLAY","region":"Ota","lat":35.559372,"lng":139.712601},{"店舗名":"焼きかつ丼 勝吉 蒲田店","住所":"〒144-0054 東京都大田区新蒲田１丁目７−７","ステータス":"APP_DISPLAY","region":"Ota","lat":35.559372,"lng":139.712601},{"店舗名":"どんぶり 神宮軒 蒲田店","住所":"〒144-0054 東京都大田区新蒲田１丁目７−７","ステータス":"APP_DISPLAY","region":"Ota","lat":35.559372,"lng":139.712601},{"店舗名":"お粥 煮え花 蒲田店","住所":"〒144-0054 東京都大田区新蒲田１丁目７−７","ステータス":"APP_DISPLAY","region":"Ota","lat":35.559372,"lng":139.712601},{"店舗名":"背徳めし食堂 蒲田店","住所":"〒144-0054 東京都大田区新蒲田１丁目７−７","ステータス":"APP_DISPLAY","region":"Ota","lat":35.559372,"lng":139.712601},{"店舗名":"元祖金沢チャンピオンカレーデリバリー 蒲田店","住所":"〒144-0054 東京都大田区新蒲田１丁目７−７","ステータス":"APP_DISPLAY","region":"Ota","lat":35.559372,"lng":139.712601},{"店舗名":"韓国クッパとビビンバ 全州 蒲田店","住所":"〒144-0054 東京都大田区新蒲田１丁目７−７","ステータス":"APP_DISPLAY","region":"Ota","lat":35.559372,"lng":139.712601},{"店舗名":"さぬきうどん・どんぶり 博好 蒲田店","住所":"〒144-0054 東京都大田区新蒲田１丁目７−７","ステータス":"APP_DISPLAY","region":"Ota","lat":35.559372,"lng":139.712601},{"店舗名":"宅配とんかつ かさねや 蒲田店","住所":"〒144-0054 東京都大田区新蒲田１丁目７−７ 知多ビル","ステータス":"APP_DISPLAY","region":"Ota","lat":35.559372,"lng":139.712601},{"店舗名":"旨辛スタミナ鉄板焼き 天神軒 蒲田店","住所":"〒144-0054 東京都大田区新蒲田１丁目７−７ 知多ビル 1階","ステータス":"APP_DISPLAY","region":"Ota","lat":35.559372,"lng":139.712601},{"店舗名":"とりめし かえで食堂 蒲田店","住所":"〒144-0054 東京都大田区新蒲田１丁目７−７ 知多ビル 1階","ステータス":"APP_DISPLAY","region":"Ota","lat":35.559372,"lng":139.712601},{"店舗名":"うどんと肉 角立 蒲田店","住所":"〒144-0054 東京都大田区新蒲田１丁目７−７ 知多ビル 1階","ステータス":"APP_DISPLAY","region":"Ota","lat":35.559372,"lng":139.712601},{"店舗名":"鶏弁 とり日和 蒲田店","住所":"〒144-0054 東京都大田区新蒲田１丁目７−７ 知多ビル 1階","ステータス":"APP_DISPLAY","region":"Ota","lat":35.559372,"lng":139.712601},{"店舗名":"ぶた玉丼とうどん ぶた玉家 蒲田店","住所":"〒144-0054 東京都大田区新蒲田１丁目７−７ 知多ビル 1階","ステータス":"APP_DISPLAY","region":"Ota","lat":35.559372,"lng":139.712601},{"店舗名":"熟成厚切りとんてき 三元道 蒲田店","住所":"〒144-0054 東京都大田区新蒲田１丁目７−７ 知多ビル 1階","ステータス":"APP_DISPLAY","region":"Ota","lat":35.559372,"lng":139.712601},{"店舗名":"鶏天豚天 通天道 蒲田店","住所":"〒144-0054 東京都大田区新蒲田１丁目７−７ 知多ビル 1階","ステータス":"APP_DISPLAY","region":"Ota","lat":35.559372,"lng":139.712601},{"店舗名":"中華料理 とらの子 新蒲田店","住所":"〒144-0054 東京都大田区新蒲田２丁目１−４ 家村ビル 1f","ステータス":"APP_DISPLAY","region":"Ota","lat":35.559875,"lng":139.708389},{"店舗名":"隠れ家キッチンNaNon","住所":"〒144-0054 東京都大田区新蒲田３丁目１２－１１","ステータス":"APP_DISPLAY","region":"Ota","lat":35.556599,"lng":139.708755},{"店舗名":"ダイニングバーフォレスト","住所":"〒144-0054 東京都大田区新蒲田３丁目２５−２","ステータス":"APP_DISPLAY","region":"Ota","lat":35.55584,"lng":139.705688},{"店舗名":"出前つけ麺専門店 三田製麺所 蒲田店","住所":"〒144-0054東京都大田区新蒲田１－７－７","ステータス":"APP_DISPLAY","region":"Ota","lat":35.559372,"lng":139.712601},{"店舗名":"居酒屋とりもり","住所":"〒144-0055 東京都大田区仲六郷","ステータス":"APP_DISPLAY","region":"Ota","lat":35.553665,"lng":139.715607},{"店舗名":"アティティ エスニック ダイニング","住所":"〒144-0055 東京都大田区仲六郷１丁目５１−１４","ステータス":"APP_DISPLAY","region":"Ota","lat":35.55283,"lng":139.717697},{"店舗名":"居酒屋 より舟","住所":"〒144-0055 東京都大田区仲六郷２丁目１４−２","ステータス":"APP_DISPLAY","region":"Ota","lat":35.55035,"lng":139.715057},{"店舗名":"珈琲豆　赤猫","住所":"〒144-0055 東京都大田区仲六郷２丁目１６−１２","ステータス":"APP_DISPLAY","region":"Ota","lat":35.550644,"lng":139.714142},{"店舗名":"Café Pippis","住所":"〒144-0055 東京都大田区仲六郷２丁目１８−１５","ステータス":"APP_DISPLAY","region":"Ota","lat":35.551125,"lng":139.713303},{"店舗名":"バインミーファンちゃん BANH MI Fan Chan","住所":"〒144-0055 東京都大田区仲六郷２丁目１９−７","ステータス":"APP_DISPLAY","region":"Ota","lat":35.551029,"lng":139.713272},{"店舗名":"おにぎり屋『JIKKA』","住所":"〒144-0055 東京都大田区仲六郷２丁目２１−１１","ステータス":"APP_DISPLAY","region":"Ota","lat":35.551163,"lng":139.711914},{"店舗名":"桃太郎","住所":"〒144-0055 東京都大田区仲六郷２丁目２１−１２ 肥田ビル","ステータス":"APP_DISPLAY","region":"Ota","lat":35.55125,"lng":139.711838},{"店舗名":"矢澤精肉店 雑色店","住所":"〒144-0055 東京都大田区仲六郷２丁目２５−２","ステータス":"APP_DISPLAY","region":"Ota","lat":35.550972,"lng":139.712433},{"店舗名":"【もっちり玄米と低脂質チキン】とりげん食堂 仲六郷店","住所":"〒144-0055 東京都大田区仲六郷２丁目２７−８ トラヤビル","ステータス":"APP_DISPLAY","region":"Ota","lat":35.550129,"lng":139.713867},{"店舗名":"元祖台湾まぜそば麺屋はなびエクスプレス 仲六郷店","住所":"〒144-0055 東京都大田区仲六郷２丁目２７−８ トラヤビル","ステータス":"APP_DISPLAY","region":"Ota","lat":35.550129,"lng":139.713867},{"店舗名":"ホワイトポスト","住所":"〒144-0055 東京都大田区仲六郷２丁目２８−１３","ステータス":"APP_DISPLAY","region":"Ota","lat":35.550137,"lng":139.714752},{"店舗名":"中華そば つの井","住所":"〒144-0055 東京都大田区仲六郷２丁目２９−１０","ステータス":"APP_DISPLAY","region":"Ota","lat":35.55014,"lng":139.715027},{"店舗名":"とん汁の店 まるやま食堂","住所":"〒144-0055 東京都大田区仲六郷２丁目２９−７ ザ・ルームズ雑色駅前","ステータス":"APP_DISPLAY","region":"Ota","lat":35.550098,"lng":139.714569},{"店舗名":"ケンタッキーフライドチキン 雑色駅前店","住所":"〒144-0055 東京都大田区仲六郷２丁目４２−１７","ステータス":"APP_DISPLAY","region":"Ota","lat":35.549747,"lng":139.715729},{"店舗名":"吉野家 雑色店","住所":"〒144-0055 東京都大田区仲六郷２丁目４２−３","ステータス":"APP_DISPLAY","region":"Ota","lat":35.549953,"lng":139.715637},{"店舗名":"〈ごはん特盛まで無料〉デミグラスハンバーグの店 デミたま 仲六郷2丁目店","住所":"〒144-0055 東京都大田区仲六郷２丁目４２−３","ステータス":"APP_DISPLAY","region":"Ota","lat":35.549953,"lng":139.715637},{"店舗名":"【BBQ】LAジャークチキン&ハンバーグ JERK SHACK 仲六郷2丁目店","住所":"〒144-0055 東京都大田区仲六郷２丁目４２−３","ステータス":"APP_DISPLAY","region":"Ota","lat":35.549953,"lng":139.715637},{"店舗名":"【タコス&ブリトーと言えば！】タコブリス TACO BRRISU 仲六郷2丁目店","住所":"〒144-0055 東京都大田区仲六郷２丁目４２−３","ステータス":"APP_DISPLAY","region":"Ota","lat":35.549953,"lng":139.715637},{"店舗名":"熟成牛たん 祇園猪川 仲六郷2丁目店","住所":"〒144-0055 東京都大田区仲六郷２丁目４２−３","ステータス":"APP_DISPLAY","region":"Ota","lat":35.549953,"lng":139.715637},{"店舗名":"手作りシフォンケーキのお店 いいな","住所":"〒144-0055 東京都大田区仲六郷２丁目４２−３","ステータス":"APP_DISPLAY","region":"Ota","lat":35.549953,"lng":139.715637},{"店舗名":"【フルーツたっぷりアサイーボウル】ワイキキ・ボウルズ 雑色店","住所":"〒144-0055 東京都大田区仲六郷２丁目４２−３","ステータス":"APP_DISPLAY","region":"Ota","lat":35.549953,"lng":139.715637},{"店舗名":"【アサイー&グリークヨーグルト】GREEKSPOON 雑色店","住所":"〒144-0055 東京都大田区仲六郷２丁目４２−３","ステータス":"APP_DISPLAY","region":"Ota","lat":35.549953,"lng":139.715637},{"店舗名":"窯焼きフレンチトーストの店 紅花","住所":"〒144-0055 東京都大田区仲六郷２丁目４２−３","ステータス":"APP_DISPLAY","region":"Ota","lat":35.549953,"lng":139.715637},