[{"店舗名":"広島焼・鉄板焼 たかしょう","住所":"〒669-1311 兵庫県三田市加茂１０８６−１","ステータス":"APP_DISPLAY","region":"Sanda","lat":34.929825,"lng":135.194656},{"店舗名":"インドネパールダイニングムナール","住所":"〒669-1321 兵庫県三田市けやき台１丁目６−２","ステータス":"RECEIPT","region":"Sanda","lat":34.907997,"lng":135.186249},{"店舗名":"ラーメン　そら","住所":"〒669-1512","ステータス":"APP_DISPLAY","region":"Sanda","lat":34.895138,"lng":135.236618},{"店舗名":"創作お好み焼きとんと　三田店","住所":"〒669-1512 兵庫県三田市高次１丁目８−７","ステータス":"APP_DISPLAY","region":"Sanda","lat":34.889935,"lng":135.23262},{"店舗名":"ラウンジかれん","住所":"〒669-1512 兵庫県三田市高次2-15-15","ステータス":"APP_DISPLAY","region":"Sanda","lat":34.888893,"lng":135.23468},{"店舗名":"SiNCOFFEE CAFE&ROASTETRS","住所":"〒669-1513 兵庫県三田市三輪１２８０−１","ステータス":"RECEIPT","region":"Sanda","lat":34.899357,"lng":135.236588},{"店舗名":"ドミノ・ピザ 三田市役所前店","住所":"〒669-1513 兵庫県三田市三輪２丁目１−１２ 丹商ビル","ステータス":"APP_DISPLAY","region":"Sanda","lat":34.889088,"lng":135.225662},{"店舗名":"吉野家 176号線三田店","住所":"〒669-1513 兵庫県三田市三輪４丁目６−６","ステータス":"APP_DISPLAY","region":"Sanda","lat":34.895298,"lng":135.222473},{"店舗名":"博多らーめん六寶","住所":"〒669-1523 兵庫県三田市寺村町４４００","ステータス":"RECEIPT","region":"Sanda","lat":34.878819,"lng":135.234528},{"店舗名":"Bagel&Coppe","住所":"〒669-1526 兵庫県三田市相生町２１−１２","ステータス":"RECEIPT","region":"Sanda","lat":34.881702,"lng":135.229034},{"店舗名":"サムギョプサル 竜馬","住所":"〒669-1526 兵庫県三田市相生町２６−２１ シャルダン三田 1F","ステータス":"APP_DISPLAY","region":"Sanda","lat":34.88192,"lng":135.225983},{"店舗名":"チーフの味　鉄千","住所":"〒669-1527 兵庫県三田市中町7-37","ステータス":"APP_DISPLAY","region":"Sanda","lat":34.886101,"lng":135.228882},{"店舗名":"ラウンジFamiliar","住所":"〒669-1528","ステータス":"APP_DISPLAY","region":"Sanda","lat":34.887039,"lng":135.231598},{"店舗名":"カジュアルラウンジLee","住所":"〒669-1528","ステータス":"RECEIPT","region":"Sanda","lat":34.887039,"lng":135.231598},{"店舗名":"定食屋 宮本むなし JR三田駅前店","住所":"〒669-1528 兵庫県三田市駅前町１−３８","ステータス":"RECEIPT","region":"Sanda","lat":34.888664,"lng":135.229141},{"店舗名":"酒場きんぼし","住所":"〒669-1528 兵庫県三田市駅前町１−３８","ステータス":"APP_DISPLAY","region":"Sanda","lat":34.888664,"lng":135.229141},{"店舗名":"とよ福","住所":"〒669-1528 兵庫県三田市駅前町２−１ 飲食 キッピーモ－ル１F","ステータス":"APP_DISPLAY","region":"Sanda","lat":34.888165,"lng":135.229492},{"店舗名":"PIZZERIA EN","住所":"〒669-1528 兵庫県三田市駅前町３−１０","ステータス":"APP_DISPLAY","region":"Sanda","lat":34.887032,"lng":135.22905},{"店舗名":"スナック　かな","住所":"〒669-1528 兵庫県三田市駅前町5-4","ステータス":"APP_DISPLAY","region":"Sanda","lat":34.886753,"lng":135.228165},{"店舗名":"スナック　I","住所":"〒669-1528 兵庫県三田市駅前町５−４","ステータス":"APP_DISPLAY","region":"Sanda","lat":34.886753,"lng":135.228165},{"店舗名":"わらやき酒場","住所":"〒669-1529","ステータス":"APP_DISPLAY","region":"Sanda","lat":34.887768,"lng":135.226288},{"店舗名":"うおぎん","住所":"〒669-1529 兵庫県三田市中央町１０−１","ステータス":"RECEIPT","region":"Sanda","lat":34.8885,"lng":135.227814},{"店舗名":"スナックぬくもり","住所":"〒669-1529 兵庫県三田市中央町11-17","ステータス":"APP_DISPLAY","region":"Sanda","lat":34.887569,"lng":135.227402},{"店舗名":"大衆焼肉ホルモンやまだ","住所":"〒669-1529 兵庫県三田市中央町１１−２","ステータス":"APP_DISPLAY","region":"Sanda","lat":34.887821,"lng":135.227692},{"店舗名":"煮こみや　りん","住所":"〒669-1529 兵庫県三田市中央町12-5","ステータス":"APP_DISPLAY","region":"Sanda","lat":34.88728,"lng":135.227814},{"店舗名":"本となごみの空間　オクショウ","住所":"〒669-1529 兵庫県三田市中央町１６−３","ステータス":"RECEIPT","region":"Sanda","lat":34.887012,"lng":135.225906},{"店舗名":"酒楽スタンド　にこいち","住所":"〒669-1529 兵庫県三田市中央町2-15","ステータス":"APP_DISPLAY","region":"Sanda","lat":34.889214,"lng":135.227264},{"店舗名":"博多麺々 三田店","住所":"〒669-1529 兵庫県三田市中央町２−６","ステータス":"APP_DISPLAY","region":"Sanda","lat":34.888763,"lng":135.227615},{"店舗名":"甚","住所":"〒669-1529 兵庫県三田市中央町４−１０","ステータス":"RECEIPT","region":"Sanda","lat":34.889561,"lng":135.226501},{"店舗名":"ほわ家","住所":"〒669-1529 兵庫県三田市中央町４−１６","ステータス":"APP_DISPLAY","region":"Sanda","lat":34.8894,"lng":135.227127},{"店舗名":"九丁目酒場","住所":"〒669-1529 兵庫県三田市中央町９−１９","ステータス":"APP_DISPLAY","region":"Sanda","lat":34.888737,"lng":135.227081},{"店舗名":"アサイーボウル ベジスマ 三田店","住所":"〒669-1529 兵庫県三田市中央町９−２２","ステータス":"APP_DISPLAY","region":"Sanda","lat":34.88868,"lng":135.227341},{"店舗名":"ダウラギリ 三田店","住所":"〒669-1531 兵庫県三田市天神１丁目２−１０","ステータス":"APP_DISPLAY","region":"Sanda","lat":34.889118,"lng":135.222717},{"店舗名":"きねや菓舗","住所":"〒669-1533 兵庫県三田市三田町17-18","ステータス":"APP_DISPLAY","region":"Sanda","lat":34.885342,"lng":135.225967},{"店舗名":"中華バルスミカ","住所":"〒669-1535","ステータス":"APP_DISPLAY","region":"Sanda","lat":34.880512,"lng":135.220718},{"店舗名":"カトマンドゥカリーPUJA 三田","住所":"〒669-1535 兵庫県三田市南が丘","ステータス":"APP_DISPLAY","region":"Sanda","lat":34.880512,"lng":135.220718},{"店舗名":"和食 福助","住所":"〒669-1535 兵庫県三田市南が丘１丁目５０−３","ステータス":"RECEIPT","region":"Sanda","lat":34.882225,"lng":135.219559},{"店舗名":"鰻の成瀬 兵庫三田店","住所":"〒669-1535 兵庫県三田市南が丘２−１−１４","ステータス":"APP_DISPLAY","region":"Sanda","lat":34.879505,"lng":135.221893},{"店舗名":"琉球料理　すし　おもと","住所":"〒669-1535 兵庫県三田市南が丘2丁目4-21","ステータス":"APP_DISPLAY","region":"Sanda","lat":34.87878,"lng":135.220047},{"店舗名":"アサイー工房 三田店","住所":"〒669-1537","ステータス":"APP_DISPLAY","region":"Sanda","lat":34.883835,"lng":135.21991},{"店舗名":"ファミリーバル たまねぎあたま","住所":"〒669-1537 兵庫県三田市西山","ステータス":"APP_DISPLAY","region":"Sanda","lat":34.883835,"lng":135.21991},{"店舗名":"キッチンクレイジーラボ","住所":"〒669-1537 兵庫県三田市西山２-２８-２","ステータス":"APP_DISPLAY","region":"Sanda","lat":34.883179,"lng":135.219406},{"店舗名":"結　MUSUBI","住所":"〒669-1537 兵庫県三田市西山２丁目","ステータス":"APP_DISPLAY","region":"Sanda","lat":34.883514,"lng":135.216537},{"店舗名":"韓国創作料理　泰治","住所":"〒669-1537 兵庫県三田市西山２丁目２８−２","ステータス":"APP_DISPLAY","region":"Sanda","lat":34.883179,"lng":135.219406},{"店舗名":"ガッツリスタミナ弁当!!野郎の道!!～西山2丁目店～","住所":"〒669-1537 兵庫県三田市西山２丁目２８−２","ステータス":"APP_DISPLAY","region":"Sanda","lat":34.883179,"lng":135.219406},{"店舗名":"【カラダが喜ぶオムライスCafe】Egg House～西山2丁目店～","住所":"〒669-1537 兵庫県三田市西山２丁目２８−２","ステータス":"APP_DISPLAY","region":"Sanda","lat":34.883179,"lng":135.219406},{"店舗名":"【チキンステーキ弁当】Master Of Chicken～西山2丁目店～","住所":"〒669-1537 兵庫県三田市西山２丁目２８−２","ステータス":"APP_DISPLAY","region":"Sanda","lat":34.883179,"lng":135.219406},{"店舗名":"(宅配専門店)ゴーゴーカレー 西山2丁目店","住所":"〒669-1537 兵庫県三田市西山２丁目２８−２","ステータス":"APP_DISPLAY","region":"Sanda","lat":34.883179,"lng":135.219406},{"店舗名":"【天使の粉舞う　アサイーボウル】","住所":"〒669-1537 兵庫県三田市西山２丁目２８−２","ステータス":"APP_DISPLAY","region":"Sanda","lat":34.883179,"lng":135.219406},{"店舗名":"〜ライスバーガー専門店〜お米deサンド","住所":"〒669-1537 兵庫県三田市西山２丁目２９−５","ステータス":"APP_DISPLAY","region":"Sanda","lat":34.883656,"lng":135.219345},{"店舗名":"鶏玄の彩りキッチン","住所":"〒669-1537 兵庫県三田市西山２丁目２９−５","ステータス":"APP_DISPLAY","region":"Sanda","lat":34.883656,"lng":135.219345},{"店舗名":"【本格麻辣×自家製春雨】白虎麻辣湯 三田西山店","住所":"〒669-1537 兵庫県三田市西山２丁目２９−５ 102","ステータス":"RECEIPT","region":"Sanda","lat":34.883656,"lng":135.219345},{"店舗名":"炭火豚モツ焼 もつ吉","住所":"〒669-1537 兵庫県三田市西山２丁目８−１９","ステータス":"APP_DISPLAY","region":"Sanda","lat":34.883827,"lng":135.218658},{"店舗名":"鍋焼きうどん専門店","住所":"〒669-1537 兵庫県三田市西山２丁目８−１９","ステータス":"APP_DISPLAY","region":"Sanda","lat":34.883827,"lng":135.218658},{"店舗名":"あ！雑炊たべたい西山2丁目店","住所":"〒669-1537 兵庫県三田市西山２丁目８−１９","ステータス":"APP_DISPLAY","region":"Sanda","lat":34.883827,"lng":135.218658},{"店舗名":"日々是々","住所":"〒669-1544","ステータス":"APP_DISPLAY","region":"Sanda","lat":34.880959,"lng":135.213776},{"店舗名":"からあげの鉄人 フラワータウン駅前店","住所":"〒669-1544 兵庫県三田市武庫が丘７丁目２−１","ステータス":"APP_DISPLAY","region":"Sanda","lat":34.885948,"lng":135.202484},{"店舗名":"とんかつの和吉 フラワータウン駅前店","住所":"〒669-1544 兵庫県三田市武庫が丘７丁目２−１","ステータス":"APP_DISPLAY","region":"Sanda","lat":34.885948,"lng":135.202484},{"店舗名":"魚民 フラワータウン駅前店","住所":"〒669-1544 兵庫県三田市武庫が丘７丁目２−１","ステータス":"APP_DISPLAY","region":"Sanda","lat":34.885948,"lng":135.202484},{"店舗名":"さんさん食堂・さんさん弁当","住所":"兵庫県三田市三輪2-1-1三田市役所2号庁舎1階","ステータス":"RECEIPT","region":"Sanda","lat":34.889999,"lng":135.226074}]