[{"店舗名":"バーガーキング下北沢駅南口店","住所":"〒144-0031 東京都世田谷区北沢２丁目１３−７","ステータス":"APP_DISPLAY","region":"Setagaya","lat":35.660713,"lng":139.667557},{"店舗名":"佐野らーめん永純","住所":"〒154-0001","ステータス":"APP_DISPLAY","region":"Setagaya","lat":35.644032,"lng":139.682098},{"店舗名":"三葉洞","住所":"〒154-0001","ステータス":"APP_DISPLAY","region":"Setagaya","lat":35.644032,"lng":139.682098},{"店舗名":"しゃぶしゃぶ温野菜 三宿店","住所":"〒154-0001 東京都世田谷区池尻１丁目１１−１２","ステータス":"APP_DISPLAY","region":"Setagaya","lat":35.644611,"lng":139.679703},{"店舗名":"三宿おにぎり AZUMAYA","住所":"〒154-0001 東京都世田谷区池尻１丁目１１−８","ステータス":"APP_DISPLAY","region":"Setagaya","lat":35.645016,"lng":139.679382},{"店舗名":"和ビストロ 一","住所":"〒154-0001 東京都世田谷区池尻１丁目７−１４ アントレパルク","ステータス":"RECEIPT","region":"Setagaya","lat":35.643177,"lng":139.680511},{"店舗名":"ドミノ・ピザ 世田谷公園店","住所":"〒154-0001 東京都世田谷区池尻１丁目７−１８","ステータス":"APP_DISPLAY","region":"Setagaya","lat":35.642712,"lng":139.680847},{"店舗名":"【包みハンバーグステーキ】洋食バルAvvolto 池尻店","住所":"〒154-0001 東京都世田谷区池尻２丁目","ステータス":"APP_DISPLAY","region":"Setagaya","lat":35.647785,"lng":139.681656},{"店舗名":"【SUSURU監修】油そばビックバン","住所":"〒154-0001 東京都世田谷区池尻２丁目１５−８","ステータス":"APP_DISPLAY","region":"Setagaya","lat":35.647892,"lng":139.681091},{"店舗名":"雑穀X発酵xねばとろ丼〜ねばとろみのり～池尻2丁目店","住所":"〒154-0001 東京都世田谷区池尻２丁目１５−８","ステータス":"APP_DISPLAY","region":"Setagaya","lat":35.647892,"lng":139.681091},{"店舗名":"【玄米×発酵×ねばとろ丼】ねばとろみのり 池尻2丁目店","住所":"〒154-0001 東京都世田谷区池尻２丁目１５−８","ステータス":"APP_DISPLAY","region":"Setagaya","lat":35.647892,"lng":139.681091},{"店舗名":"毎日健康！ ブロッコリー生活 池尻大橋店","住所":"〒154-0001 東京都世田谷区池尻２丁目１５−８","ステータス":"APP_DISPLAY","region":"Setagaya","lat":35.647892,"lng":139.681091},{"店舗名":"【ロシアン佐藤監修】発酵アサイーボウル - どりどり【米麹×アサイー】池尻大橋店","住所":"〒154-0001 東京都世田谷区池尻２丁目１５−８","ステータス":"APP_DISPLAY","region":"Setagaya","lat":35.647892,"lng":139.681091},{"店舗名":"[もっちり玄米と低脂質チキン] とりげん食堂 池尻2丁目店","住所":"〒154-0001 東京都世田谷区池尻２丁目１５−８","ステータス":"APP_DISPLAY","region":"Setagaya","lat":35.647892,"lng":139.681091},{"店舗名":"サーモンクラブ 池尻大橋店","住所":"〒154-0001 東京都世田谷区池尻２丁目１５−８ プラザ池尻","ステータス":"APP_DISPLAY","region":"Setagaya","lat":35.647892,"lng":139.681091},{"店舗名":"アロハな東京ポキ 池尻大橋店","住所":"〒154-0001 東京都世田谷区池尻２丁目１５−８ プラザ池尻","ステータス":"APP_DISPLAY","region":"Setagaya","lat":35.647892,"lng":139.681091},{"店舗名":"健康志向のねばとろ日和 池尻大橋店","住所":"〒154-0001 東京都世田谷区池尻２丁目１５−８ プラザ池尻","ステータス":"APP_DISPLAY","region":"Setagaya","lat":35.647892,"lng":139.681091},{"店舗名":"おかゆ家 店内炊き上げの専門店 池尻大橋店","住所":"〒154-0001 東京都世田谷区池尻２丁目１５−８ プラザ池尻","ステータス":"APP_DISPLAY","region":"Setagaya","lat":35.647892,"lng":139.681091},{"店舗名":"海鮮炙り丼 炉端の山ちゃん 池尻大橋店","住所":"〒154-0001 東京都世田谷区池尻２丁目１５−８ プラザ池尻","ステータス":"APP_DISPLAY","region":"Setagaya","lat":35.647892,"lng":139.681091},{"店舗名":"炭火焼魚専門店 焼き魚と味噌汁 池尻大橋店","住所":"〒154-0001 東京都世田谷区池尻２丁目１５−８ プラザ池尻","ステータス":"APP_DISPLAY","region":"Setagaya","lat":35.647892,"lng":139.681091},{"店舗名":"炙り焼きサーモン とろ松 池尻大橋店","住所":"〒154-0001 東京都世田谷区池尻２丁目１５−８ プラザ池尻","ステータス":"APP_DISPLAY","region":"Setagaya","lat":35.647892,"lng":139.681091},{"店舗名":"【ヘルシー生活】極み海鮮ポキ丼 池尻大橋店","住所":"〒154-0001 東京都世田谷区池尻２丁目１５−８ プラザ池尻","ステータス":"APP_DISPLAY","region":"Setagaya","lat":35.647892,"lng":139.681091},{"店舗名":"本場メキシコのタコライス専門店② 池尻大橋店","住所":"〒154-0001 東京都世田谷区池尻２丁目１５−８ プラザ池尻","ステータス":"APP_DISPLAY","region":"Setagaya","lat":35.647892,"lng":139.681091},{"店舗名":"とろろ丼専門店 山岡屋 池尻大橋店","住所":"〒154-0001 東京都世田谷区池尻２丁目１５−８ プラザ池尻","ステータス":"APP_DISPLAY","region":"Setagaya","lat":35.647892,"lng":139.681091},{"店舗名":"【メキシコ沖縄】やみつきTaco&タコ 池尻大橋店","住所":"〒154-0001 東京都世田谷区池尻２丁目１５−８ プラザ池尻","ステータス":"APP_DISPLAY","region":"Setagaya","lat":35.647892,"lng":139.681091},{"店舗名":"ガチで濃いやつ 池尻大橋店","住所":"〒154-0001 東京都世田谷区池尻２丁目１５−８ プラザ池尻","ステータス":"APP_DISPLAY","region":"Setagaya","lat":35.647892,"lng":139.681091},{"店舗名":"豚ギャング 池尻大橋店","住所":"〒154-0001 東京都世田谷区池尻２丁目１５−８ プラザ池尻","ステータス":"APP_DISPLAY","region":"Setagaya","lat":35.647892,"lng":139.681091},{"店舗名":"【全量麹あまさけアサイーボウル】どりどり池尻大橋店","住所":"〒154-0001 東京都世田谷区池尻２丁目１５−８ プラザ池尻","ステータス":"APP_DISPLAY","region":"Setagaya","lat":35.647892,"lng":139.681091},{"店舗名":"ギャングまぜそば 池尻大橋店","住所":"〒154-0001 東京都世田谷区池尻２丁目１５−８ プラザ池尻","ステータス":"APP_DISPLAY","region":"Setagaya","lat":35.647892,"lng":139.681091},{"店舗名":"【日本の食卓】焼き魚と納豆と海鮮と山芋とろろ 池尻大橋店","住所":"〒154-0001 東京都世田谷区池尻２丁目１５−８ プラザ池尻","ステータス":"APP_DISPLAY","region":"Setagaya","lat":35.647892,"lng":139.681091},{"店舗名":"三度目のラーメン一代 池尻大橋店","住所":"〒154-0001 東京都世田谷区池尻２丁目１５−８ プラザ池尻","ステータス":"APP_DISPLAY","region":"Setagaya","lat":35.647892,"lng":139.681091},{"店舗名":"漢のギャング飯 池尻大橋店","住所":"〒154-0001 東京都世田谷区池尻２丁目１５−８ プラザ池尻","ステータス":"APP_DISPLAY","region":"Setagaya","lat":35.647892,"lng":139.681091},{"店舗名":"Dr.Smoothie 池尻大橋店","住所":"〒154-0001 東京都世田谷区池尻２丁目１５−８ プラザ池尻","ステータス":"APP_DISPLAY","region":"Setagaya","lat":35.647892,"lng":139.681091},{"店舗名":"FreshPokeWorks 池尻2丁目店","住所":"〒154-0001 東京都世田谷区池尻２丁目１５−８ プラザ池尻","ステータス":"APP_DISPLAY","region":"Setagaya","lat":35.647892,"lng":139.681091},{"店舗名":"インドネパール料理デリハック池尻大橋店","住所":"〒154-0001 東京都世田谷区池尻２丁目１５−８ プラザ池尻","ステータス":"APP_DISPLAY","region":"Setagaya","lat":35.647892,"lng":139.681091},{"店舗名":"【汁なし麻辣混ぜ麺】猫猫麻辣拌 池尻店","住所":"〒154-0001 東京都世田谷区池尻２丁目２０−９","ステータス":"APP_DISPLAY","region":"Setagaya","lat":35.648235,"lng":139.682053},{"店舗名":"おでん処〆の大判きつね蕎麦田や 池尻店","住所":"〒154-0001 東京都世田谷区池尻２丁目２０−９","ステータス":"APP_DISPLAY","region":"Setagaya","lat":35.648235,"lng":139.682053},{"店舗名":"静岡おでん田や別邸 池尻店","住所":"〒154-0001 東京都世田谷区池尻２丁目２０−９","ステータス":"APP_DISPLAY","region":"Setagaya","lat":35.648235,"lng":139.682053},{"店舗名":"街の惣菜と弁当屋さんベット 池尻大橋 Bet","住所":"〒154-0001 東京都世田谷区池尻２丁目２６−６","ステータス":"APP_DISPLAY","region":"Setagaya","lat":35.648724,"lng":139.682663},{"店舗名":"寿司処 花笑み","住所":"〒154-0001 東京都世田谷区池尻２丁目３０−１２","ステータス":"APP_DISPLAY","region":"Setagaya","lat":35.649677,"lng":139.683731},{"店舗名":"ブリトー（メキシカン）専門店 アイルBurrito Restaurant i'll","住所":"〒154-0001 東京都世田谷区池尻２丁目３１−２３","ステータス":"APP_DISPLAY","region":"Setagaya","lat":35.650185,"lng":139.684052},{"店舗名":"にんにくラーメン阿利真","住所":"〒154-0001 東京都世田谷区池尻２丁目３４-１２","ステータス":"APP_DISPLAY","region":"Setagaya","lat":35.648651,"lng":139.681137},{"店舗名":"うちごはん","住所":"〒154-0001 東京都世田谷区池尻２丁目８−７","ステータス":"APP_DISPLAY","region":"Setagaya","lat":35.64719,"lng":139.678345},{"店舗名":"炭火焼肉料理＆イタリアン ＋ruli-ro （ルリイロ） Charcoal grilled meat & Italian ruliro","住所":"〒154-0001 東京都世田谷区池尻３丁目１６−３","ステータス":"APP_DISPLAY","region":"Setagaya","lat":35.65015,"lng":139.679138},{"店舗名":"パスタアルバ池尻大橋","住所":"〒154-0001 東京都世田谷区池尻３丁目１６−５","ステータス":"APP_DISPLAY","region":"Setagaya","lat":35.650356,"lng":139.679031},{"店舗名":"チョアチキン三宿店","住所":"〒154-0001 東京都世田谷区池尻３丁目１７-１２","ステータス":"APP_DISPLAY","region":"Setagaya","lat":35.65036,"lng":139.679947},{"店舗名":"BOBA-BOBA-CHICKEN","住所":"〒154-0001 東京都世田谷区池尻３丁目１７−１２","ステータス":"APP_DISPLAY","region":"Setagaya","lat":35.65036,"lng":139.679947},{"店舗名":"TAKOYAKI bar LINK","住所":"〒154-0001 東京都世田谷区池尻３丁目１８−１","ステータス":"APP_DISPLAY","region":"Setagaya","lat":35.649738,"lng":139.680435},{"店舗名":"アビスカ","住所":"〒154-0001 東京都世田谷区池尻３丁目２１−２９","ステータス":"APP_DISPLAY","region":"Setagaya","lat":35.649189,"lng":139.681152},{"店舗名":"ココナッツ&う〜みん","住所":"〒154-0001 東京都世田谷区池尻３丁目２３−３","ステータス":"RECEIPT","region":"Setagaya","lat":35.648335,"lng":139.679718},{"店舗名":"窯焼きバル Cava？ カヴァ","住所":"〒154-0001 東京都世田谷区池尻３丁目２３−５ Cava?1 3階","ステータス":"APP_DISPLAY","region":"Setagaya","lat":35.64819,"lng":139.679443},{"店舗名":"池尻横丁（旧山正/焼き鳥池尻蕎麦/蕎麦うどん/干物 ビールマン おでん)","住所":"〒154-0001 東京都世田谷区池尻３丁目２−４ 日動ビル","ステータス":"APP_DISPLAY","region":"Setagaya","lat":35.650471,"lng":139.683792},{"店舗名":"GANG GAPAO","住所":"〒154-0001 東京都世田谷区池尻３丁目２５−１８","ステータス":"APP_DISPLAY","region":"Setagaya","lat":35.648659,"lng":139.679596},{"店舗名":"フラワー","住所":"〒154-0001 東京都世田谷区池尻３丁目２８−６ ファーストアミューズ","ステータス":"APP_DISPLAY","region":"Setagaya","lat":35.648663,"lng":139.677811},{"店舗名":"鮨処 榎本","住所":"〒154-0001 東京都世田谷区池尻３丁目２９−３ TIMESハイツ","ステータス":"APP_DISPLAY","region":"Setagaya","lat":35.648041,"lng":139.677826},{"店舗名":"エルエーガレージ","住所":"〒154-0001 東京都世田谷区池尻３丁目２９−４","ステータス":"APP_DISPLAY","region":"Setagaya","lat":35.648178,"lng":139.677826},{"店舗名":"京うどん 夢吟坊 三宿本店 （むぎんぼう）","住所":"〒154-0001 東京都世田谷区池尻３丁目３０−２","ステータス":"APP_DISPLAY","region":"Setagaya","lat":35.647923,"lng":139.678925},{"店舗名":"ラーメンたつみ屋 池尻店　Tatsumi-Ya Ikejiri","住所":"〒154-0001 東京都世田谷区池尻３丁目４-１","ステータス":"APP_DISPLAY","region":"Setagaya","lat":35.65007,"lng":139.683029},{"店舗名":"テントパンヤ","住所":"〒154-0001 東京都世田谷区池尻３丁目８−１ フィールズ池尻 102","ステータス":"APP_DISPLAY","region":"Setagaya","lat":35.651314,"lng":139.681656},{"店舗名":"宅配店舗 俺の生きる道 世田谷代沢店","住所":"〒154-0001 東京都世田谷区池尻４丁目３７−８","ステータス":"APP_DISPLAY","region":"Setagaya","lat":35.654968,"lng":139.674271},{"店舗名":"沖縄ダイニングゆんたく","住所":"〒154-0001 東京都世田谷区池尻４丁目３７−８","ステータス":"APP_DISPLAY","region":"Setagaya","lat":35.654968,"lng":139.674271},{"店舗名":"クリスピーチキンアンドトマト 世田谷代沢店 CRISPY CHICKEN n' TOMATO Setagaya Daizawa","住所":"〒154-0001 東京都世田谷区池尻４丁目３７−８","ステータス":"RECEIPT","region":"Setagaya","lat":35.654968,"lng":139.674271},{"店舗名":"BLUE RIBBON TOKYO","住所":"〒154-0001 東京都世田谷区池尻４丁目３７−８","ステータス":"APP_DISPLAY","region":"Setagaya","lat":35.654968,"lng":139.674271},{"店舗名":"クリスピーチキンアンドトマト 世田谷代沢店 CRISPY CHICKEN n' TOMATO Setagaya Daizawa","住所":"〒154-0001 東京都世田谷区池尻４丁目３７−８","ステータス":"APP_DISPLAY","region":"Setagaya","lat":35.654968,"lng":139.674271},{"店舗名":"ケバブボックスジェイ 池尻大橋店","住所":"〒154-0001 東京都世田谷区池尻二丁日１５番８号","ステータス":"APP_DISPLAY","region":"Setagaya","lat":35.647785,"lng":139.681656},{"店舗名":"広島お好み焼専門店 ひっつきもっつき","住所":"〒154-0001東京都世田谷区池尻2丁目６－１２ ライフセンター","ステータス":"APP_DISPLAY","region":"Setagaya","lat":35.646751,"lng":139.679916},{"店舗名":"クリスピーチキン＆PIZZA ×ALL DAY PIZZA SERVICE 世田谷代沢店","住所":"〒154-0001東京都世田谷区池尻４丁目３７−８","ステータス":"APP_DISPLAY","region":"Setagaya","lat":35.654968,"lng":139.674271},{"店舗名":"クリスピーチキン＆PIZZA 世田谷代沢店 CRISPY CHICKEN PIZZA","住所":"〒154-0001東京都世田谷区池尻４丁目３７−８","ステータス":"APP_DISPLAY","region":"Setagaya","lat":35.654968,"lng":139.674271},{"店舗名":"ALLDAY PIZZA SERVICE 世田谷代沢店","住所":"〒154-0001東京都世田谷区池尻４丁目３７−８","ステータス":"APP_DISPLAY","region":"Setagaya","lat":35.654968,"lng":139.674271},{"店舗名":"ＳＡＶＯＹ三宿通り店","住所":"〒154-0002 東京都世田谷区下馬１丁目２３−１３","ステータス":"APP_DISPLAY","region":"Setagaya","lat":35.637768,"lng":139.683624},{"店舗名":"べしゃり Beshari","住所":"〒154-0002 東京都世田谷区下馬１丁目２７−６","ステータス":"APP_DISPLAY","region":"Setagaya","lat":35.639389,"lng":139.68103},{"店舗名":"池尻駅前焼鳥酒場やきと別館","住所":"〒154-0002 東京都世田谷区下馬１丁目３７−１１","ステータス":"APP_DISPLAY","region":"Setagaya","lat":35.641575,"lng":139.679733},{"店舗名":"サンドイッチ&ハンバーガー FUNGO","住所":"〒154-0002 東京都世田谷区下馬１丁目４０−１０","ステータス":"APP_DISPLAY","region":"Setagaya","lat":35.641834,"lng":139.680878},{"店舗名":"デニーズ 世田谷公園店","住所":"〒154-0002 東京都世田谷区下馬２丁目２９−１２","ステータス":"APP_DISPLAY","region":"Setagaya","lat":35.642944,"lng":139.680191},{"店舗名":"和kitchenかんな","住所":"〒154-0002 東京都世田谷区下馬２丁目４３−１１","ステータス":"APP_DISPLAY","region":"Setagaya","lat":35.643337,"lng":139.679657},{"店舗名":"森山珈琲　三宿焙煎所","住所":"〒154-0002 東京都世田谷区下馬２丁目４４−１１ ダイナー","ステータス":"APP_DISPLAY","region":"Setagaya","lat":35.644417,"lng":139.679352},{"店舗名":"おむすび茶 cha cha","住所":"〒154-0002 東京都世田谷区下馬３丁目３８−2","ステータス":"APP_DISPLAY","region":"Setagaya","lat":35.637451,"lng":139.67601},{"店舗名":"おにぎり一番 おにいち 三軒茶屋","住所":"〒154-0002 東京都世田谷区下馬４丁目３−９","ステータス":"APP_DISPLAY","region":"Setagaya","lat":35.635406,"lng":139.679657},{"店舗名":"雑穀米のSALAD BOWL 三軒茶屋","住所":"〒154-0002 東京都世田谷区下馬４丁目３−９","ステータス":"RECEIPT","region":"Setagaya","lat":35.635406,"lng":139.679657},{"店舗名":"torse","住所":"〒154-0002 東京都世田谷区下馬５丁目３５−５","ステータス":"APP_DISPLAY","region":"Setagaya","lat":35.637566,"lng":139.684082},{"店舗名":"デリハック インド ネパール ナンカレーの店 駒沢大学店","住所":"〒154-0003 東京都世田谷区野沢","ステータス":"RECEIPT","region":"Setagaya","lat":35.636181,"lng":139.670822},{"店舗名":"世田谷で35年人気のカレー『ボテロ』","住所":"〒154-0003 東京都世田谷区野沢２丁目３０−７","ステータス":"APP_DISPLAY","region":"Setagaya","lat":35.634781,"lng":139.665894},{"店舗名":"spoon","住所":"〒154-0003 東京都世田谷区野沢２丁目３４−１","ステータス":"APP_DISPLAY","region":"Setagaya","lat":35.635109,"lng":139.665359},{"店舗名":"【アサイー＆グリーク】i'm bowls !! 駒沢大学店","住所":"〒154-0003 東京都世田谷区野沢２丁目３４−２","ステータス":"APP_DISPLAY","region":"Setagaya","lat":35.635204,"lng":139.665237},{"店舗名":"【噂のやみつきタコライス】TOKYO TACORICE MAKERS 駒沢大学店","住所":"〒154-0003 東京都世田谷区野沢２丁目３４−２","ステータス":"APP_DISPLAY","region":"Setagaya","lat":35.635204,"lng":139.665237},{"店舗名":"激盛り豚丼 メガトン 駒沢大学店","住所":"〒154-0003 東京都世田谷区野沢２丁目３４−２","ステータス":"APP_DISPLAY","region":"Setagaya","lat":35.635204,"lng":139.665237},{"店舗名":"【1日分の野菜】野菜食人ビビンバ 駒沢大学店","住所":"〒154-0003 東京都世田谷区野沢２丁目３４−２","ステータス":"APP_DISPLAY","region":"Setagaya","lat":35.635204,"lng":139.665237},{"店舗名":"【噂のやみつきタコライス】TOKYO TACORICE MAKERS 駒沢大学店","住所":"〒154-0003 東京都世田谷区野沢２丁目３４−２","ステータス":"APP_DISPLAY","region":"Setagaya","lat":35.635204,"lng":139.665237},{"店舗名":"ババ アジアン ダイニング&バー","住所":"〒154-0003 東京都世田谷区野沢２丁目３４−２ サンワイズ野澤","ステータス":"APP_DISPLAY","region":"Setagaya","lat":35.635204,"lng":139.665237},{"店舗名":"ねばとろ食堂 駒澤大学店","住所":"〒154-0003 東京都世田谷区野沢4-4-1","ステータス":"APP_DISPLAY","region":"Setagaya","lat":35.631172,"lng":139.669662},{"店舗名":"おかゆ家店内炊き上げ 駒澤大学店","住所":"〒154-0003 東京都世田谷区野沢４丁目4-1","ステータス":"APP_DISPLAY","region":"Setagaya","lat":35.631172,"lng":139.669662},{"店舗名":"カントンの思い出ペダルチキン 駒澤大学店","住所":"〒154-0003 東京都世田谷区野沢４丁目４－１","ステータス":"APP_DISPLAY","region":"Setagaya","lat":35.631172,"lng":139.669662},{"店舗名":"祇園とろろ亭","住所":"〒154-0003 東京都世田谷区野沢４丁目４－１","ステータス":"APP_DISPLAY","region":"Setagaya","lat":35.631172,"lng":139.669662},{"店舗名":"とろろ美人青森本舗","住所":"〒154-0003 東京都世田谷区野沢４丁目４－１","ステータス":"APP_DISPLAY","region":"Setagaya","lat":35.631172,"lng":139.669662},{"店舗名":"【3/4日分の野菜！ゴロゴロ野菜のごちそうスープ】ベジブロ 世田谷野沢店","住所":"〒154-0003 東京都世田谷区野沢４丁目４−１","ステータス":"APP_DISPLAY","region":"Setagaya","lat":35.631172,"lng":139.669662},{"店舗名":"ガチで濃いヤツ 駒澤大学店","住所":"〒154-0003 東京都世田谷区野沢４丁目４−１","ステータス":"APP_DISPLAY","region":"Setagaya","lat":35.631172,"lng":139.669662},{"店舗名":"元祖 台湾まぜそば麺屋はなび エクスプレス 野沢龍雲寺店","住所":"〒154-0003 東京都世田谷区野沢４丁目４−１","ステータス":"APP_DISPLAY","region":"Setagaya","lat":35.631172,"lng":139.669662},{"店舗名":"サーモンクラブ 駒澤大学店","住所":"〒154-0003 東京都世田谷区野沢４丁目４−１","ステータス":"APP_DISPLAY","region":"Setagaya","lat":35.631172,"lng":139.669662},{"店舗名":"【日本の食卓】焼き魚と納豆と海鮮と山芋とろろ 駒澤大学店","住所":"〒154-0003 東京都世田谷区野沢４丁目４−１","ステータス":"APP_DISPLAY","region":"Setagaya","lat":35.631172,"lng":139.669662},{"店舗名":"【ススル監修】油そば ビッグバン 駒澤大学店","住所":"〒154-0003 東京都世田谷区野沢４丁目４−１","ステータス":"APP_DISPLAY","region":"Setagaya","lat":35.631172,"lng":139.669662},{"店舗名":"豚に夢見て駒澤大学店","住所":"〒154-0003 東京都世田谷区野沢４丁目４−１","ステータス":"APP_DISPLAY","region":"Setagaya","lat":35.631172,"lng":139.669662},{"店舗名":"アサイーボウル ALOHA KAILA 駒澤大学店","住所":"〒154-0003 東京都世田谷区野沢４丁目４−１","ステータス":"APP_DISPLAY","region":"Setagaya","lat":35.631172,"lng":139.669662},{"店舗名":"【美味しくヘルシー】やみつき海鮮ポキ丼 駒澤大学店","住所":"〒154-0003 東京都世田谷区野沢４丁目４−１","ステータス":"APP_DISPLAY","region":"Setagaya","lat":35.631172,"lng":139.669662},{"店舗名":"サーモンマーケット 駒澤大学店","住所":"〒154-0003 東京都世田谷区野沢４丁目４−１","ステータス":"APP_DISPLAY","region":"Setagaya","lat":35.631172,"lng":139.669662},{"店舗名":"ふわとろオムライスの店 駒沢たまごけん","住所":"〒154-0003 東京都世田谷区野沢４丁目４−１","ステータス":"APP_DISPLAY","region":"Setagaya","lat":35.631172,"lng":139.669662},{"店舗名":"スパゲティの店『神田ナポリタン』 駒沢店","住所":"〒154-0003 東京都世田谷区野沢４丁目４−１","ステータス":"APP_DISPLAY","region":"Setagaya","lat":35.631172,"lng":139.669662},{"店舗名":"【ロシアン佐藤監修】発酵アサイーボウル - どりどり【米麹×アサイー】駒澤大学店","住所":"〒154-0003 東京都世田谷区野沢４丁目４−１","ステータス":"APP_DISPLAY","region":"Setagaya","lat":35.631172,"lng":139.669662},{"店舗名":"元祖大阪たこ焼き たこ八 駒澤大学店","住所":"〒154-0003 東京都世田谷区野沢４丁目４−１","ステータス":"APP_DISPLAY","region":"Setagaya","lat":35.631172,"lng":139.669662},{"店舗名":"宅配店舗 俺の生きる道 駒澤店","住所":"〒154-0003 東京都世田谷区野沢４丁目４−１","ステータス":"APP_DISPLAY","region":"Setagaya","lat":35.631172,"lng":139.669662},{"店舗名":"サーモン丼の店海街屋 駒澤大学店","住所":"〒154-0003 東京都世田谷区野沢４丁目４−１","ステータス":"APP_DISPLAY","region":"Setagaya","lat":35.631172,"lng":139.669662},{"店舗名":"健康志向のねばとろ日和 駒澤大学店","住所":"〒154-0003 東京都世田谷区野沢４丁目４−１","ステータス":"APP_DISPLAY","region":"Setagaya","lat":35.631172,"lng":139.669662},{"店舗名":"ポキの気持ち","住所":"〒154-0003 東京都世田谷区野沢４丁目４−１","ステータス":"APP_DISPLAY","region":"Setagaya","lat":35.631172,"lng":139.669662},{"店舗名":"みんな大好きタコライス","住所":"〒154-0003 東京都世田谷区野沢４丁目４−１","ステータス":"APP_DISPLAY","region":"Setagaya","lat":35.631172,"lng":139.669662},{"店舗名":"カオマンガイ帝国","住所":"〒154-0003 東京都世田谷区野沢４丁目４−１","ステータス":"APP_DISPLAY","region":"Setagaya","lat":35.631172,"lng":139.669662},{"店舗名":"ザ・食堂亭　駒沢大学店","住所":"〒154-0003 東京都世田谷区野沢４丁目４−１","ステータス":"APP_DISPLAY","region":"Setagaya","lat":35.631172,"lng":139.669662},{"店舗名":"カオマンガイラボ　駒沢大学店","住所":"〒154-0003 東京都世田谷区野沢４丁目４−１","ステータス":"RECEIPT","region":"Setagaya","lat":35.631172,"lng":139.669662},{"店舗名":"タコライスで勝負！　駒沢大学店","住所":"〒154-0003 東京都世田谷区野沢４丁目４−１","ステータス":"APP_DISPLAY","region":"Setagaya","lat":35.631172,"lng":139.669662},{"店舗名":"元気先生食堂　駒澤大学店","住所":"〒154-0003 東京都世田谷区野沢４丁目４−１","ステータス":"APP_DISPLAY","region":"Setagaya","lat":35.631172,"lng":139.669662},{"店舗名":"【雑穀×発酵×ねばとろ丼】ねばとろみのり 世田谷野沢店","住所":"〒154-0003 東京都世田谷区野沢４丁目４−１","ステータス":"APP_DISPLAY","region":"Setagaya","lat":35.631172,"lng":139.669662},{"店舗名":"(宅配専門店)ゴーゴーカレー 世田谷野沢店","住所":"〒154-0003 東京都世田谷区野沢４丁目４−１","ステータス":"APP_DISPLAY","region":"Setagaya","lat":35.631172,"lng":139.669662},{"店舗名":"アサイーボウル×バナナ×ギリシャヨーグルト Hawaiian Restaurant MIYAKO 駒沢店","住所":"〒154-0003 東京都世田谷区野沢４丁目４−１","ステータス":"RECEIPT","region":"Setagaya","lat":35.631172,"lng":139.669662},{"店舗名":"油そば みや寺 駒澤大学店","住所":"〒154-0003 東京都世田谷区野沢４丁目４−１ The Komazawa AJITO 15","ステータス":"APP_DISPLAY","region":"Setagaya","lat":35.631172,"lng":139.669662},{"店舗名":"【懐かしの味】神田ナポリタン 駒澤店","住所":"〒154-0003 東京都世田谷区野沢４丁目４−１ ザ駒沢アジト","ステータス":"APP_DISPLAY","region":"Setagaya","lat":35.631172,"lng":139.669662},{"店舗名":"穴子丼 カンスケ","住所":"〒154-0003 東京都世田谷区野沢４丁目５−１５","ステータス":"APP_DISPLAY","region":"Setagaya","lat":35.63166,"lng":139.669601},{"店舗名":"鮨・鰻の割烹勘べえ","住所":"〒154-0003 東京都世田谷区野沢４丁目５−１５","ステータス":"APP_DISPLAY","region":"Setagaya","lat":35.63166,"lng":139.669601},{"店舗名":"アロハな東京ポキ 駒澤大学店","住所":"〒154-0003東京都世田谷区野沢4-4-1","ステータス":"APP_DISPLAY","region":"Setagaya","lat":35.631172,"lng":139.669662},{"店舗名":"Sanchar BIRD","住所":"〒154-0004","ステータス":"APP_DISPLAY","region":"Setagaya","lat":35.644234,"lng":139.675827},{"店舗名":"チキンジョージ","住所":"〒154-0004","ステータス":"RECEIPT","region":"Setagaya","lat":35.644234,"lng":139.675827},{"店舗名":"キッチンジョージ","住所":"〒154-0004","ステータス":"RECEIPT","region":"Setagaya","lat":35.644234,"lng":139.675827},{"店舗名":"POPOcoffee＆wine","住所":"〒154-0004 東京都世田谷区太子堂１丁目１−１１","ステータス":"APP_DISPLAY","region":"Setagaya","lat":35.644863,"lng":139.679123},{"店舗名":"クリスプサラダワークス 三軒茶屋店","住所":"〒154-0004 東京都世田谷区太子堂１丁目１２−２４","ステータス":"APP_DISPLAY","region":"Setagaya","lat":35.643978,"lng":139.672791},{"店舗名":"HEYDAY","住所":"〒154-0004 東京都世田谷区太子堂１丁目１２−２９","ステータス":"APP_DISPLAY","region":"Setagaya","lat":35.644398,"lng":139.67337},{"店舗名":"BAR&GRILL WAKKU BAKKU","住所":"〒154-0004 東京都世田谷区太子堂１丁目１２−３６","ステータス":"APP_DISPLAY","region":"Setagaya","lat":35.644974,"lng":139.674286},{"店舗名":"ケンタッキーフライドチキン R246三軒茶屋店","住所":"〒154-0004 東京都世田谷区太子堂１丁目１２−３６","ステータス":"APP_DISPLAY","region":"Setagaya","lat":35.644974,"lng":139.674286},{"店舗名":"鰻の成瀬 三軒茶屋店","住所":"〒154-0004 東京都世田谷区太子堂１丁目１４−１４","ステータス":"APP_DISPLAY","region":"Setagaya","lat":35.642258,"lng":139.673035},{"店舗名":"ダシの効いた！たこ焼き なんば NAMBA","住所":"〒154-0004 東京都世田谷区太子堂１丁目１５－１５","ステータス":"APP_DISPLAY","region":"Setagaya","lat":35.641766,"lng":139.673248},{"店舗名":"【あふれる肉汁】焼きたて小籠包の丸福","住所":"〒154-0004 東京都世田谷区太子堂１丁目４−３５ シーネクス三軒茶屋","ステータス":"APP_DISPLAY","region":"Setagaya","lat":35.64677,"lng":139.677567},{"店舗名":"至福のミニクレープ 三軒茶屋店","住所":"〒154-0004 東京都世田谷区太子堂２丁目","ステータス":"APP_DISPLAY","region":"Setagaya","lat":35.646313,"lng":139.672806},{"店舗名":"吉野家 三軒茶屋店","住所":"〒154-0004 東京都世田谷区太子堂２丁目１６−８","ステータス":"APP_DISPLAY","region":"Setagaya","lat":35.644493,"lng":139.670776},{"店舗名":"らーめん蓮 三軒茶屋店","住所":"〒154-0004 東京都世田谷区太子堂２丁目１７－１２","ステータス":"APP_DISPLAY","region":"Setagaya","lat":35.645363,"lng":139.670715},{"店舗名":"漁師町三代目 牛とろいくら本舗 三軒茶屋店","住所":"〒154-0004 東京都世田谷区太子堂２丁目１７−１２","ステータス":"APP_DISPLAY","region":"Setagaya","lat":35.645363,"lng":139.670715},{"店舗名":"炙りトロ肉ホタテ丼 帆立男児 三軒茶屋店","住所":"〒154-0004 東京都世田谷区太子堂２丁目１７−１２","ステータス":"APP_DISPLAY","region":"Setagaya","lat":35.645363,"lng":139.670715},{"店舗名":"ユッケの目線 三軒茶屋店","住所":"〒154-0004 東京都世田谷区太子堂２丁目１７−１２","ステータス":"APP_DISPLAY","region":"Setagaya","lat":35.645363,"lng":139.670715},{"店舗名":"さんちゃワーク食堂","住所":"〒154-0004 東京都世田谷区太子堂２丁目１７−５ 3f","ステータス":"RECEIPT","region":"Setagaya","lat":35.644627,"lng":139.670731},{"店舗名":"Re.TOSCANA","住所":"〒154-0004 東京都世田谷区太子堂２丁目２３−４","ステータス":"APP_DISPLAY","region":"Setagaya","lat":35.645866,"lng":139.670181},{"店舗名":"本格タイ料理バル プアン 三軒茶屋店","住所":"〒154-0004 東京都世田谷区太子堂２丁目２３−５","ステータス":"APP_DISPLAY","region":"Setagaya","lat":35.646011,"lng":139.67009},{"店舗名":"ディプジョディ三軒茶屋店","住所":"〒154-0004 東京都世田谷区太子堂２丁目２３−５ ＰＲＥＭＩＥＲ","ステータス":"APP_DISPLAY","region":"Setagaya","lat":35.646011,"lng":139.67009},{"店舗名":"すき家 三軒茶屋北店","住所":"〒154-0004 東京都世田谷区太子堂２丁目２４−６ ドミー三軒茶屋","ステータス":"PENDING","region":"Setagaya","lat":35.646378,"lng":139.669937},{"店舗名":"しまんちゅパーラーのタコライス 本店","住所":"〒154-0004 東京都世田谷区太子堂２丁目２６−１ ZEST3ビル 2階","ステータス":"APP_DISPLAY","region":"Setagaya","lat":35.646694,"lng":139.669662},{"店舗名":"CURRY TO TOKYO","住所":"〒154-0004 東京都世田谷区太子堂２丁目２８−３","ステータス":"APP_DISPLAY","region":"Setagaya","lat":35.646534,"lng":139.670288},{"店舗名":"プチ シュシュ","住所":"〒154-0004 東京都世田谷区太子堂２丁目２８−３","ステータス":"APP_DISPLAY","region":"Setagaya","lat":35.646534,"lng":139.670288},{"店舗名":"糖質制限 ヘルシーカオマンガイの店 海南鶏飯本舗（ハイナンジーファンホンポ） 三軒茶屋店","住所":"〒154-0004 東京都世田谷区太子堂２丁目３５−６","ステータス":"APP_DISPLAY","region":"Setagaya","lat":35.64761,"lng":139.67218},{"店舗名":"十五穀米のヘルシーポキ丼の店 Poke☆Poke 三軒茶屋店","住所":"〒154-0004 東京都世田谷区太子堂２丁目３５−６","ステータス":"APP_DISPLAY","region":"Setagaya","lat":35.64761,"lng":139.67218},{"店舗名":"こだわりとんかつ 神楽 三軒茶屋","住所":"〒154-0004 東京都世田谷区太子堂２丁目３５−６ 鈴木ビル","ステータス":"APP_DISPLAY","region":"Setagaya","lat":35.64761,"lng":139.67218},{"店舗名":"韓国熟成焼肉 コギヤ 三軒茶屋","住所":"〒154-0004 東京都世田谷区太子堂２丁目３５−６ 鈴木ビル","ステータス":"APP_DISPLAY","region":"Setagaya","lat":35.64761,"lng":139.67218},{"店舗名":"牛かつ黒べこ 三軒茶屋 Gyukatsu Kurobeko Sangenjaya","住所":"〒154-0004 東京都世田谷区太子堂２丁目３５−６ 鈴木ビル","ステータス":"APP_DISPLAY","region":"Setagaya","lat":35.64761,"lng":139.67218},{"店舗名":"ミルフィーユカツ キムカツ 三軒茶屋","住所":"〒154-0004 東京都世田谷区太子堂２丁目３５−６ 鈴木ビル","ステータス":"APP_DISPLAY","region":"Setagaya","lat":35.64761,"lng":139.67218},{"店舗名":"熟成牛たん せんり 三軒茶屋","住所":"〒154-0004 東京都世田谷区太子堂２丁目３５−６ 鈴木ビル","ステータス":"APP_DISPLAY","region":"Setagaya","lat":35.64761,"lng":139.67218},{"店舗名":"マッスルファクトリー 三軒茶屋","住所":"〒154-0004 東京都世田谷区太子堂２丁目３５−６ 鈴木ビル","ステータス":"APP_DISPLAY","region":"Setagaya","lat":35.64761,"lng":139.67218},{"店舗名":"相模原名物 とろけるハンバーグ 福よし 三軒茶屋","住所":"〒154-0004 東京都世田谷区太子堂２丁目３５−６ 鈴木ビル","ステータス":"APP_DISPLAY","region":"Setagaya","lat":35.64761,"lng":139.67218},{"店舗名":"【創業昭和3年】博多明太箱飯 鳴海屋 三軒茶屋","住所":"〒154-0004 東京都世田谷区太子堂２丁目３５−６ 鈴木ビル","ステータス":"APP_DISPLAY","region":"Setagaya","lat":35.64761,"lng":139.67218},{"店舗名":"WARU WARU DONUT","住所":"〒154-0004 東京都世田谷区太子堂２丁目４−１３","ステータス":"APP_DISPLAY","region":"Setagaya","lat":35.647774,"lng":139.672821},{"店舗名":"オーガニック日本茶と畳カフェ TEA TATAMO! 三軒茶屋店","住所":"〒154-0004 東京都世田谷区太子堂２丁目６−１","ステータス":"APP_DISPLAY","region":"Setagaya","lat":35.645805,"lng":139.675018},{"店舗名":"Hawaiian Cafe アサイーボウル 三軒茶屋店 Hawaiian Cafe Acai bowl","住所":"〒154-0004 東京都世田谷区太子堂２丁目６−１","ステータス":"APP_DISPLAY","region":"Setagaya","lat":35.645805,"lng":139.675018},{"店舗名":"わらび餅 わらび 三軒茶屋店 Warabi Mochi Warabi","住所":"〒154-0004 東京都世田谷区太子堂２丁目６−１","ステータス":"APP_DISPLAY","region":"Setagaya","lat":35.645805,"lng":139.675018},{"店舗名":"グリークヨーグルトカフェGREEK FRUITS 三軒茶屋店","住所":"〒154-0004 東京都世田谷区太子堂２丁目６−１","ステータス":"APP_DISPLAY","region":"Setagaya","lat":35.645805,"lng":139.675018},{"店舗名":"タピオカ Tapiwara 三軒茶屋店","住所":"〒154-0004 東京都世田谷区太子堂２丁目６−１","ステータス":"APP_DISPLAY","region":"Setagaya","lat":35.645805,"lng":139.675018},{"店舗名":"油そば商店 油坊主","住所":"〒154-0004 東京都世田谷区太子堂２丁目６−２","ステータス":"APP_DISPLAY","region":"Setagaya","lat":35.645729,"lng":139.674881},{"店舗名":"豚と脂。三宿店","住所":"〒154-0004 東京都世田谷区太子堂２丁目６−３","ステータス":"APP_DISPLAY","region":"Setagaya","lat":35.645653,"lng":139.674744},{"店舗名":"TACOS mi Casa タコス ミカーサ 三軒茶屋店","住所":"〒154-0004 東京都世田谷区太子堂２丁目８−１２","ステータス":"APP_DISPLAY","region":"Setagaya","lat":35.647141,"lng":139.672394},{"店舗名":"LAFF BAR&KITCHEN","住所":"〒154-0004 東京都世田谷区太子堂３丁目","ステータス":"APP_DISPLAY","region":"Setagaya","lat":35.649632,"lng":139.669769},{"店舗名":"三茶一〇一（ｻﾝﾁｬｲﾁﾏﾙｲﾁ）","住所":"〒154-0004 東京都世田谷区太子堂３丁目１４−４","ステータス":"APP_DISPLAY","region":"Setagaya","lat":35.647362,"lng":139.669235},{"店舗名":"創作カレーMANOS","住所":"〒154-0004 東京都世田谷区太子堂３丁目１８−２","ステータス":"APP_DISPLAY","region":"Setagaya","lat":35.648293,"lng":139.66864},{"店舗名":"フレッシュネスバーガー 三軒茶屋店","住所":"〒154-0004 東京都世田谷区太子堂４丁目１−１","ステータス":"APP_DISPLAY","region":"Setagaya","lat":35.643543,"lng":139.66983},{"店舗名":"回転寿司みさき 三軒茶屋東急ストア店","住所":"〒154-0004 東京都世田谷区太子堂４丁目１−１","ステータス":"APP_DISPLAY","region":"Setagaya","lat":35.643543,"lng":139.66983},{"店舗名":"BONE-T 三軒茶屋店","住所":"〒154-0004 東京都世田谷区太子堂４丁目１５番８号","ステータス":"APP_DISPLAY","region":"Setagaya","lat":35.644466,"lng":139.667496},{"店舗名":"Sandwich Boo","住所":"〒154-0004 東京都世田谷区太子堂４丁目１８−１ エコービル 2階","ステータス":"APP_DISPLAY","region":"Setagaya","lat":35.644886,"lng":139.669525},{"店舗名":"博多屋台ぶんぶんHOUSE","住所":"〒154-0004 東京都世田谷区太子堂４丁目１８−１５","ステータス":"APP_DISPLAY","region":"Setagaya","lat":35.645126,"lng":139.669571},{"店舗名":"Cafe Purple","住所":"〒154-0004 東京都世田谷区太子堂４丁目１８−１５","ステータス":"APP_DISPLAY","region":"Setagaya","lat":35.645126,"lng":139.669571},{"店舗名":"煮豚チャーハン宝徳 太子堂4丁目3号店","住所":"〒154-0004 東京都世田谷区太子堂４丁目１８−１６","ステータス":"APP_DISPLAY","region":"Setagaya","lat":35.644981,"lng":139.669601},{"店舗名":"本格点心と台湾料理のダパイダン105 三軒茶屋店","住所":"〒154-0004 東京都世田谷区太子堂４丁目２２−１２","ステータス":"APP_DISPLAY","region":"Setagaya","lat":35.644165,"lng":139.670364},{"店舗名":"EN NISTA","住所":"〒154-0004 東京都世田谷区太子堂４丁目２２−１２","ステータス":"APP_DISPLAY","region":"Setagaya","lat":35.644165,"lng":139.670364},{"店舗名":"デニーズ 三軒茶屋店","住所":"〒154-0004 東京都世田谷区太子堂４丁目２２−６","ステータス":"APP_DISPLAY","region":"Setagaya","lat":35.644051,"lng":139.669861},{"店舗名":"香辣里 シャンラーリー","住所":"〒154-0004 東京都世田谷区太子堂４丁目２３−１１","ステータス":"APP_DISPLAY","region":"Setagaya","lat":35.644352,"lng":139.670715},{"店舗名":"ケンタッキーフライドチキン 三軒茶屋店","住所":"〒154-0004 東京都世田谷区太子堂４丁目２３−１５ Ｔハウス三軒茶屋","ステータス":"APP_DISPLAY","region":"Setagaya","lat":35.643829,"lng":139.670898},{"店舗名":"ジンギスカン 福ひつじ 三軒茶屋","住所":"〒154-0004 東京都世田谷区太子堂４丁目２３−４","ステータス":"APP_DISPLAY","region":"Setagaya","lat":35.643753,"lng":139.670471},{"店舗名":"PIZZANISTA 7","住所":"〒154-0004 東京都世田谷区太子堂４丁目２３−４","ステータス":"APP_DISPLAY","region":"Setagaya","lat":35.643753,"lng":139.670471},{"店舗名":"Como Dock","住所":"〒154-0004 東京都世田谷区太子堂４丁目２３−７","ステータス":"APP_DISPLAY","region":"Setagaya","lat":35.644157,"lng":139.670395},{"店舗名":"PESCHERIA","住所":"〒154-0004 東京都世田谷区太子堂４丁目２４−１５","ステータス":"APP_DISPLAY","region":"Setagaya","lat":35.644913,"lng":139.670502},{"店舗名":"とんかつ　川善","住所":"〒154-0004 東京都世田谷区太子堂４丁目２４−１５","ステータス":"APP_DISPLAY","region":"Setagaya","lat":35.644913,"lng":139.670502},{"店舗名":"野郎ラーメン 三軒茶屋店","住所":"〒154-0004 東京都世田谷区太子堂４丁目２４−１６","ステータス":"APP_DISPLAY","region":"Setagaya","lat":35.644783,"lng":139.670547},{"店舗名":"シュラスコ ピッコベッロ 三軒茶屋店","住所":"〒154-0004 東京都世田谷区太子堂４丁目２６−１３","ステータス":"APP_DISPLAY","region":"Setagaya","lat":35.645298,"lng":139.670349},{"店舗名":"KAGURA 101","住所":"〒154-0004 東京都世田谷区太子堂４丁目２６−２","ステータス":"APP_DISPLAY","region":"Setagaya","lat":35.645195,"lng":139.670135},{"店舗名":"中華 太華","住所":"〒154-0004 東京都世田谷区太子堂４丁目２６−７ M&Rハウゼ","ステータス":"APP_DISPLAY","region":"Setagaya","lat":35.645275,"lng":139.669617},{"店舗名":"イサーン·キッチン","住所":"〒154-0004 東京都世田谷区太子堂４丁目２７−１１","ステータス":"APP_DISPLAY","region":"Setagaya","lat":35.645569,"lng":139.670242},{"店舗名":"無添加薬膳スープカレーCOSMOS 三軒茶屋 SOUPCURRY COSMOS SANGENJAYA","住所":"〒154-0004 東京都世田谷区太子堂４丁目２７−５","ステータス":"APP_DISPLAY","region":"Setagaya","lat":35.645412,"lng":139.669617},{"店舗名":"MOSS Dining Bar","住所":"〒154-0004 東京都世田谷区太子堂４丁目２８−２","ステータス":"APP_DISPLAY","region":"Setagaya","lat":35.645702,"lng":139.669876},{"店舗名":"シバカリーワラ","住所":"〒154-0004 東京都世田谷区太子堂４丁目２８−６","ステータス":"APP_DISPLAY","region":"Setagaya","lat":35.645954,"lng":139.669785},{"店舗名":"あかんぼ  本店【元祖とびっこチャーハンの店】","住所":"〒154-0004 東京都世田谷区太子堂４丁目３０−２７ カーサピッコラ","ステータス":"APP_DISPLAY","region":"Setagaya","lat":35.646275,"lng":139.669495},{"店舗名":"RECEPTION tokyo stay","住所":"〒154-0004 東京都世田谷区太子堂４丁目４−１７","ステータス":"APP_DISPLAY","region":"Setagaya","lat":35.6436,"lng":139.667892},{"店舗名":"テールくんはカレー屋さん。","住所":"〒154-0004 東京都世田谷区太子堂４丁目５−１ ピタットハウス","ステータス":"APP_DISPLAY","region":"Setagaya","lat":35.643131,"lng":139.667358},{"店舗名":"蕎麦酒膳くら嶋","住所":"〒154-0004 東京都世田谷区太子堂５丁目１−１０","ステータス":"APP_DISPLAY","region":"Setagaya","lat":35.647415,"lng":139.668839},{"店舗名":"焼肉 黒松","住所":"〒154-0004 東京都世田谷区太子堂５丁目１−１０","ステータス":"APP_DISPLAY","region":"Setagaya","lat":35.647415,"lng":139.668839},{"店舗名":"WAGYU　BURGERS　KOKUMATSU","住所":"〒154-0004 東京都世田谷区太子堂５丁目１−１０","ステータス":"APP_DISPLAY","region":"Setagaya","lat":35.647415,"lng":139.668839},{"店舗名":"キクヤ","住所":"〒154-0004 東京都世田谷区太子堂５丁目１−１２","ステータス":"APP_DISPLAY","region":"Setagaya","lat":35.647373,"lng":139.669083},{"店舗名":"【フレンチフライ】旨芋や＠三茶 佐藤青果店 Delicious Potatoes＠Sangenjaya.Sato vegetable","住所":"〒154-0004 東京都世田谷区太子堂５丁目１−１４","ステータス":"APP_DISPLAY","region":"Setagaya","lat":35.647133,"lng":139.669235},{"店舗名":"ロイヤールタリー","住所":"〒154-0004 東京都世田谷区太子堂５丁目１６−９","ステータス":"APP_DISPLAY","region":"Setagaya","lat":35.648293,"lng":139.668503},{"店舗名":"激盛り豚丼 メガトン 三軒茶屋店","住所":"〒154-0004 東京都世田谷区太子堂５丁目１６−９","ステータス":"APP_DISPLAY","region":"Setagaya","lat":35.648293,"lng":139.668503},{"店舗名":"幸福スタンド","住所":"〒154-0004 東京都世田谷区太子堂５丁目１７−１７","ステータス":"APP_DISPLAY","region":"Setagaya","lat":35.648914,"lng":139.668106},{"店舗名":"nomaru bake","住所":"〒154-0004 東京都世田谷区太子堂５丁目８−３","ステータス":"APP_DISPLAY","region":"Setagaya","lat":35.646008,"lng":139.665802},{"店舗名":"エスニック酒場バックヤード","住所":"〒154-0004 東京都世田谷区太子堂四丁目１８番１６号","ステータス":"APP_DISPLAY","region":"Setagaya","lat":35.644981,"lng":139.669601},{"店舗名":"サーモンヌードル三軒茶屋","住所":"〒154-0004 東京都世田谷区太子堂四丁目20番6号","ステータス":"APP_DISPLAY","region":"Setagaya","lat":35.644417,"lng":139.668915},{"店舗名":"丼丸三宿店","住所":"〒154-0005 東京都世田谷区三宿１丁目１−２","ステータス":"APP_DISPLAY","region":"Setagaya","lat":35.647247,"lng":139.677658},{"店舗名":"たべるーぷ三宿店 tabeloop Mishuku","住所":"〒154-0005 東京都世田谷区三宿１丁目３−２１","ステータス":"RECEIPT","region":"Setagaya","lat":35.648758,"lng":139.677658},{"店舗名":"ドミノ・ピザ 三宿店","住所":"〒154-0005 東京都世田谷区三宿１丁目８−１０","ステータス":"APP_DISPLAY","region":"Setagaya","lat":35.649906,"lng":139.675781},{"店舗名":"MARUKICHI 池尻大橋店","住所":"〒154-0005 東京都世田谷区三宿２丁目１０−１６","ステータス":"APP_DISPLAY","region":"Setagaya","lat":35.653568,"lng":139.676102},{"店舗名":"ふわとろオムライスの店 大橋たまごけん","住所":"〒154-0005 東京都世田谷区三宿２丁目１０−１６","ステータス":"APP_DISPLAY","region":"Setagaya","lat":35.653568,"lng":139.676102},{"店舗名":"スパゲティの店『神田ナポリタン』池尻大橋店","住所":"〒154-0005 東京都世田谷区三宿２丁目１０−１６","ステータス":"APP_DISPLAY","region":"Setagaya","lat":35.653568,"lng":139.676102},{"店舗名":"佐藤とん汁店 池尻大橋店","住所":"〒154-0005 東京都世田谷区三宿２丁目１０−１６","ステータス":"APP_DISPLAY","region":"Setagaya","lat":35.653568,"lng":139.676102},{"店舗名":"親子丼の店 猪爪 池尻大橋店","住所":"〒154-0005 東京都世田谷区三宿２丁目１０−１６","ステータス":"APP_DISPLAY","region":"Setagaya","lat":35.653568,"lng":139.676102},{"店舗名":"カツ丼屋 八方 池尻大橋店","住所":"〒154-0005 東京都世田谷区三宿２丁目１０−１６","ステータス":"APP_DISPLAY","region":"Setagaya","lat":35.653568,"lng":139.676102},{"店舗名":"dragon純豆腐（スンドゥブ）池尻大橋店","住所":"〒154-0005 東京都世田谷区三宿２丁目１０−１６","ステータス":"APP_DISPLAY","region":"Setagaya","lat":35.653568,"lng":139.676102},{"店舗名":"豆のヘルシータコライス「39Tacorice」池尻大橋店","住所":"〒154-0005 東京都世田谷区三宿２丁目１０−１６","ステータス":"APP_DISPLAY","region":"Setagaya","lat":35.653568,"lng":139.676102},{"店舗名":"アサイーボウルとグリークヨーグルト beauty 池尻大橋店","住所":"〒154-0005 東京都世田谷区三宿２丁目１０−１６","ステータス":"APP_DISPLAY","region":"Setagaya","lat":35.653568,"lng":139.676102},{"店舗名":"グリークヨーグルト専門店「아름다운 アルムダプダ」池尻大橋店","住所":"〒154-0005 東京都世田谷区三宿２丁目１０−１６","ステータス":"APP_DISPLAY","region":"Setagaya","lat":35.653568,"lng":139.676102},{"店舗名":"台湾まぜそば きらり 池尻大橋店","住所":"〒154-0005 東京都世田谷区三宿２丁目１０−１６","ステータス":"APP_DISPLAY","region":"Setagaya","lat":35.653568,"lng":139.676102},{"店舗名":"究極のチャーシュー丼 豚太郎 池尻大橋店","住所":"〒154-0005 東京都世田谷区三宿２丁目１０−１６","ステータス":"APP_DISPLAY","region":"Setagaya","lat":35.653568,"lng":139.676102},{"店舗名":"デカ盛り弁当はるき【唐揚げ弁当屋】 池尻大橋店","住所":"〒154-0005 東京都世田谷区三宿２丁目１０−１６","ステータス":"APP_DISPLAY","region":"Setagaya","lat":35.653568,"lng":139.676102},{"店舗名":"【めちゃくちゃ旨い‼】メガ盛りからあげ丼 まんぞく屋 池尻大橋店","住所":"〒154-0005 東京都世田谷区三宿２丁目１０−１６","ステータス":"APP_DISPLAY","region":"Setagaya","lat":35.653568,"lng":139.676102},{"店舗名":"【もちもち自家製アサイー♪】ALOH&Spoon 池尻大橋店","住所":"〒154-0005 東京都世田谷区三宿２丁目１０−１６","ステータス":"APP_DISPLAY","region":"Setagaya","lat":35.653568,"lng":139.676102},{"店舗名":"いいから黙って豚キムチ 池尻大橋店","住所":"〒154-0005 東京都世田谷区三宿２丁目１０−１６","ステータス":"APP_DISPLAY","region":"Setagaya","lat":35.653568,"lng":139.676102},{"店舗名":"【デカ盛り豚丼】ジャンクキング 池尻大橋店","住所":"〒154-0005 東京都世田谷区三宿２丁目１０−１６","ステータス":"APP_DISPLAY","region":"Setagaya","lat":35.653568,"lng":139.676102},{"店舗名":"たこ焼き はち 池尻大橋店","住所":"〒154-0005 東京都世田谷区三宿２丁目１０−１６","ステータス":"APP_DISPLAY","region":"Setagaya","lat":35.653568,"lng":139.676102},{"店舗名":"【超美味でも890円】まぜぬなら まぜてみせよう まぜ麺屋 世田谷三宿店","住所":"〒154-0005 東京都世田谷区三宿２丁目１０−１６","ステータス":"APP_DISPLAY","region":"Setagaya","lat":35.653568,"lng":139.676102},{"店舗名":"【驚愕の980円！】つけぬなら つけてみせよう つけ麺屋 世田谷三宿店","住所":"〒154-0005 東京都世田谷区三宿２丁目１０−１６","ステータス":"APP_DISPLAY","region":"Setagaya","lat":35.653568,"lng":139.676102},{"店舗名":"にんにく豚脂そば 麵126 池尻大橋店","住所":"〒154-0005 東京都世田谷区三宿２丁目１０−１６","ステータス":"APP_DISPLAY","region":"Setagaya","lat":35.653568,"lng":139.676102},{"店舗名":"らーめん ぎ郎 ぎょうてん屋 池尻大橋店","住所":"〒154-0005 東京都世田谷区三宿２丁目１０−１６","ステータス":"APP_DISPLAY","region":"Setagaya","lat":35.653568,"lng":139.676102},{"店舗名":"担々麺 つじ田 KILLER NOODLE 池尻大橋店","住所":"〒154-0005 東京都世田谷区三宿２丁目１０−１６","ステータス":"APP_DISPLAY","region":"Setagaya","lat":35.653568,"lng":139.676102},{"店舗名":"【アサイー＆フレッシュフルーツ】TASTE THE ACAI 三宿2丁目店","住所":"〒154-0005 東京都世田谷区三宿２丁目１０−１６","ステータス":"APP_DISPLAY","region":"Setagaya","lat":35.653568,"lng":139.676102},{"店舗名":"アサイーボウル TOKYO Acai 池尻大橋店","住所":"〒154-0005 東京都世田谷区三宿２丁目１０−１６","ステータス":"APP_DISPLAY","region":"Setagaya","lat":35.653568,"lng":139.676102},{"店舗名":"FLEUR フルール Natural Beauty 池尻大橋店","住所":"〒154-0005 東京都世田谷区三宿２丁目１０−１６","ステータス":"APP_DISPLAY","region":"Setagaya","lat":35.653568,"lng":139.676102},{"店舗名":"【アサイー&グリーク】 THE BOWL 池尻大橋店","住所":"〒154-0005 東京都世田谷区三宿２丁目１０−１６","ステータス":"APP_DISPLAY","region":"Setagaya","lat":35.653568,"lng":139.676102},{"店舗名":"濃厚魚介豚骨つけ麺 つじ田 池尻大橋店","住所":"〒154-0005 東京都世田谷区三宿２丁目１０−１６","ステータス":"APP_DISPLAY","region":"Setagaya","lat":35.653568,"lng":139.676102},{"店舗名":"【二郎系・背徳めし】ニクとヤサイとコメ 池尻大橋店","住所":"〒154-0005 東京都世田谷区三宿２丁目１０−１６","ステータス":"APP_DISPLAY","region":"Setagaya","lat":35.653568,"lng":139.676102},{"店舗名":"【二郎系ラーメン】田田田 デデデ 池尻大橋店","住所":"〒154-0005 東京都世田谷区三宿２丁目１０−１６","ステータス":"APP_DISPLAY","region":"Setagaya","lat":35.653568,"lng":139.676102},{"店舗名":"至高の唐揚げ丼 鳥まる商店 池尻大橋店","住所":"〒154-0005 東京都世田谷区三宿２丁目１０−１６","ステータス":"APP_DISPLAY","region":"Setagaya","lat":35.653568,"lng":139.676102},{"店舗名":"ハラミ・ローストビーフ丼　ハラミと米 池尻大橋店","住所":"〒154-0005 東京都世田谷区三宿２丁目１０−１６","ステータス":"APP_DISPLAY","region":"Setagaya","lat":35.653568,"lng":139.676102},{"店舗名":"豚とほうれん草のポパイ丼 大阪肉物語 池尻大橋店","住所":"〒154-0005 東京都世田谷区三宿２丁目１０−１６","ステータス":"APP_DISPLAY","region":"Setagaya","lat":35.653568,"lng":139.676102},{"店舗名":"【豚の極み】MARUKICHI 池尻大橋店","住所":"〒154-0005 東京都世田谷区三宿２丁目１０−１６","ステータス":"APP_DISPLAY","region":"Setagaya","lat":35.653568,"lng":139.676102},{"店舗名":"ヘルシー＆グリル マドズ 三軒茶屋店","住所":"〒154-0005 東京都世田谷区三宿２丁目７−６","ステータス":"APP_DISPLAY","region":"Setagaya","lat":35.652924,"lng":139.677338},{"店舗名":"【胃腸回復&健康】お粥定食 いこい亭 駒澤店","住所":"〒154-0011 東京都世田谷区上馬","ステータス":"APP_DISPLAY","region":"Setagaya","lat":35.63715,"lng":139.66806},{"店舗名":"【ヘルシー&高タンパク弁当】鶏あえずタンパク 駒澤店","住所":"〒154-0011 東京都世田谷区上馬１丁目１７−５","ステータス":"APP_DISPLAY","region":"Setagaya","lat":35.637852,"lng":139.668289},{"店舗名":"パフェBar「YORUYORU」 駒澤店","住所":"〒154-0011 東京都世田谷区上馬１丁目１７−５","ステータス":"APP_DISPLAY","region":"Setagaya","lat":35.637852,"lng":139.668289},{"店舗名":"至福の贅沢「恋するクレープ」 駒澤店","住所":"〒154-0011 東京都世田谷区上馬１丁目１７−５","ステータス":"APP_DISPLAY","region":"Setagaya","lat":35.637852,"lng":139.668289},{"店舗名":"肉屋のハンバーグとガーリックライス 駒澤店","住所":"〒154-0011 東京都世田谷区上馬１丁目１７−５","ステータス":"APP_DISPLAY","region":"Setagaya","lat":35.637852,"lng":139.668289},{"店舗名":"玄米ビビンバ 韓美菜（ハンヤチェ） 駒澤店","住所":"〒154-0011 東京都世田谷区上馬１丁目１７−５","ステータス":"APP_DISPLAY","region":"Setagaya","lat":35.637852,"lng":139.668289},{"店舗名":"アサイー&グリークヨーグルト GREEK DAYS 駒澤店","住所":"〒154-0011 東京都世田谷区上馬１丁目１７−５","ステータス":"APP_DISPLAY","region":"Setagaya","lat":35.637852,"lng":139.668289},{"店舗名":"【理想の自分へ】まめたまのアサイーボウル 駒澤店","住所":"〒154-0011 東京都世田谷区上馬１丁目１７−５","ステータス":"APP_DISPLAY","region":"Setagaya","lat":35.637852,"lng":139.668289},{"店舗名":"濃厚ローストビーフとハラミ丼「タルビー」 駒澤店","住所":"〒154-0011 東京都世田谷区上馬１丁目１７−５ パルム駒沢","ステータス":"APP_DISPLAY","region":"Setagaya","lat":35.637852,"lng":139.668289},{"店舗名":"玄米&腸活 健康ごはん お玄さんのねばとろ丼 駒澤店","住所":"〒154-0011 東京都世田谷区上馬１丁目１７−５ パルム駒沢","ステータス":"APP_DISPLAY","region":"Setagaya","lat":35.637852,"lng":139.668289},{"店舗名":"ネギトロ&海鮮ユッケ丼 ととたま 駒澤店","住所":"〒154-0011 東京都世田谷区上馬１丁目１７−５ パルム駒沢","ステータス":"APP_DISPLAY","region":"Setagaya","lat":35.637852,"lng":139.668289},{"店舗名":"3pm TOKYO","住所":"〒154-0011 東京都世田谷区上馬１丁目１７−８","ステータス":"APP_DISPLAY","region":"Setagaya","lat":35.63821,"lng":139.668045},{"店舗名":"チキンオーバーライスチキチキボーイ","住所":"〒154-0011 東京都世田谷区上馬１丁目１７−８","ステータス":"APP_DISPLAY","region":"Setagaya","lat":35.63821,"lng":139.668045},{"店舗名":"鮨つね Sushitune","住所":"〒154-0011 東京都世田谷区上馬１丁目３３−１０","ステータス":"APP_DISPLAY","region":"Setagaya","lat":35.639397,"lng":139.668427},{"店舗名":"SAMAA_／サマア","住所":"〒154-0011 東京都世田谷区上馬１丁目３３−７","ステータス":"APP_DISPLAY","region":"Setagaya","lat":35.639011,"lng":139.668274},{"店舗名":"定食・ラーメン TOSHI","住所":"〒154-0011 東京都世田谷区上馬２丁目２７−２０","ステータス":"APP_DISPLAY","region":"Setagaya","lat":35.639999,"lng":139.666855},{"店舗名":"横浜家系つけ麺 松壱家","住所":"〒154-0011 東京都世田谷区上馬２丁目３７−１２","ステータス":"APP_DISPLAY","region":"Setagaya","lat":35.638481,"lng":139.662415},{"店舗名":"横浜家系まぜそば 松壱家","住所":"〒154-0011 東京都世田谷区上馬２丁目３７−１２","ステータス":"APP_DISPLAY","region":"Setagaya","lat":35.638481,"lng":139.662415},{"店舗名":"横浜家系チャーシュー丼 松壱家","住所":"〒154-0011 東京都世田谷区上馬２丁目３７−１２","ステータス":"APP_DISPLAY","region":"Setagaya","lat":35.638481,"lng":139.662415},{"店舗名":"Aburi TORA 熟成鮨と炙り鮨 駒沢店","住所":"〒154-0011 東京都世田谷区上馬３丁目１８−７","ステータス":"APP_DISPLAY","region":"Setagaya","lat":35.632824,"lng":139.661392},{"店舗名":"ウッドベリコーヒー駒沢店 WOODBERRY COFFEE KOMAZAWA","住所":"〒154-0011 東京都世田谷区上馬３丁目１８−７ 駒沢パーククォータ","ステータス":"APP_DISPLAY","region":"Setagaya","lat":35.632824,"lng":139.661392},{"店舗名":"カイザーステーキ","住所":"〒154-0011 東京都世田谷区上馬4-6-8","ステータス":"APP_DISPLAY","region":"Setagaya","lat":35.634335,"lng":139.660522},{"店舗名":"ナポリの窯 上馬店","住所":"〒154-0011 東京都世田谷区上馬４丁目３６−１９","ステータス":"APP_DISPLAY","region":"Setagaya","lat":35.639217,"lng":139.660736},{"店舗名":"焼肉千里","住所":"〒154-0011 東京都世田谷区上馬４丁目４１−２ 焼肉千里","ステータス":"APP_DISPLAY","region":"Setagaya","lat":35.639614,"lng":139.661102},{"店舗名":"デトロイト ミート チョッパーズ　-Detroit Meat Choppers -","住所":"〒154-0011 東京都世田谷区上馬４丁目４１−４","ステータス":"APP_DISPLAY","region":"Setagaya","lat":35.639473,"lng":139.660828},{"店舗名":"みんなの駒沢屋","住所":"〒154-0011 東京都世田谷区上馬４丁目４−２","ステータス":"APP_DISPLAY","region":"Setagaya","lat":35.633434,"lng":139.661301},{"店舗名":"アンテンドゥ 駒沢店","住所":"〒154-0011 東京都世田谷区上馬４丁目４−２","ステータス":"APP_DISPLAY","region":"Setagaya","lat":35.633434,"lng":139.661301},{"店舗名":"牛めし家　駒沢しもきはら店","住所":"〒154-0012","ステータス":"APP_DISPLAY","region":"Setagaya","lat":35.630497,"lng":139.659317},{"店舗名":"心ノ香 coconoka","住所":"〒154-0012 東京都世田谷区駒沢１丁目１７−１３","ステータス":"APP_DISPLAY","region":"Setagaya","lat":35.631207,"lng":139.657684},{"店舗名":"オーガニック日本茶と畳カフェTEA TATAMO! 駒沢店","住所":"〒154-0012 東京都世田谷区駒沢１丁目１７−１４","ステータス":"APP_DISPLAY","region":"Setagaya","lat":35.631248,"lng":139.657837},{"店舗名":"しまんちゅパーラータコライス 駒沢店 Shimanchu Parlor Taco Rice","住所":"〒154-0012 東京都世田谷区駒沢１丁目１７−１４","ステータス":"APP_DISPLAY","region":"Setagaya","lat":35.631248,"lng":139.657837},{"店舗名":"グリークヨーグルトカフェGREEK FRUITS 駒沢店","住所":"〒154-0012 東京都世田谷区駒沢１丁目１７−１４","ステータス":"APP_DISPLAY","region":"Setagaya","lat":35.631248,"lng":139.657837},{"店舗名":"Sunset Cafe スムージーベース 駒沢店 Sunset Cafe smoothie base","住所":"〒154-0012 東京都世田谷区駒沢１丁目１７−１４","ステータス":"APP_DISPLAY","region":"Setagaya","lat":35.631248,"lng":139.657837},{"店舗名":"Hawaiian Cafe アサイーボウル 駒沢店 Hawaiian Cafe Acai bowl","住所":"〒154-0012 東京都世田谷区駒沢１丁目１７−１４","ステータス":"APP_DISPLAY","region":"Setagaya","lat":35.631248,"lng":139.657837},{"店舗名":"ShakeShake 駒沢店","住所":"〒154-0012 東京都世田谷区駒沢１丁目１７−１４","ステータス":"APP_DISPLAY","region":"Setagaya","lat":35.631248,"lng":139.657837},{"店舗名":"本格タイ料理店 aroi cafe","住所":"〒154-0012 東京都世田谷区駒沢１丁目１７−１７ バスクコート 1F","ステータス":"APP_DISPLAY","region":"Setagaya","lat":35.631409,"lng":139.658295},{"店舗名":"すき家 駒沢大学前店","住所":"〒154-0012 東京都世田谷区駒沢１丁目２０−４","ステータス":"PENDING","region":"Setagaya","lat":35.630699,"lng":139.656784},{"店舗名":"Cafe Laki","住所":"〒154-0012 東京都世田谷区駒沢１丁目２０−４ グランドメゾン駒沢パーク","ステータス":"APP_DISPLAY","region":"Setagaya","lat":35.630699,"lng":139.656784},{"店舗名":"Ferment","住所":"〒154-0012 東京都世田谷区駒沢１丁目５－１３","ステータス":"APP_DISPLAY","region":"Setagaya","lat":35.632534,"lng":139.660309},{"店舗名":"味楽小食堂 駒沢店","住所":"〒154-0012 東京都世田谷区駒沢１丁目５−１３","ステータス":"APP_DISPLAY","region":"Setagaya","lat":35.632534,"lng":139.660309},{"店舗名":"栗処MIKURI","住所":"〒154-0012 東京都世田谷区駒沢１丁目５−１３","ステータス":"APP_DISPLAY","region":"Setagaya","lat":35.632534,"lng":139.660309},{"店舗名":"とろけるバターライス 駒沢店","住所":"〒154-0012 東京都世田谷区駒沢１丁目５−１３","ステータス":"APP_DISPLAY","region":"Setagaya","lat":35.632534,"lng":139.660309},{"店舗名":"キムチチゲとビビンバの店 韓国屋台 Seoulバル 駒沢店","住所":"〒154-0012 東京都世田谷区駒沢１丁目５−１３","ステータス":"APP_DISPLAY","region":"Setagaya","lat":35.632534,"lng":139.660309},{"店舗名":"SISTERS CURRY","住所":"〒154-0012 東京都世田谷区駒沢１丁目５−１３ ビラ・アペックス","ステータス":"APP_DISPLAY","region":"Setagaya","lat":35.632534,"lng":139.660309},{"店舗名":"和牛すじ煮込みたぬき","住所":"〒154-0012 東京都世田谷区駒沢１丁目５−１３ ビラ・アペックス駒沢","ステータス":"APP_DISPLAY","region":"Setagaya","lat":35.632534,"lng":139.660309},{"店舗名":"Columbita","住所":"〒154-0012 東京都世田谷区駒沢１丁目５−１３ 白須888","ステータス":"APP_DISPLAY","region":"Setagaya","lat":35.632534,"lng":139.660309},{"店舗名":"焼肉Bull's 駒澤大学店 Yakiniku Bull's Komazawa Daigakuten","住所":"〒154-0012 東京都世田谷区駒沢１丁目５−１４","ステータス":"APP_DISPLAY","region":"Setagaya","lat":35.632633,"lng":139.660492},{"店舗名":"【本格麻辣×自家製春雨】白虎麻辣湯 駒沢大学公園口店","住所":"〒154-0012 東京都世田谷区駒沢１丁目５−１５ 玉川ビル2","ステータス":"RECEIPT","region":"Setagaya","lat":35.632626,"lng":139.660614},{"店舗名":"Happy Hakko Factory","住所":"〒154-0012 東京都世田谷区駒沢１丁目５−１６ GranDuo駒沢Ⅷ","ステータス":"APP_DISPLAY","region":"Setagaya","lat":35.632492,"lng":139.660645},{"店舗名":"串カツ田中 駒沢店","住所":"〒154-0012 東京都世田谷区駒沢１丁目５−９","ステータス":"APP_DISPLAY","region":"Setagaya","lat":35.632225,"lng":139.659775},{"店舗名":"カレーハウス CoCo壱番屋 世田谷区駒沢店","住所":"〒154-0012 東京都世田谷区駒沢２丁目１１−３","ステータス":"APP_DISPLAY","region":"Setagaya","lat":35.632191,"lng":139.659134},{"店舗名":"大衆鰻 うな銀 駒沢大学駅前店","住所":"〒154-0012 東京都世田谷区駒沢２丁目１−３","ステータス":"APP_DISPLAY","region":"Setagaya","lat":35.633076,"lng":139.660675},{"店舗名":"山内農場 駒沢大学駅前店","住所":"〒154-0012 東京都世田谷区駒沢２丁目１−３","ステータス":"APP_DISPLAY","region":"Setagaya","lat":35.633076,"lng":139.660675},{"店舗名":"とんかつの和吉 駒沢大学駅前店","住所":"〒154-0012 東京都世田谷区駒沢２丁目１−３ 伊東ビル 1階","ステータス":"APP_DISPLAY","region":"Setagaya","lat":35.633076,"lng":139.660675},{"店舗名":"smashthings","住所":"〒154-0012 東京都世田谷区駒沢３丁目１４−１","ステータス":"APP_DISPLAY","region":"Setagaya","lat":35.630882,"lng":139.655243},{"店舗名":"米粉と豆腐のどーなつcohachi 駒澤大学前店","住所":"〒154-0012 東京都世田谷区駒沢４丁目","ステータス":"APP_DISPLAY","region":"Setagaya","lat":35.628326,"lng":139.654297},{"店舗名":"【もっちり玄米と低脂質チキン】とりげん食堂 駒澤大学前店","住所":"〒154-0012 東京都世田谷区駒沢４丁目","ステータス":"APP_DISPLAY","region":"Setagaya","lat":35.628326,"lng":139.654297},{"店舗名":"【メガ盛り‼】1キロ弁当工房肉MAX!!大盛りからあげお弁当 駒澤大学前店","住所":"〒154-0012 東京都世田谷区駒沢４丁目","ステータス":"APP_DISPLAY","region":"Setagaya","lat":35.628326,"lng":139.654297},{"店舗名":"CAFE CURE NATURA","住所":"〒154-0012 東京都世田谷区駒沢４丁目１−２２ ＪＣＳ駒沢ビル","ステータス":"APP_DISPLAY","region":"Setagaya","lat":35.626347,"lng":139.65567},{"店舗名":"MIO giapponese","住所":"〒154-0012 東京都世田谷区駒沢４丁目１２−２２","ステータス":"APP_DISPLAY","region":"Setagaya","lat":35.628025,"lng":139.656067},{"店舗名":"BONDI COFFEE SANDWICHES Komazawa","住所":"〒154-0012 東京都世田谷区駒沢４丁目１３−１０","ステータス":"APP_DISPLAY","region":"Setagaya","lat":35.628155,"lng":139.656097},{"店舗名":"フレッシュネスバーガー 駒沢公園通り店","住所":"〒154-0012 東京都世田谷区駒沢４丁目１３−９ プチプルハイム駒沢","ステータス":"APP_DISPLAY","region":"Setagaya","lat":35.628254,"lng":139.656113},{"店舗名":"awhile chai&soda","住所":"〒154-0012 東京都世田谷区駒沢４丁目１６−１６","ステータス":"APP_DISPLAY","region":"Setagaya","lat":35.629028,"lng":139.656296},{"店舗名":"グルートン","住所":"〒154-0012 東京都世田谷区駒沢４丁目１６−１６","ステータス":"APP_DISPLAY","region":"Setagaya","lat":35.629028,"lng":139.656296},{"店舗名":"KARICOMA","住所":"〒154-0012 東京都世田谷区駒沢４丁目１８－１８","ステータス":"APP_DISPLAY","region":"Setagaya","lat":35.630611,"lng":139.656464},{"店舗名":"muku.","住所":"〒154-0012 東京都世田谷区駒沢4丁目18-19","ステータス":"APP_DISPLAY","region":"Setagaya","lat":35.630478,"lng":139.656448},{"店舗名":"ケバブVINO","住所":"〒154-0012 東京都世田谷区駒沢４丁目１９−１１","ステータス":"APP_DISPLAY","region":"Setagaya","lat":35.630535,"lng":139.654968},{"店舗名":"上海(本格)エクスプレス","住所":"〒154-0012 東京都世田谷区駒沢４丁目２９−１１ ヴェリテ駒沢","ステータス":"APP_DISPLAY","region":"Setagaya","lat":35.630096,"lng":139.653305},{"店舗名":"DogBon café 駒沢公園店","住所":"〒154-0012 東京都世田谷区駒沢５丁目１５−３","ステータス":"APP_DISPLAY","region":"Setagaya","lat":35.622097,"lng":139.655197},{"店舗名":"クリスプサラダワークス 駒沢公園店","住所":"〒154-0012 東京都世田谷区駒沢５丁目２５−５ パークハイム駒沢","ステータス":"APP_DISPLAY","region":"Setagaya","lat":35.626827,"lng":139.656082},{"店舗名":"インドレストランBISTRO VINO 駒沢店","住所":"〒154-0012 東京都世田谷区駒沢四丁目19番11号","ステータス":"APP_DISPLAY","region":"Setagaya","lat":35.630535,"lng":139.654968},{"店舗名":"ココの台所","住所":"〒154-0012 東京都世田谷区駒沢二丁目５１番１５号","ステータス":"APP_DISPLAY","region":"Setagaya","lat":35.635887,"lng":139.659424},{"店舗名":"RIDLEY by Golden Time Is Yours","住所":"〒154-0012東京都世田谷区駒沢１－２０－８","ステータス":"APP_DISPLAY","region":"Setagaya","lat":35.630993,"lng":139.656815},{"店舗名":"Sunday","住所":"〒154-0014","ステータス":"APP_DISPLAY","region":"Setagaya","lat":35.627571,"lng":139.64949},{"店舗名":"Relais Sakura","住所":"〒154-0014 東京都世田谷区新町１丁目３６−９","ステータス":"APP_DISPLAY","region":"Setagaya","lat":35.627842,"lng":139.646667},{"店舗名":"スープカレー屋　オオドリ桜新町店","住所":"〒154-0014 東京都世田谷区新町２丁目２５-１７","ステータス":"APP_DISPLAY","region":"Setagaya","lat":35.631695,"lng":139.647095},{"店舗名":"どんまつ 世田谷中央店","住所":"〒154-0014 東京都世田谷区新町２丁目２７−６ アルカディア","ステータス":"APP_DISPLAY","region":"Setagaya","lat":35.628494,"lng":139.64711},{"店舗名":"柿家すし 世田谷中央店","住所":"〒154-0014 東京都世田谷区新町２丁目２７−６ アルカディア 1Ｆ","ステータス":"APP_DISPLAY","region":"Setagaya","lat":35.628494,"lng":139.64711},{"店舗名":"アジアンダイニング&バー シターラ 桜新町","住所":"〒154-0014 東京都世田谷区新町２丁目５−１５ 内田ビル","ステータス":"APP_DISPLAY","region":"Setagaya","lat":35.630993,"lng":139.650742},{"店舗名":"\"マシマシトンコツ マラドーナ桜新町サ ザエさん通り店\"","住所":"〒154-0015 東京都世田谷区桜新町１丁目","ステータス":"APP_DISPLAY","region":"Setagaya","lat":35.628891,"lng":139.642975},{"店舗名":"鴻翔","住所":"〒154-0015 東京都世田谷区桜新町１丁目１２−１３","ステータス":"APP_DISPLAY","region":"Setagaya","lat":35.631611,"lng":139.64505},{"店舗名":"すき家 桜新町駅前店","住所":"〒154-0015 東京都世田谷区桜新町１丁目１２−１３","ステータス":"PENDING","region":"Setagaya","lat":35.631611,"lng":139.64505},{"店舗名":"天然アジア料理エバーグリーン桜新町店","住所":"〒154-0015 東京都世田谷区桜新町１丁目１２−９","ステータス":"APP_DISPLAY","region":"Setagaya","lat":35.631531,"lng":139.644379},{"店舗名":"しゃぶしゃぶ温野菜 桜新町店","住所":"〒154-0015 東京都世田谷区桜新町１丁目１５−１９","ステータス":"APP_DISPLAY","region":"Setagaya","lat":35.630024,"lng":139.64389},{"店舗名":"らあめん花月嵐 桜新町店","住所":"〒154-0015 東京都世田谷区桜新町１丁目１７−１３","ステータス":"APP_DISPLAY","region":"Setagaya","lat":35.631172,"lng":139.642746},{"店舗名":"でびっと桜新町サザエさん通り店 david sakurashimmachi sazaesandoriten","住所":"〒154-0015 東京都世田谷区桜新町１丁目８−１０ 世田谷国際マンション","ステータス":"APP_DISPLAY","region":"Setagaya","lat":35.630131,"lng":139.643997},{"店舗名":"ケンタッキーフライドチキン 桜新町店","住所":"〒154-0015 東京都世田谷区桜新町２丁目１０","ステータス":"APP_DISPLAY","region":"Setagaya","lat":35.631729,"lng":139.643372},{"店舗名":"カレーハウス CoCo壱番屋 東急桜新町駅前店","住所":"〒154-0015 東京都世田谷区桜新町２丁目１０−２","ステータス":"APP_DISPLAY","region":"Setagaya","lat":35.631615,"lng":139.643784},{"店舗名":"ちよだ鮨 桜新町店","住所":"〒154-0015 東京都世田谷区桜新町２丁目１０−４","ステータス":"APP_DISPLAY","region":"Setagaya","lat":35.63155,"lng":139.643463},{"店舗名":"麺処さとう 桜新町店 SATO SAKURASINMACHI","住所":"〒154-0015東京都世田谷区桜新町１丁目１３−９","ステータス":"APP_DISPLAY","region":"Setagaya","lat":35.631474,"lng":139.644073},{"店舗名":"弁慶鮨","住所":"〒154-0016","ステータス":"APP_DISPLAY","region":"Setagaya","lat":35.638039,"lng":139.651962},{"店舗名":"ニューオールド NEWOLD","住所":"〒154-0016 東京都世田谷区弦巻３丁目９−１１ ビエンヴニュー・トミタ","ステータス":"APP_DISPLAY","region":"Setagaya","lat":35.635155,"lng":139.644867},{"店舗名":"W熟成つぼ焼き芋 TSUBOTTA(ツボッタ)","住所":"〒154-0016 東京都世田谷区弦巻５丁目１８−８","ステータス":"APP_DISPLAY","region":"Setagaya","lat":35.639618,"lng":139.640335},{"店舗名":"富士屋","住所":"〒154-0017 東京都世田谷区世田谷１丁目１０−１７","ステータス":"APP_DISPLAY","region":"Setagaya","lat":35.642239,"lng":139.654663},{"店舗名":"割烹円","住所":"〒154-0017 東京都世田谷区世田谷１丁目１６－１３","ステータス":"APP_DISPLAY","region":"Setagaya","lat":35.642605,"lng":139.650177},{"店舗名":"串カツ田中 世田谷店","住所":"〒154-0017 東京都世田谷区世田谷１丁目１６−１６","ステータス":"APP_DISPLAY","region":"Setagaya","lat":35.642559,"lng":139.650696},{"店舗名":"PEGO&CO. 世田谷店","住所":"〒154-0017 東京都世田谷区世田谷１丁目１６−２４","ステータス":"APP_DISPLAY","region":"Setagaya","lat":35.64151,"lng":139.650757},{"店舗名":"レストラン レオ","住所":"〒154-0017 東京都世田谷区世田谷１丁目２２−５","ステータス":"APP_DISPLAY","region":"Setagaya","lat":35.642708,"lng":139.647644},{"店舗名":"日本そば・創作うどん 砂場","住所":"〒154-0017 東京都世田谷区世田谷１丁目２６－１５","ステータス":"APP_DISPLAY","region":"Setagaya","lat":35.641861,"lng":139.645981},{"店舗名":"LLOYD COFFEE Setagaya","住所":"〒154-0017 東京都世田谷区世田谷１丁目４８−１","ステータス":"APP_DISPLAY","region":"Setagaya","lat":35.64098,"lng":139.643265},{"店舗名":"mamesaya cafe delivery","住所":"〒154-0017 東京都世田谷区世田谷２丁目２２−２","ステータス":"APP_DISPLAY","region":"Setagaya","lat":35.641369,"lng":139.643494},{"店舗名":"101世田谷堂","住所":"〒154-0017 東京都世田谷区世田谷２丁目２−８","ステータス":"APP_DISPLAY","region":"Setagaya","lat":35.64296,"lng":139.646713},{"店舗名":"【タイ料理専門店】Thai 503","住所":"〒154-0017 東京都世田谷区世田谷２丁目６−２","ステータス":"RECEIPT","region":"Setagaya","lat":35.64328,"lng":139.645889},{"店舗名":"カランコロン","住所":"〒154-0017 東京都世田谷区世田谷３丁目１２−１０","ステータス":"APP_DISPLAY","region":"Setagaya","lat":35.643734,"lng":139.646957},{"店舗名":"Bistro AOITSUKI","住所":"〒154-0017 東京都世田谷区世田谷３丁目３−１","ステータス":"APP_DISPLAY","region":"Setagaya","lat":35.642986,"lng":139.648361},{"店舗名":"HawaiianRestaurant ALOHABABY","住所":"〒154-0017 東京都世田谷区世田谷４丁目１−１２ 三品荘","ステータス":"APP_DISPLAY","region":"Setagaya","lat":35.642811,"lng":139.655045},{"店舗名":"マルショウ アリク","住所":"〒154-0017 東京都世田谷区世田谷４丁目２０番３号","ステータス":"APP_DISPLAY","region":"Setagaya","lat":35.64505,"lng":139.652893},{"店舗名":"MARUKICHI","住所":"〒154-0017 東京都世田谷区世田谷４丁目２−１５","ステータス":"APP_DISPLAY","region":"Setagaya","lat":35.643192,"lng":139.655182},{"店舗名":"ふわとろオムライスの店 世田谷たまごけん","住所":"〒154-0017 東京都世田谷区世田谷４丁目２−１５","ステータス":"APP_DISPLAY","region":"Setagaya","lat":35.643192,"lng":139.655182},{"店舗名":"スパゲティの店『神田ナポリタン』世田谷店","住所":"〒154-0017 東京都世田谷区世田谷４丁目２−１５","ステータス":"APP_DISPLAY","region":"Setagaya","lat":35.643192,"lng":139.655182},{"店舗名":"佐藤とん汁店 世田谷店","住所":"〒154-0017 東京都世田谷区世田谷４丁目２−１５","ステータス":"APP_DISPLAY","region":"Setagaya","lat":35.643192,"lng":139.655182},{"店舗名":"親子丼の店 猪爪 世田谷店","住所":"〒154-0017 東京都世田谷区世田谷４丁目２−１５","ステータス":"APP_DISPLAY","region":"Setagaya","lat":35.643192,"lng":139.655182},{"店舗名":"カツ丼屋 八方 世田谷店","住所":"〒154-0017 東京都世田谷区世田谷４丁目２−１５","ステータス":"APP_DISPLAY","region":"Setagaya","lat":35.643192,"lng":139.655182},{"店舗名":"dragon純豆腐（スンドゥブ）世田谷店","住所":"〒154-0017 東京都世田谷区世田谷４丁目２−１５","ステータス":"APP_DISPLAY","region":"Setagaya","lat":35.643192,"lng":139.655182},{"店舗名":"豆のヘルシータコライス「39Tacorice」世田谷店","住所":"〒154-0017 東京都世田谷区世田谷４丁目２−１５","ステータス":"APP_DISPLAY","region":"Setagaya","lat":35.643192,"lng":139.655182},{"店舗名":"シビ辛!麻婆豆腐-辛辣的麻婆豆腐- 世田谷4丁目2号店","住所":"〒154-0017 東京都世田谷区世田谷４丁目２−１５","ステータス":"APP_DISPLAY","region":"Setagaya","lat":35.643192,"lng":139.655182},{"店舗名":"アサイーボウルとグリークヨーグルト beauty 松陰神社前店","住所":"〒154-0017 東京都世田谷区世田谷４丁目２−１５","ステータス":"APP_DISPLAY","region":"Setagaya","lat":35.643192,"lng":139.655182},{"店舗名":"グリークヨーグルト専門店「아름다운 アルムダプダ」 松陰神社前店","住所":"〒154-0017 東京都世田谷区世田谷４丁目２−１５","ステータス":"APP_DISPLAY","region":"Setagaya","lat":35.643192,"lng":139.655182},{"店舗名":"台湾まぜそば きらり 世田谷店","住所":"〒154-0017 東京都世田谷区世田谷４丁目２−１５","ステータス":"APP_DISPLAY","region":"Setagaya","lat":35.643192,"lng":139.655182},{"店舗名":"究極のチャーシュー丼 豚太郎 松陰神社前店","住所":"〒154-0017 東京都世田谷区世田谷４丁目２−１５","ステータス":"APP_DISPLAY","region":"Setagaya","lat":35.643192,"lng":139.655182},{"店舗名":"デカ盛り弁当はるき【唐揚げ弁当屋】 松陰神社前店","住所":"〒154-0017 東京都世田谷区世田谷４丁目２−１５","ステータス":"APP_DISPLAY","region":"Setagaya","lat":35.643192,"lng":139.655182},{"店舗名":"【めちゃくちゃ旨い‼】メガ盛りからあげ丼 まんぞく屋 松陰神社前店","住所":"〒154-0017 東京都世田谷区世田谷４丁目２−１５","ステータス":"APP_DISPLAY","region":"Setagaya","lat":35.643192,"lng":139.655182},{"店舗名":"【もちもち自家製アサイー♪】ALOH&Spoon 松陰神社前店","住所":"〒154-0017 東京都世田谷区世田谷４丁目２−１５","ステータス":"APP_DISPLAY","region":"Setagaya","lat":35.643192,"lng":139.655182},{"店舗名":"いいから黙って豚キムチ 松陰神社前店","住所":"〒154-0017 東京都世田谷区世田谷４丁目２−１５","ステータス":"APP_DISPLAY","region":"Setagaya","lat":35.643192,"lng":139.655182},{"店舗名":"【デカ盛り豚丼】ジャンクキング 松陰神社前店","住所":"〒154-0017 東京都世田谷区世田谷４丁目２−１５","ステータス":"APP_DISPLAY","region":"Setagaya","lat":35.643192,"lng":139.655182},{"店舗名":"たこ焼き はち 世田谷店","住所":"〒154-0017 東京都世田谷区世田谷４丁目２−１５","ステータス":"APP_DISPLAY","region":"Setagaya","lat":35.643192,"lng":139.655182},{"店舗名":"十勝帯広豚丼 ぶたどん物語 世田谷4丁目2号店","住所":"〒154-0017 東京都世田谷区世田谷４丁目２−１５","ステータス":"APP_DISPLAY","region":"Setagaya","lat":35.643192,"lng":139.655182},{"店舗名":"炭香る親子丼『鶏々々』 世田谷4丁目2号店","住所":"〒154-0017 東京都世田谷区世田谷４丁目２−１５","ステータス":"APP_DISPLAY","region":"Setagaya","lat":35.643192,"lng":139.655182},{"店舗名":"街のおむらいす屋さん good！！ 世田谷4丁目2号店","住所":"〒154-0017 東京都世田谷区世田谷４丁目２−１５","ステータス":"APP_DISPLAY","region":"Setagaya","lat":35.643192,"lng":139.655182},{"店舗名":"クリスピーチキンアンドトマト 松陰神社前店 CRISPY CHICKEN n' TOMATO syoinzinzyamae","住所":"〒154-0017 東京都世田谷区世田谷４丁目２−１５","ステータス":"APP_DISPLAY","region":"Setagaya","lat":35.643192,"lng":139.655182},{"店舗名":"【アサイー＆グリーク】THE BOWL 松陰神社前店","住所":"〒154-0017 東京都世田谷区世田谷４丁目２−１５","ステータス":"APP_DISPLAY","region":"Setagaya","lat":35.643192,"lng":139.655182},{"店舗名":"【フルーツパンケーキとアサイー】BY THE SEA 松陰神社前店","住所":"〒154-0017 東京都世田谷区世田谷４丁目２−１５","ステータス":"APP_DISPLAY","region":"Setagaya","lat":35.643192,"lng":139.655182},{"店舗名":"デカ盛り弁当はるき【唐揚げ弁当屋】 松陰神社前店","住所":"〒154-0017 東京都世田谷区世田谷４丁目２−１５","ステータス":"APP_DISPLAY","region":"Setagaya","lat":35.643192,"lng":139.655182},{"店舗名":"【めちゃくちゃ旨い‼】メガ盛りからあげ丼 まんぞく屋 松陰神社前店","住所":"〒154-0017 東京都世田谷区世田谷４丁目２−１５","ステータス":"APP_DISPLAY","region":"Setagaya","lat":35.643192,"lng":139.655182},{"店舗名":"【もちもち自家製アサイー♪】ALOH&Spoon 松陰神社前店","住所":"〒154-0017 東京都世田谷区世田谷４丁目２−１５","ステータス":"APP_DISPLAY","region":"Setagaya","lat":35.643192,"lng":139.655182},{"店舗名":"親子丼 鶏茶房 世田谷4丁目2号店","住所":"〒154-0017 東京都世田谷区世田谷４丁目２−１５","ステータス":"APP_DISPLAY","region":"Setagaya","lat":35.643192,"lng":139.655182},{"店舗名":"二郎系背脂丼ぶり 肉山亭 世田谷4丁目2号店","住所":"〒154-0017 東京都世田谷区世田谷４丁目２−１５","ステータス":"APP_DISPLAY","region":"Setagaya","lat":35.643192,"lng":139.655182},{"店舗名":"ハラミ・ローストビーフ丼 ハラミと米 松陰神社前店","住所":"〒154-0017 東京都世田谷区世田谷４丁目２−１５","ステータス":"APP_DISPLAY","region":"Setagaya","lat":35.643192,"lng":139.655182},{"店舗名":"豚とほうれん草のポパイ丼 大阪肉物語 松陰神社前店","住所":"〒154-0017 東京都世田谷区世田谷４丁目２−１５","ステータス":"APP_DISPLAY","region":"Setagaya","lat":35.643192,"lng":139.655182},{"店舗名":"油そば つじ田 松陰神社前店","住所":"〒154-0017 東京都世田谷区世田谷４丁目２−１５","ステータス":"APP_DISPLAY","region":"Setagaya","lat":35.643192,"lng":139.655182},{"店舗名":"らーめん ぎ郎 ぎょうてん屋 松陰神社前店","住所":"〒154-0017 東京都世田谷区世田谷４丁目２−１５","ステータス":"APP_DISPLAY","region":"Setagaya","lat":35.643192,"lng":139.655182},{"店舗名":"担々麺 つじ田 KILLER NOODLE 松陰神社前店","住所":"〒154-0017 東京都世田谷区世田谷４丁目２−１５","ステータス":"APP_DISPLAY","region":"Setagaya","lat":35.643192,"lng":139.655182},{"店舗名":"ハラミ・ローストビーフ丼　ハラミと米 松陰神社前店","住所":"〒154-0017 東京都世田谷区世田谷４丁目２−１５","ステータス":"RECEIPT","region":"Setagaya","lat":35.643192,"lng":139.655182},{"店舗名":"【豚の極み】MARUKICHI 松陰神社前店","住所":"〒154-0017 東京都世田谷区世田谷４丁目２−１５","ステータス":"RECEIPT","region":"Setagaya","lat":35.643192,"lng":139.655182},{"店舗名":"McQUEEN COFFEE SHOP","住所":"〒154-0017 東京都世田谷区世田谷４丁目２−７","ステータス":"APP_DISPLAY","region":"Setagaya","lat":35.643684,"lng":139.655075},{"店舗名":"AIR BRAIN","住所":"〒154-0017 東京都世田谷区世田谷４丁目４−１９","ステータス":"APP_DISPLAY","region":"Setagaya","lat":35.643719,"lng":139.654556},{"店舗名":"Wack Dland!","住所":"〒154-0017 東京都世田谷区世田谷４丁目６−１","ステータス":"APP_DISPLAY","region":"Setagaya","lat":35.642555,"lng":139.652802},{"店舗名":"ワックドランド Wack Dland!","住所":"〒154-0017 東京都世田谷区世田谷４丁目６−１ 高橋ビル","ステータス":"APP_DISPLAY","region":"Setagaya","lat":35.642555,"lng":139.652802},{"店舗名":"MY NEW HOUSE","住所":"〒154-0017 東京都世田谷区世田谷４丁目６−１２ 松蔭スクエア １F","ステータス":"APP_DISPLAY","region":"Setagaya","lat":35.643433,"lng":139.653},{"店舗名":"ルビーマーレー","住所":"〒154-0017 東京都世田谷区世田谷４丁目６番１２号","ステータス":"APP_DISPLAY","region":"Setagaya","lat":35.643433,"lng":139.653},{"店舗名":"にんにく豚脂そば 麵126 松陰神社前店","住所":"〒154-0017 東京都世田谷区世田谷四丁目２番１５号","ステータス":"APP_DISPLAY","region":"Setagaya","lat":35.643192,"lng":139.655182},{"店舗名":"大衆ビストロモンスター","住所":"〒154-0017 東京都世田谷区世田谷三丁目12番11号","ステータス":"APP_DISPLAY","region":"Setagaya","lat":35.643864,"lng":139.646988},{"店舗名":"二代目麺屋秋もと","住所":"〒154-0017東京都世田谷区世田谷３丁目１３−１０","ステータス":"APP_DISPLAY","region":"Setagaya","lat":35.643341,"lng":139.646881},{"店舗名":"ラーメン車屋 豪徳寺","住所":"〒154-0021 東京都世田谷区豪徳寺１丁目２２−２","ステータス":"APP_DISPLAY","region":"Setagaya","lat":35.652485,"lng":139.646835},{"店舗名":"FIKAFABRIKEN","住所":"〒154-0021 東京都世田谷区豪徳寺１丁目２２−３","ステータス":"APP_DISPLAY","region":"Setagaya","lat":35.652599,"lng":139.646881},{"店舗名":"BUDDHA FOOD","住所":"〒154-0021 東京都世田谷区豪徳寺１丁目２２−5","ステータス":"APP_DISPLAY","region":"Setagaya","lat":35.65287,"lng":139.646912},{"店舗名":"ブッダアジアンレストラン&バー","住所":"〒154-0021 東京都世田谷区豪徳寺１丁目２２−５","ステータス":"APP_DISPLAY","region":"Setagaya","lat":35.65287,"lng":139.646912},{"店舗名":"Working cafe halo","住所":"〒154-0021 東京都世田谷区豪徳寺１丁目２３‐２３Cloche豪徳寺","ステータス":"APP_DISPLAY","region":"Setagaya","lat":35.651848,"lng":139.646469},{"店舗名":"すき家 豪徳寺駅前店","住所":"〒154-0021 東京都世田谷区豪徳寺１丁目２５−７","ステータス":"PENDING","region":"Setagaya","lat":35.653454,"lng":139.647018},{"店舗名":"neu","住所":"〒154-0021 東京都世田谷区豪徳寺１丁目３８−９","ステータス":"APP_DISPLAY","region":"Setagaya","lat":35.655567,"lng":139.648438},{"店舗名":"焼肉ホルモン 七厘いちわ 豪徳寺店","住所":"〒154-0021 東京都世田谷区豪徳寺１丁目４２−８","ステータス":"APP_DISPLAY","region":"Setagaya","lat":35.654369,"lng":139.64743},{"店舗名":"ISHIDAYA","住所":"〒154-0021 東京都世田谷区豪徳寺１丁目４２−９","ステータス":"APP_DISPLAY","region":"Setagaya","lat":35.654499,"lng":139.647476},{"店舗名":"ハッケン酒場豪徳寺駅前店","住所":"〒154-0021 東京都世田谷区豪徳寺１丁目４３−７","ステータス":"APP_DISPLAY","region":"Setagaya","lat":35.654144,"lng":139.647324},{"店舗名":"ケンタッキーフライドチキン 豪徳寺店","住所":"〒154-0021 東京都世田谷区豪徳寺１丁目４４−１１","ステータス":"APP_DISPLAY","region":"Setagaya","lat":35.653564,"lng":139.646729},{"店舗名":"デニーズ 豪徳寺店","住所":"〒154-0021 東京都世田谷区豪徳寺１丁目４４−１１","ステータス":"APP_DISPLAY","region":"Setagaya","lat":35.653564,"lng":139.646729},{"店舗名":"ナマステカフェ 豪徳寺店","住所":"〒154-0021 東京都世田谷区豪徳寺１丁目４５−１","ステータス":"APP_DISPLAY","region":"Setagaya","lat":35.653954,"lng":139.647018},{"店舗名":"中華料理 郷味 SATOMI","住所":"〒154-0021 東京都世田谷区豪徳寺１丁目４５−１０","ステータス":"APP_DISPLAY","region":"Setagaya","lat":35.654209,"lng":139.647308},{"店舗名":"韓国チャンポン専門店 マシッタ 豪徳寺店","住所":"〒154-0021 東京都世田谷区豪徳寺１丁目４５−１０ 小田急線 豪徳寺駅 2階","ステータス":"APP_DISPLAY","region":"Setagaya","lat":35.654209,"lng":139.647308},{"店舗名":"韓国ジャージャー麺 梨泰院トンバンジャージャー麺 豪徳寺店","住所":"〒154-0021 東京都世田谷区豪徳寺１丁目４５−１０ 小田急線 豪徳寺駅 2階","ステータス":"APP_DISPLAY","region":"Setagaya","lat":35.654209,"lng":139.647308},{"店舗名":"クレープBARエスグラ","住所":"〒154-0021 東京都世田谷区豪徳寺１丁目４５−２","ステータス":"APP_DISPLAY","region":"Setagaya","lat":35.653969,"lng":139.646851},{"店舗名":"タコライス専門店 沖縄TACOSTAR","住所":"〒154-0021 東京都世田谷区豪徳寺１丁目４６−１４","ステータス":"APP_DISPLAY","region":"Setagaya","lat":35.655083,"lng":139.648026},{"店舗名":"CoffeaFunika","住所":"〒154-0021 東京都世田谷区豪徳寺１丁目４６−１８","ステータス":"APP_DISPLAY","region":"Setagaya","lat":35.654678,"lng":139.647644},{"店舗名":"amane","住所":"〒154-0021 東京都世田谷区豪徳寺２丁目１８−６","ステータス":"APP_DISPLAY","region":"Setagaya","lat":35.646896,"lng":139.645828},{"店舗名":"もつ焼きチェリー","住所":"〒154-0022","ステータス":"APP_DISPLAY","region":"Setagaya","lat":35.654621,"lng":139.652588},{"店舗名":"串カツ田中 梅ヶ丘店","住所":"〒154-0022 東京都世田谷区梅ヶ丘１丁目１５−９","ステータス":"APP_DISPLAY","region":"Setagaya","lat":35.654903,"lng":139.654068},{"店舗名":"ONJ 弥栄","住所":"〒154-0022 東京都世田谷区梅丘","ステータス":"APP_DISPLAY","region":"Setagaya","lat":35.654621,"lng":139.652588},{"店舗名":"梅丘 Quintet","住所":"〒154-0022 東京都世田谷区梅丘１丁目１５−９","ステータス":"APP_DISPLAY","region":"Setagaya","lat":35.654903,"lng":139.654068},{"店舗名":"カフェガルブ cafe gharb","住所":"〒154-0022 東京都世田谷区梅丘１丁目１６−４","ステータス":"APP_DISPLAY","region":"Setagaya","lat":35.654411,"lng":139.654068},{"店舗名":"Purry Curry","住所":"〒154-0022 東京都世田谷区梅丘１丁目２１−7","ステータス":"APP_DISPLAY","region":"Setagaya","lat":35.655693,"lng":139.653671},{"店舗名":"スタンドかげん","住所":"〒154-0022 東京都世田谷区梅丘１丁目２１－７","ステータス":"APP_DISPLAY","region":"Setagaya","lat":35.655693,"lng":139.653671},{"店舗名":"創業60年 中華と定食 大むら -Omura Chinese & Teishoku -","住所":"〒154-0022 東京都世田谷区梅丘１丁目２２−１","ステータス":"APP_DISPLAY","region":"Setagaya","lat":35.65517,"lng":139.653305},{"店舗名":"CAFE&BAR BINGO","住所":"〒154-0022 東京都世田谷区梅丘１丁目２２−１２","ステータス":"APP_DISPLAY","region":"Setagaya","lat":35.655319,"lng":139.653458},{"店舗名":"ラーメンボノボ","住所":"〒154-0022 東京都世田谷区梅丘1丁目22番12号","ステータス":"APP_DISPLAY","region":"Setagaya","lat":35.655319,"lng":139.653458},{"店舗名":"未宝 みざい","住所":"〒154-0022 東京都世田谷区梅丘１丁目２３−５","ステータス":"APP_DISPLAY","region":"Setagaya","lat":35.655491,"lng":139.652664},{"店舗名":"そば処 寿美吉","住所":"〒154-0022 東京都世田谷区梅丘１丁目２３−６","ステータス":"APP_DISPLAY","region":"Setagaya","lat":35.655537,"lng":139.652832},{"店舗名":"中国料理 梅江飯店","住所":"〒154-0022 東京都世田谷区梅丘１丁目２５−１４","ステータス":"APP_DISPLAY","region":"Setagaya","lat":35.655754,"lng":139.654556},{"店舗名":"sunday food service","住所":"〒154-0022 東京都世田谷区梅丘１丁目４３−３７","ステータス":"APP_DISPLAY","region":"Setagaya","lat":35.655766,"lng":139.651917},{"店舗名":"Sunday Food Service 2号店","住所":"〒154-0022 東京都世田谷区梅丘１丁目４３−３７","ステータス":"APP_DISPLAY","region":"Setagaya","lat":35.655766,"lng":139.651917},{"店舗名":"【パティスリー】 カワムラガトー KAWAMURA GÂTEAUX","住所":"〒154-0022 東京都世田谷区梅丘一丁目34番1号","ステータス":"APP_DISPLAY","region":"Setagaya","lat":35.656311,"lng":139.652985},{"店舗名":"Sherry.","住所":"〒154-0023 東京都世田谷区若林１丁目２−３","ステータス":"APP_DISPLAY","region":"Setagaya","lat":35.643433,"lng":139.664276},{"店舗名":"とんかつ もとこ","住所":"〒154-0023 東京都世田谷区若林１丁目２−３","ステータス":"APP_DISPLAY","region":"Setagaya","lat":35.643433,"lng":139.664276},{"店舗名":"韓国料理 Chip−Pap−Firyon","住所":"〒154-0023 東京都世田谷区若林１丁目５－１","ステータス":"APP_DISPLAY","region":"Setagaya","lat":35.645065,"lng":139.664856},{"店舗名":"すし忠","住所":"〒154-0023 東京都世田谷区若林１丁目８−８","ステータス":"APP_DISPLAY","region":"Setagaya","lat":35.64349,"lng":139.662781},{"店舗名":"ダカインスパムアンドサンドイッチ","住所":"〒154-0023 東京都世田谷区若林３丁目１５−６","ステータス":"APP_DISPLAY","region":"Setagaya","lat":35.642323,"lng":139.655884},{"店舗名":"SETAGAYA kodo’s","住所":"〒154-0023 東京都世田谷区若林３丁目１５−６ エクセル若林","ステータス":"APP_DISPLAY","region":"Setagaya","lat":35.642323,"lng":139.655884},{"店舗名":"赤身牛専門grill diner gravy　若林3丁目店","住所":"〒154-0023 東京都世田谷区若林３丁目１６−１","ステータス":"APP_DISPLAY","region":"Setagaya","lat":35.64233,"lng":139.655701},{"店舗名":"自家製ソーセージのホットドッグcafedict","住所":"〒154-0023 東京都世田谷区若林３丁目１７－７","ステータス":"APP_DISPLAY","region":"Setagaya","lat":35.643082,"lng":139.655212},{"店舗名":"SETAGAYABayGOGO","住所":"〒154-0023 東京都世田谷区若林４丁目２０−１０","ステータス":"APP_DISPLAY","region":"Setagaya","lat":35.64452,"lng":139.65564},{"店舗名":"アジアンビストロTIKA（ティカ) Asian Bistro TIKA","住所":"〒154-0023 東京都世田谷区若林４丁目２０−７ タイガープラザ B1","ステータス":"APP_DISPLAY","region":"Setagaya","lat":35.644127,"lng":139.655518},{"店舗名":"とんかつ・定食の店 なかちゃか 松陰神社前店 Nakachaka Shoin-jinjya mae","住所":"〒154-0023 東京都世田谷区若林４丁目２０−７ タイガープラザ B1","ステータス":"APP_DISPLAY","region":"Setagaya","lat":35.644127,"lng":139.655518},{"店舗名":"韓国食堂よんま2","住所":"〒154-0023 東京都世田谷区若林４丁目２０−９ 若松屋ビル","ステータス":"APP_DISPLAY","region":"Setagaya","lat":35.64439,"lng":139.655594},{"店舗名":"TREE B.","住所":"〒154-0023 東京都世田谷区若林４丁目２４−１９","ステータス":"APP_DISPLAY","region":"Setagaya","lat":35.644764,"lng":139.654968},{"店舗名":"バイアンドバイ コーヒーアンドバー","住所":"〒154-0023 東京都世田谷区若林４丁目２６−９ 中村フーズ","ステータス":"APP_DISPLAY","region":"Setagaya","lat":35.645088,"lng":139.655762},{"店舗名":"クレープショップハチ 若林公園前店","住所":"〒154-0023 東京都世田谷区若林４丁目３０−１０","ステータス":"APP_DISPLAY","region":"Setagaya","lat":35.646347,"lng":139.655121},{"店舗名":"ALL DAY CAFE オールデイカフェ","住所":"〒154-0023 東京都世田谷区若林４丁目８−３","ステータス":"APP_DISPLAY","region":"Setagaya","lat":35.647449,"lng":139.657562},{"店舗名":"若林アキッチョバジコ","住所":"〒154-0023 東京都世田谷区若林５丁目１７−１","ステータス":"APP_DISPLAY","region":"Setagaya","lat":35.647907,"lng":139.657761},{"店舗名":"#酒食堂パーラー いいとみ","住所":"〒154-0023 東京都世田谷区若林三丁目16番1号","ステータス":"APP_DISPLAY","region":"Setagaya","lat":35.64233,"lng":139.655701},{"店舗名":"そばでちょこっと","住所":"〒154-0024 東京都世田谷区三軒茶屋１丁目","ステータス":"APP_DISPLAY","region":"Setagaya","lat":35.641197,"lng":139.671494},{"店舗名":"嘉角松～KADOMATSU～","住所":"〒154-0024 東京都世田谷区三軒茶屋１丁目２３−８","ステータス":"APP_DISPLAY","region":"Setagaya","lat":35.640362,"lng":139.669266},{"店舗名":"石橋商店","住所":"〒154-0024 東京都世田谷区三軒茶屋１丁目２９−８","ステータス":"APP_DISPLAY","region":"Setagaya","lat":35.640888,"lng":139.669373},{"店舗名":"ゆきはなび","住所":"〒154-0024 東京都世田谷区三軒茶屋１丁目３２−１７","ステータス":"APP_DISPLAY","region":"Setagaya","lat":35.642189,"lng":139.670868},{"店舗名":"Spice&Vinegar85 東京ビンダルー","住所":"〒154-0024 東京都世田谷区三軒茶屋１丁目３３−１６","ステータス":"APP_DISPLAY","region":"Setagaya","lat":35.642349,"lng":139.671204},{"店舗名":"Blue Bottle Coffee 三軒茶屋カフェ","住所":"〒154-0024 東京都世田谷区三軒茶屋１丁目３３−１８","ステータス":"APP_DISPLAY","region":"Setagaya","lat":35.642288,"lng":139.671539},{"店舗名":"鮨 酒 肴 杉玉 三軒茶屋店","住所":"〒154-0024 東京都世田谷区三軒茶屋１丁目３３−１９","ステータス":"APP_DISPLAY","region":"Setagaya","lat":35.64225,"lng":139.671692},{"店舗名":"大盛海鮮天丼マウンテン 三軒茶屋店","住所":"〒154-0024 東京都世田谷区三軒茶屋１丁目３３−１９","ステータス":"APP_DISPLAY","region":"Setagaya","lat":35.64225,"lng":139.671692},{"店舗名":"まぐろ丼と海鮮丼 近衛 三軒茶屋店","住所":"〒154-0024 東京都世田谷区三軒茶屋１丁目３３−１９ ケイオーハロービル","ステータス":"APP_DISPLAY","region":"Setagaya","lat":35.64225,"lng":139.671692},{"店舗名":"鮨 おくうら 三軒茶屋店","住所":"〒154-0024 東京都世田谷区三軒茶屋１丁目３３−１９ 小川ビル 1F","ステータス":"APP_DISPLAY","region":"Setagaya","lat":35.64225,"lng":139.671692},{"店舗名":"鮨 よし田 三軒茶屋店","住所":"〒154-0024 東京都世田谷区三軒茶屋１丁目３３−１９ 小川ビル 1F","ステータス":"APP_DISPLAY","region":"Setagaya","lat":35.64225,"lng":139.671692},{"店舗名":"binwan 2nd","住所":"〒154-0024 東京都世田谷区三軒茶屋１丁目３４−１３","ステータス":"APP_DISPLAY","region":"Setagaya","lat":35.641834,"lng":139.672821},{"店舗名":"ちよだ鮨 三軒茶屋栄通店","住所":"〒154-0024 東京都世田谷区三軒茶屋１丁目３５−１","ステータス":"APP_DISPLAY","region":"Setagaya","lat":35.64183,"lng":139.672958},{"店舗名":"チヂミゴー","住所":"〒154-0024 東京都世田谷区三軒茶屋１丁目３５−１７ ルーエプラッツ三軒茶屋","ステータス":"APP_DISPLAY","region":"Setagaya","lat":35.643063,"lng":139.67244},{"店舗名":"クリスピーチキンアンドトマト 三軒茶屋店 CRISPY CHICKEN n' TOMATO Sangenjaya","住所":"〒154-0024 東京都世田谷区三軒茶屋１丁目３５−１７ ルーエプラッツ三軒茶屋 b1","ステータス":"APP_DISPLAY","region":"Setagaya","lat":35.643063,"lng":139.67244},{"店舗名":"シンチャムトッポッキ学芸大学店","住所":"〒154-0024 東京都世田谷区三軒茶屋１丁目３５−１７ ルーエプラッツ三軒茶屋 b1f","ステータス":"APP_DISPLAY","region":"Setagaya","lat":35.643063,"lng":139.67244},{"店舗名":"NAMPU'S THAI DINING & 酒","住所":"〒154-0024 東京都世田谷区三軒茶屋１丁目３５−２３","ステータス":"APP_DISPLAY","region":"Setagaya","lat":35.642551,"lng":139.672852},{"店舗名":"大阪餃子よしこ　三軒茶屋店","住所":"〒154-0024 東京都世田谷区三軒茶屋１丁目３６−１","ステータス":"APP_DISPLAY","region":"Setagaya","lat":35.642262,"lng":139.67186},{"店舗名":"MAISON FARMER","住所":"〒154-0024 東京都世田谷区三軒茶屋１丁目３６−１２","ステータス":"APP_DISPLAY","region":"Setagaya","lat":35.643112,"lng":139.67131},{"店舗名":"韓国料理 オムニ食堂","住所":"〒154-0024 東京都世田谷区三軒茶屋１丁目３６−３ 三軒茶屋第２オリンピックマンション","ステータス":"APP_DISPLAY","region":"Setagaya","lat":35.642334,"lng":139.671555},{"店舗名":"And Co.ffee アンドコーヒー","住所":"〒154-0024 東京都世田谷区三軒茶屋１丁目３６−５","ステータス":"APP_DISPLAY","region":"Setagaya","lat":35.642395,"lng":139.671219},{"店舗名":"馬焼肉専門店うまえびす 三軒茶屋店","住所":"〒154-0024 東京都世田谷区三軒茶屋１丁目３６−５","ステータス":"APP_DISPLAY","region":"Setagaya","lat":35.642395,"lng":139.671219},{"店舗名":"ニンニク入れますか？豚二郎 三軒茶屋店","住所":"〒154-0024 東京都世田谷区三軒茶屋１丁目３７","ステータス":"APP_DISPLAY","region":"Setagaya","lat":35.642803,"lng":139.670776},{"店舗名":"トクベツ。 三軒茶屋店","住所":"〒154-0024 東京都世田谷区三軒茶屋１丁目３７−１","ステータス":"APP_DISPLAY","region":"Setagaya","lat":35.642452,"lng":139.670837},{"店舗名":"東京極上白湯 三軒茶屋店","住所":"〒154-0024 東京都世田谷区三軒茶屋１丁目３７−１","ステータス":"APP_DISPLAY","region":"Setagaya","lat":35.642452,"lng":139.670837},{"店舗名":"油そば研究所 三軒茶屋店","住所":"〒154-0024 東京都世田谷区三軒茶屋１丁目３７−１","ステータス":"APP_DISPLAY","region":"Setagaya","lat":35.642452,"lng":139.670837},{"店舗名":"つけ麺大戦争 三軒茶屋店","住所":"〒154-0024 東京都世田谷区三軒茶屋１丁目３７−１","ステータス":"APP_DISPLAY","region":"Setagaya","lat":35.642452,"lng":139.670837},{"店舗名":"圧倒的背徳感!炙り豚RUSH! 三軒茶屋店","住所":"〒154-0024 東京都世田谷区三軒茶屋１丁目３７−１","ステータス":"APP_DISPLAY","region":"Setagaya","lat":35.642452,"lng":139.670837},{"店舗名":"ラーメン屋が本気でカレー作ってみた。 三軒茶屋店","住所":"〒154-0024 東京都世田谷区三軒茶屋１丁目３７−１","ステータス":"APP_DISPLAY","region":"Setagaya","lat":35.642452,"lng":139.670837},{"店舗名":"東京極上坦坦 三軒茶屋店","住所":"〒154-0024 東京都世田谷区三軒茶屋１丁目３７−１","ステータス":"APP_DISPLAY","region":"Setagaya","lat":35.642452,"lng":139.670837},{"店舗名":"横浜家系ラーメン 極上家 三軒茶屋店","住所":"〒154-0024 東京都世田谷区三軒茶屋１丁目３７−１","ステータス":"APP_DISPLAY","region":"Setagaya","lat":35.642452,"lng":139.670837},{"店舗名":"熟成カレーうどん 咖哩庵 三軒茶屋店","住所":"〒154-0024 東京都世田谷区三軒茶屋１丁目３７−１","ステータス":"APP_DISPLAY","region":"Setagaya","lat":35.642452,"lng":139.670837},{"店舗名":"究極の塩だしうどん 京都はんなり 三軒茶屋店","住所":"〒154-0024 東京都世田谷区三軒茶屋１丁目３７−１","ステータス":"APP_DISPLAY","region":"Setagaya","lat":35.642452,"lng":139.670837},{"店舗名":"中華そば 昭和軒 三軒茶屋店","住所":"〒154-0024 東京都世田谷区三軒茶屋１丁目３７−１","ステータス":"APP_DISPLAY","region":"Setagaya","lat":35.642452,"lng":139.670837},{"店舗名":"辛激の麺人 三軒茶屋店","住所":"〒154-0024 東京都世田谷区三軒茶屋１丁目３７−１","ステータス":"APP_DISPLAY","region":"Setagaya","lat":35.642452,"lng":139.670837},{"店舗名":"【極上炒飯】チャーハンマニア 三軒茶屋店","住所":"〒154-0024 東京都世田谷区三軒茶屋１丁目３７−１","ステータス":"APP_DISPLAY","region":"Setagaya","lat":35.642452,"lng":139.670837},{"店舗名":"ぶた家 三軒茶屋店","住所":"〒154-0024 東京都世田谷区三軒茶屋１丁目３７−１","ステータス":"APP_DISPLAY","region":"Setagaya","lat":35.642452,"lng":139.670837},{"店舗名":"究極の食べるスープ！極上汁と飯 三軒茶屋店","住所":"〒154-0024 東京都世田谷区三軒茶屋１丁目３７−１","ステータス":"APP_DISPLAY","region":"Setagaya","lat":35.642452,"lng":139.670837},{"店舗名":"お肉屋さんの本気ハンバーグ！ 三軒茶屋店","住所":"〒154-0024 東京都世田谷区三軒茶屋１丁目３７−１","ステータス":"APP_DISPLAY","region":"Setagaya","lat":35.642452,"lng":139.670837},{"店舗名":"つけ麺 大かわ 三軒茶屋店","住所":"〒154-0024 東京都世田谷区三軒茶屋１丁目３７−１","ステータス":"APP_DISPLAY","region":"Setagaya","lat":35.642452,"lng":139.670837},{"店舗名":"東京極上煮干 三軒茶屋店","住所":"〒154-0024 東京都世田谷区三軒茶屋１丁目３７−１","ステータス":"APP_DISPLAY","region":"Setagaya","lat":35.642452,"lng":139.670837},{"店舗名":"釜玉中華そば 世田谷製麺所 三軒茶屋店","住所":"〒154-0024 東京都世田谷区三軒茶屋１丁目３７−１","ステータス":"APP_DISPLAY","region":"Setagaya","lat":35.642452,"lng":139.670837},{"店舗名":"TKM 卵かけ麺製造所 三軒茶屋店","住所":"〒154-0024 東京都世田谷区三軒茶屋１丁目３７−１","ステータス":"APP_DISPLAY","region":"Setagaya","lat":35.642452,"lng":139.670837},{"店舗名":"竹岡式ラーメン 松乃家 三軒茶屋店","住所":"〒154-0024 東京都世田谷区三軒茶屋１丁目３７−１","ステータス":"APP_DISPLAY","region":"Setagaya","lat":35.642452,"lng":139.670837},{"店舗名":"極上粥三昧 三軒茶屋店","住所":"〒154-0024 東京都世田谷区三軒茶屋１丁目３７−１","ステータス":"APP_DISPLAY","region":"Setagaya","lat":35.642452,"lng":139.670837},{"店舗名":"背徳の節ラーうどん 至福の一杯。 三軒茶屋店","住所":"〒154-0024 東京都世田谷区三軒茶屋１丁目３７−１","ステータス":"APP_DISPLAY","region":"Setagaya","lat":35.642452,"lng":139.670837},{"店舗名":"勝浦タンタンメン 赤鬼 三軒茶屋店","住所":"〒154-0024 東京都世田谷区三軒茶屋１丁目３７−１","ステータス":"APP_DISPLAY","region":"Setagaya","lat":35.642452,"lng":139.670837},{"店舗名":"勝浦タンタンメン 奥さわ 三軒茶屋店","住所":"〒154-0024 東京都世田谷区三軒茶屋１丁目３７−１","ステータス":"APP_DISPLAY","region":"Setagaya","lat":35.642452,"lng":139.670837},{"店舗名":"ゴル麺。 THE GOLDEN TSUKEMEN 三軒茶屋店","住所":"〒154-0024 東京都世田谷区三軒茶屋１丁目３７−１","ステータス":"APP_DISPLAY","region":"Setagaya","lat":35.642452,"lng":139.670837},{"店舗名":"褒美チャーシュー丼 ぶた丸 三軒茶屋店","住所":"〒154-0024 東京都世田谷区三軒茶屋１丁目３７−１","ステータス":"APP_DISPLAY","region":"Setagaya","lat":35.642452,"lng":139.670837},{"店舗名":"塩出汁おうどん 京の花 三軒茶屋店","住所":"〒154-0024 東京都世田谷区三軒茶屋１丁目３７−１","ステータス":"APP_DISPLAY","region":"Setagaya","lat":35.642452,"lng":139.670837},{"店舗名":"竹岡式ラーメン 富津屋 三軒茶屋店","住所":"〒154-0024 東京都世田谷区三軒茶屋１丁目３７−１","ステータス":"APP_DISPLAY","region":"Setagaya","lat":35.642452,"lng":139.670837},{"店舗名":"Farmer'sChicken 三軒茶屋店","住所":"〒154-0024 東京都世田谷区三軒茶屋１丁目３７−１","ステータス":"APP_DISPLAY","region":"Setagaya","lat":35.642452,"lng":139.670837},{"店舗名":"麺屋 藤しろ 三軒茶屋店","住所":"〒154-0024 東京都世田谷区三軒茶屋１丁目３７−１","ステータス":"APP_DISPLAY","region":"Setagaya","lat":35.642452,"lng":139.670837},{"店舗名":"横浜家系ラーメン松壱家 三軒茶屋店","住所":"〒154-0024 東京都世田谷区三軒茶屋１丁目３７−１ 2f","ステータス":"APP_DISPLAY","region":"Setagaya","lat":35.642452,"lng":139.670837},{"店舗名":"上島珈琲店　三軒茶屋店","住所":"〒154-0024 東京都世田谷区三軒茶屋１丁目３７-１３","ステータス":"APP_DISPLAY","region":"Setagaya","lat":35.642891,"lng":139.671158},{"店舗名":"中華バル 津門菜館 三軒茶屋本店","住所":"〒154-0024 東京都世田谷区三軒茶屋１丁目３７−１３","ステータス":"APP_DISPLAY","region":"Setagaya","lat":35.642891,"lng":139.671158},{"店舗名":"金沢まいもん寿司 三軒茶屋","住所":"〒154-0024 東京都世田谷区三軒茶屋１丁目３７−２","ステータス":"APP_DISPLAY","region":"Setagaya","lat":35.642483,"lng":139.67067},{"店舗名":"POTERI BAKERY -TOKYO- 三軒茶屋店","住所":"〒154-0024 東京都世田谷区三軒茶屋１丁目３７−３","ステータス":"APP_DISPLAY","region":"Setagaya","lat":35.642521,"lng":139.670486},{"店舗名":"とんかつ 幻水豚(げんすいとん)","住所":"〒154-0024 東京都世田谷区三軒茶屋１丁目４０−１４","ステータス":"APP_DISPLAY","region":"Setagaya","lat":35.643326,"lng":139.672913},{"店舗名":"大珍厨房","住所":"〒154-0024 東京都世田谷区三軒茶屋１丁目４１−１２","ステータス":"APP_DISPLAY","region":"Setagaya","lat":35.643951,"lng":139.672714},{"店舗名":"ゴリゴリバーガー三軒茶屋店","住所":"〒154-0024 東京都世田谷区三軒茶屋１丁目５−１６","ステータス":"APP_DISPLAY","region":"Setagaya","lat":35.640228,"lng":139.674927},{"店舗名":"タレ焼き豚丼ポークファイター大盛ジム 三軒茶屋店 Pork Fighter Omori GYM","住所":"〒154-0024 東京都世田谷区三軒茶屋１丁目５−１６","ステータス":"APP_DISPLAY","region":"Setagaya","lat":35.640228,"lng":139.674927},{"店舗名":"ネギと牛タンのお店 NEGITAN 三軒茶屋店 NEGITAN","住所":"〒154-0024 東京都世田谷区三軒茶屋１丁目５−１６","ステータス":"APP_DISPLAY","region":"Setagaya","lat":35.640228,"lng":139.674927},{"店舗名":"沖縄料理 てぃださんさん　OKINAWA tidasansan","住所":"〒154-0024 東京都世田谷区三軒茶屋１丁目６−１３","ステータス":"APP_DISPLAY","region":"Setagaya","lat":35.640446,"lng":139.674469},{"店舗名":"目黒五十番 三軒茶屋店","住所":"〒154-0024 東京都世田谷区三軒茶屋１丁目７−１２","ステータス":"APP_DISPLAY","region":"Setagaya","lat":35.640907,"lng":139.674057},{"店舗名":"こたに究極の塩だしかすうどん三軒茶屋店","住所":"〒154-0024 東京都世田谷区三軒茶屋１丁目９−１３","ステータス":"APP_DISPLAY","region":"Setagaya","lat":35.641617,"lng":139.673203},{"店舗名":"羅州コムタン・純豆腐三軒茶屋店","住所":"〒154-0024 東京都世田谷区三軒茶屋１丁目９−１３","ステータス":"APP_DISPLAY","region":"Setagaya","lat":35.641617,"lng":139.673203},{"店舗名":"西五ソルロンタン三軒茶屋店","住所":"〒154-0024 東京都世田谷区三軒茶屋１丁目９−１３","ステータス":"APP_DISPLAY","region":"Setagaya","lat":35.641617,"lng":139.673203},{"店舗名":"豚汁と米 三軒茶屋店","住所":"〒154-0024 東京都世田谷区三軒茶屋１丁目９−１３","ステータス":"APP_DISPLAY","region":"Setagaya","lat":35.641617,"lng":139.673203},{"店舗名":"明洞タッカルックス 三軒茶屋店","住所":"〒154-0024 東京都世田谷区三軒茶屋１丁目９−１３","ステータス":"APP_DISPLAY","region":"Setagaya","lat":35.641617,"lng":139.673203},{"店舗名":"ソウルプデチゲ　三軒茶屋店","住所":"〒154-0024 東京都世田谷区三軒茶屋１丁目９−１３","ステータス":"APP_DISPLAY","region":"Setagaya","lat":35.641617,"lng":139.673203},{"店舗名":"仁川ユッケジャン　三軒茶屋店","住所":"〒154-0024 東京都世田谷区三軒茶屋１丁目９−１３","ステータス":"APP_DISPLAY","region":"Setagaya","lat":35.641617,"lng":139.673203},{"店舗名":"おかめ究極の塩だし茶漬け　三軒茶屋の陣","住所":"〒154-0024 東京都世田谷区三軒茶屋１丁目９−１３","ステータス":"APP_DISPLAY","region":"Setagaya","lat":35.641617,"lng":139.673203},{"店舗名":"からあげ縁 三軒茶屋店","住所":"〒154-0024 東京都世田谷区三軒茶屋１丁目９−１３","ステータス":"APP_DISPLAY","region":"Setagaya","lat":35.641617,"lng":139.673203},{"店舗名":"お好み焼きもんじゃうまうま 三軒茶屋店","住所":"〒154-0024 東京都世田谷区三軒茶屋２丁目１０−１４","ステータス":"APP_DISPLAY","region":"Setagaya","lat":35.642406,"lng":139.66893},{"店舗名":"武蔵野うどん じんこ 三軒茶屋店","住所":"〒154-0024 東京都世田谷区三軒茶屋２丁目１１−１１","ステータス":"APP_DISPLAY","region":"Setagaya","lat":35.642193,"lng":139.669022},{"店舗名":"O’denbar うまみ 三軒茶屋","住所":"〒154-0024 東京都世田谷区三軒茶屋２丁目１１−１１","ステータス":"APP_DISPLAY","region":"Setagaya","lat":35.642193,"lng":139.669022},{"店舗名":"〆や二日酔いに お茶漬関西 三軒茶屋","住所":"〒154-0024 東京都世田谷区三軒茶屋２丁目１１−１１","ステータス":"APP_DISPLAY","region":"Setagaya","lat":35.642193,"lng":139.669022},{"店舗名":"満腹がっつり肉丼 ドラゴン家 三軒茶屋","住所":"〒154-0024 東京都世田谷区三軒茶屋２丁目１１−１１","ステータス":"APP_DISPLAY","region":"Setagaya","lat":35.642193,"lng":139.669022},{"店舗名":"大衆食堂 ひで 三軒茶屋","住所":"〒154-0024 東京都世田谷区三軒茶屋２丁目１１−１１","ステータス":"APP_DISPLAY","region":"Setagaya","lat":35.642193,"lng":139.669022},{"店舗名":"讃岐うどん きし本 三軒茶屋","住所":"〒154-0024 東京都世田谷区三軒茶屋２丁目１１−１１","ステータス":"APP_DISPLAY","region":"Setagaya","lat":35.642193,"lng":139.669022},{"店舗名":"おだしプロのつくるカレー 三軒茶屋","住所":"〒154-0024 東京都世田谷区三軒茶屋２丁目１１−１１","ステータス":"APP_DISPLAY","region":"Setagaya","lat":35.642193,"lng":139.669022},{"店舗名":"すき家 三軒茶屋二丁目店","住所":"〒154-0024 東京都世田谷区三軒茶屋２丁目１１−２４","ステータス":"PENDING","region":"Setagaya","lat":35.641384,"lng":139.669098},{"店舗名":"コア マーリン カフェ","住所":"〒154-0024 東京都世田谷区三軒茶屋２丁目１１−２６ コア第2ビル","ステータス":"APP_DISPLAY","region":"Setagaya","lat":35.641151,"lng":139.66893},{"店舗名":"富喜製麺研究所 三軒茶屋店","住所":"〒154-0024 東京都世田谷区三軒茶屋２丁目１２−１０","ステータス":"APP_DISPLAY","region":"Setagaya","lat":35.642467,"lng":139.669907},{"店舗名":"クジラ荘（ホットドッグ専門店）","住所":"〒154-0024 東京都世田谷区三軒茶屋２丁目１３−１０","ステータス":"APP_DISPLAY","region":"Setagaya","lat":35.643337,"lng":139.669968},{"店舗名":"GYOZA SHACK","住所":"〒154-0024 東京都世田谷区三軒茶屋２丁目１３−１０","ステータス":"APP_DISPLAY","region":"Setagaya","lat":35.643337,"lng":139.669968},{"店舗名":"いきなりステーキ 三軒茶屋店","住所":"〒154-0024 東京都世田谷区三軒茶屋２丁目１３−１１","ステータス":"APP_DISPLAY","region":"Setagaya","lat":35.643394,"lng":139.670059},{"店舗名":"Karaoke BIG ECHO Sangenjaya カラオケ ビッグエコー三軒茶屋駅前店","住所":"〒154-0024 東京都世田谷区三軒茶屋２丁目１３−１４","ステータス":"RECEIPT","region":"Setagaya","lat":35.643463,"lng":139.670578},{"店舗名":"ごはんが進む！『チキン南蛮本舗』三軒茶屋店","住所":"〒154-0024 東京都世田谷区三軒茶屋２丁目１３−１４","ステータス":"APP_DISPLAY","region":"Setagaya","lat":35.643463,"lng":139.670578},{"店舗名":"果茶果茶 三軒茶屋店","住所":"〒154-0024 東京都世田谷区三軒茶屋２丁目１３−１４","ステータス":"APP_DISPLAY","region":"Setagaya","lat":35.643463,"lng":139.670578},{"店舗名":"『油そば桐ちゃん』～食べログ百名店 桐麺監修～ 三軒茶屋店","住所":"〒154-0024 東京都世田谷区三軒茶屋２丁目１３−１４","ステータス":"APP_DISPLAY","region":"Setagaya","lat":35.643463,"lng":139.670578},{"店舗名":"ごはんがすすむ！油淋鶏飯店 三軒茶屋駅前店","住所":"〒154-0024 東京都世田谷区三軒茶屋２丁目１３−１４","ステータス":"APP_DISPLAY","region":"Setagaya","lat":35.643463,"lng":139.670578},{"店舗名":"ミルゼリッチ 三軒茶屋駅前店","住所":"〒154-0024 東京都世田谷区三軒茶屋２丁目１３−１４","ステータス":"APP_DISPLAY","region":"Setagaya","lat":35.643463,"lng":139.670578},{"店舗名":"二段仕込み唐揚げ『鶏の福』三軒茶屋駅前店","住所":"〒154-0024 東京都世田谷区三軒茶屋２丁目１３−１４","ステータス":"APP_DISPLAY","region":"Setagaya","lat":35.643463,"lng":139.670578},{"店舗名":"わらび餅茶屋 三軒茶屋駅前店","住所":"〒154-0024 東京都世田谷区三軒茶屋２丁目１３−１４","ステータス":"APP_DISPLAY","region":"Setagaya","lat":35.643463,"lng":139.670578},{"店舗名":"ビックエコーデリバリー 三軒茶屋駅前店","住所":"〒154-0024 東京都世田谷区三軒茶屋２丁目１３−１４","ステータス":"APP_DISPLAY","region":"Setagaya","lat":35.643463,"lng":139.670578},{"店舗名":"点心三昧 香港バル２１３ TenshinZanmai HongKong213","住所":"〒154-0024 東京都世田谷区三軒茶屋２丁目１３−１７","ステータス":"APP_DISPLAY","region":"Setagaya","lat":35.643192,"lng":139.670547},{"店舗名":"浪花のたこ焼 三軒茶屋天風","住所":"〒154-0024 東京都世田谷区三軒茶屋２丁目１３−１９","ステータス":"APP_DISPLAY","region":"Setagaya","lat":35.642975,"lng":139.670364},{"店舗名":"万豚記 三軒茶屋店","住所":"〒154-0024 東京都世田谷区三軒茶屋２丁目１３−２２","ステータス":"APP_DISPLAY","region":"Setagaya","lat":35.64262,"lng":139.670044},{"店舗名":"Saunter coffee","住所":"〒154-0024 東京都世田谷区三軒茶屋２丁目１４−１０ ローヤルマンション三軒茶屋","ステータス":"APP_DISPLAY","region":"Setagaya","lat":35.643257,"lng":139.669357},{"店舗名":"京城餃子王 三軒茶屋","住所":"〒154-0024 東京都世田谷区三軒茶屋２丁目１４−１２","ステータス":"APP_DISPLAY","region":"Setagaya","lat":35.643322,"lng":139.669678},{"店舗名":"肉汁餃子のダンダダン 三軒茶屋店","住所":"〒154-0024 東京都世田谷区三軒茶屋２丁目１４−１３","ステータス":"APP_DISPLAY","region":"Setagaya","lat":35.643356,"lng":139.669861},{"店舗名":"タイ食市場サイアム・タラート","住所":"〒154-0024 東京都世田谷区三軒茶屋２丁目１４−１９ ジオ・ステージ三軒茶屋","ステータス":"APP_DISPLAY","region":"Setagaya","lat":35.642918,"lng":139.669525},{"店舗名":"ニエバナはなれ","住所":"〒154-0024 東京都世田谷区三軒茶屋２丁目１４−１９ ジオ・ステージ三軒茶屋 1-C","ステータス":"APP_DISPLAY","region":"Setagaya","lat":35.642918,"lng":139.669525},{"店舗名":"たこ焼き専門店　たこ益","住所":"〒154-0024 東京都世田谷区三軒茶屋２丁目１４−３","ステータス":"APP_DISPLAY","region":"Setagaya","lat":35.642509,"lng":139.6689},{"店舗名":"黒豚あじと三軒茶屋店","住所":"〒154-0024 東京都世田谷区三軒茶屋２丁目１４−５","ステータス":"APP_DISPLAY","region":"Setagaya","lat":35.642773,"lng":139.668976},{"店舗名":"串カツ田中 三軒茶屋店","住所":"〒154-0024 東京都世田谷区三軒茶屋２丁目１５−１４","ステータス":"APP_DISPLAY","region":"Setagaya","lat":35.642704,"lng":139.668915},{"店舗名":"ルースター","住所":"〒154-0024 東京都世田谷区三軒茶屋２丁目１５−１４","ステータス":"APP_DISPLAY","region":"Setagaya","lat":35.642704,"lng":139.668915},{"店舗名":"大盛スタミナ肉丼 ニンニク野郎 三軒茶屋店","住所":"〒154-0024 東京都世田谷区三軒茶屋２丁目１５−１４","ステータス":"APP_DISPLAY","region":"Setagaya","lat":35.642704,"lng":139.668915},{"店舗名":"ドミノ・ピザ 三軒茶屋店","住所":"〒154-0024 東京都世田谷区三軒茶屋２丁目３５−５","ステータス":"APP_DISPLAY","region":"Setagaya","lat":35.640156,"lng":139.665619},{"店舗名":"39クレープ 三軒茶屋店","住所":"〒154-0024 東京都世田谷区三軒茶屋２丁目４７−７ 駒ビル","ステータス":"APP_DISPLAY","region":"Setagaya","lat":35.640331,"lng":139.661484},{"店舗名":"AsianDining＆Bar SITA～RA シターラ","住所":"〒154-0024 東京都世田谷区三軒茶屋２丁目５５−１２ ライオンズマンション三軒茶屋","ステータス":"APP_DISPLAY","region":"Setagaya","lat":35.642944,"lng":139.662323},{"店舗名":"Film Coffee and Things","住所":"〒154-0024 東京都世田谷区三軒茶屋一丁目32番21号","ステータス":"APP_DISPLAY","region":"Setagaya","lat":35.641685,"lng":139.670639},{"店舗名":"がじゅまるの木 三軒茶屋","住所":"〒154-0024 東京都世田谷区三軒茶屋一丁目37番3号","ステータス":"APP_DISPLAY","region":"Setagaya","lat":35.642521,"lng":139.670486},{"店舗名":"七宝麻辣湯チーパオマーラータン 三軒茶屋栄通り店","住所":"〒154-0024東京都世田谷区三軒茶屋1-35-1","ステータス":"APP_DISPLAY","region":"Setagaya","lat":35.64183,"lng":139.672958},{"店舗名":"CoCo Bubble Tea 下北沢店","住所":"〒155-0031","ステータス":"APP_DISPLAY","region":"Setagaya","lat":35.662769,"lng":139.672836},{"店舗名":"パールレディ 下北沢店","住所":"〒155-0031","ステータス":"APP_DISPLAY","region":"Setagaya","lat":35.662769,"lng":139.672836},{"店舗名":"BOB KITCHEN","住所":"〒155-0031","ステータス":"APP_DISPLAY","region":"Setagaya","lat":35.662769,"lng":139.672836},{"店舗名":"小麻辣 下北沢店","住所":"〒155-0031","ステータス":"APP_DISPLAY","region":"Setagaya","lat":35.662769,"lng":139.672836},{"店舗名":"痕跡","住所":"〒155-0031 東京都世田谷区北沢","ステータス":"RECEIPT","region":"Setagaya","lat":35.662769,"lng":139.672836},{"店舗名":"手作り惣菜弁当喜家","住所":"〒155-0031 東京都世田谷区北沢１丁目３３−１５ クリオブルー北沢","ステータス":"APP_DISPLAY","region":"Setagaya","lat":35.66132,"lng":139.672546},{"店舗名":"カブトシモキタ","住所":"〒155-0031 東京都世田谷区北沢１丁目４０−６ カシワ3rd","ステータス":"APP_DISPLAY","region":"Setagaya","lat":35.661823,"lng":139.669891},{"店舗名":"黒猫軒","住所":"〒155-0031 東京都世田谷区北沢１丁目４４−１８","ステータス":"APP_DISPLAY","region":"Setagaya","lat":35.662037,"lng":139.672287},{"店舗名":"バー ゴリラ","住所":"〒155-0031 東京都世田谷区北沢１丁目４４−１８","ステータス":"APP_DISPLAY","region":"Setagaya","lat":35.662037,"lng":139.672287},{"店舗名":"ラーメンウルフ　下北沢店","住所":"〒155-0031 東京都世田谷区北沢１丁目４４−１９","ステータス":"APP_DISPLAY","region":"Setagaya","lat":35.661934,"lng":139.672333},{"店舗名":"東京DOME","住所":"〒155-0031 東京都世田谷区北沢１丁目４５−１５","ステータス":"APP_DISPLAY","region":"Setagaya","lat":35.662445,"lng":139.670227},{"店舗名":"Gijido","住所":"〒155-0031 東京都世田谷区北沢１丁目４５−１５","ステータス":"APP_DISPLAY","region":"Setagaya","lat":35.662445,"lng":139.670227},{"店舗名":"ＢＵＤＯＫＡＮ","住所":"〒155-0031 東京都世田谷区北沢１丁目４６−１","ステータス":"APP_DISPLAY","region":"Setagaya","lat":35.662605,"lng":139.67009},{"店舗名":"Kebab Chef","住所":"〒155-0031 東京都世田谷区北沢2-14-14","ステータス":"APP_DISPLAY","region":"Setagaya","lat":35.660019,"lng":139.667862},{"店舗名":"赤から 下北沢店 Akakara Shimokitazawa","住所":"〒155-0031 東京都世田谷区北沢２丁目 １０−１０","ステータス":"APP_DISPLAY","region":"Setagaya","lat":35.661755,"lng":139.667984},{"店舗名":"群馬豚骨らーめん だるま大使-無限- 下北沢駅前店","住所":"〒155-0031 東京都世田谷区北沢２丁目１０−１０","ステータス":"APP_DISPLAY","region":"Setagaya","lat":35.661755,"lng":139.667984},{"店舗名":"肉汁餃子のダンダダン 下北沢店","住所":"〒155-0031 東京都世田谷区北沢２丁目１０−１０","ステータス":"APP_DISPLAY","region":"Setagaya","lat":35.661755,"lng":139.667984},{"店舗名":"BAR GEEK","住所":"〒155-0031 東京都世田谷区北沢２丁目１０−１２","ステータス":"APP_DISPLAY","region":"Setagaya","lat":35.661915,"lng":139.668228},{"店舗名":"楽観 下北沢店","住所":"〒155-0031 東京都世田谷区北沢２丁目１０−２０","ステータス":"APP_DISPLAY","region":"Setagaya","lat":35.661556,"lng":139.66835},{"店舗名":"【タコス＆タコライス専門店】下北沢ミートブラザーズ","住所":"〒155-0031 東京都世田谷区北沢２丁目１０−２０ ミカン下北 D101","ステータス":"APP_DISPLAY","region":"Setagaya","lat":35.661556,"lng":139.66835},{"店舗名":"【赤いクレープ屋】RedRibbon","住所":"〒155-0031 東京都世田谷区北沢２丁目１０−２０ ミカン下北 D101","ステータス":"APP_DISPLAY","region":"Setagaya","lat":35.661556,"lng":139.66835},{"店舗名":"PIZZERIA8 下北沢店","住所":"〒155-0031 東京都世田谷区北沢２丁目１１−１5","ステータス":"APP_DISPLAY","region":"Setagaya","lat":35.66114,"lng":139.668686},{"店舗名":"本格点心と台湾料理のダパイダン105 ミカン下北店","住所":"〒155-0031 東京都世田谷区北沢２丁目１１−１５","ステータス":"APP_DISPLAY","region":"Setagaya","lat":35.66114,"lng":139.668686},{"店舗名":"韓国食堂＆韓甘味 ハヌリ","住所":"〒155-0031 東京都世田谷区北沢２丁目１１−１５","ステータス":"APP_DISPLAY","region":"Setagaya","lat":35.66114,"lng":139.668686},{"店舗名":"北海道らーめん 熊源","住所":"〒155-0031 東京都世田谷区北沢２丁目１１−１８","ステータス":"APP_DISPLAY","region":"Setagaya","lat":35.660915,"lng":139.668655},{"店舗名":"いきなりステーキ 下北沢店","住所":"〒155-0031 東京都世田谷区北沢２丁目１１−３","ステータス":"APP_DISPLAY","region":"Setagaya","lat":35.661076,"lng":139.668289},{"店舗名":"STABLER Shimokitazawa Meatsand","住所":"〒155-0031 東京都世田谷区北沢２丁目１２−１５","ステータス":"APP_DISPLAY","region":"Setagaya","lat":35.660782,"lng":139.668549},{"店舗名":"ベジタブルカフェVegetable base TOKYO下北沢","住所":"〒155-0031 東京都世田谷区北沢２丁目１２−１５ 水内ビル","ステータス":"APP_DISPLAY","region":"Setagaya","lat":35.660782,"lng":139.668549},{"店舗名":"カラダ喜ぶ GREEK YOGURT＆ACAI 下北沢店","住所":"〒155-0031 東京都世田谷区北沢２丁目１２−１５ 水内ビル","ステータス":"APP_DISPLAY","region":"Setagaya","lat":35.660782,"lng":139.668549},{"店舗名":"【昔ながらの手作り定食】食堂土土土 DODODO","住所":"〒155-0031 東京都世田谷区北沢２丁目１２−２","ステータス":"APP_DISPLAY","region":"Setagaya","lat":35.660679,"lng":139.668137},{"店舗名":"óleo","住所":"〒155-0031 東京都世田谷区北沢２丁目１２−２","ステータス":"APP_DISPLAY","region":"Setagaya","lat":35.660679,"lng":139.668137},{"店舗名":"かくれ家","住所":"〒155-0031 東京都世田谷区北沢２丁目１２−２ サウスウェーブ下北沢","ステータス":"APP_DISPLAY","region":"Setagaya","lat":35.660679,"lng":139.668137},{"店舗名":"なんばん亭","住所":"〒155-0031 東京都世田谷区北沢２丁目１２−３ イシカワビル","ステータス":"APP_DISPLAY","region":"Setagaya","lat":35.660717,"lng":139.667984},{"店舗名":"MOM'S TOUCH 下北沢店","住所":"〒155-0031 東京都世田谷区北沢２丁目１２−６","ステータス":"APP_DISPLAY","region":"Setagaya","lat":35.660881,"lng":139.667587},{"店舗名":"MOM'S PIZZA SHIMOKITAZAWA","住所":"〒155-0031 東京都世田谷区北沢２丁目１２−６","ステータス":"APP_DISPLAY","region":"Setagaya","lat":35.660881,"lng":139.667587},{"店舗名":"すき家 下北沢店","住所":"〒155-0031 東京都世田谷区北沢２丁目１２−７","ステータス":"PENDING","region":"Setagaya","lat":35.661018,"lng":139.667618},{"店舗名":"ケバブ (Halal doner kebab)","住所":"〒155-0031 東京都世田谷区北沢２丁目１３−５","ステータス":"APP_DISPLAY","region":"Setagaya","lat":35.660446,"lng":139.667465},{"店舗名":"pebble 下北沢","住所":"〒155-0031 東京都世田谷区北沢２丁目１４−１ OTビル","ステータス":"APP_DISPLAY","region":"Setagaya","lat":35.659344,"lng":139.66748},{"店舗名":"kita-shoku","住所":"〒155-0031 東京都世田谷区北沢２丁目１４−１９","ステータス":"APP_DISPLAY","region":"Setagaya","lat":35.659389,"lng":139.667648},{"店舗名":"キタショク タコライス","住所":"〒155-0031 東京都世田谷区北沢２丁目１４−１９","ステータス":"APP_DISPLAY","region":"Setagaya","lat":35.659389,"lng":139.667648},{"店舗名":"チゲがおいしい韓国料理","住所":"〒155-0031 東京都世田谷区北沢２丁目１４−２","ステータス":"APP_DISPLAY","region":"Setagaya","lat":35.659477,"lng":139.66745},{"店舗名":"下北沢たまごけん","住所":"〒155-0031 東京都世田谷区北沢２丁目１４−２","ステータス":"APP_DISPLAY","region":"Setagaya","lat":35.659477,"lng":139.66745},{"店舗名":"元祖ネオ大衆焼肉うまし！ 下北沢店","住所":"〒155-0031 東京都世田谷区北沢２丁目１４−５","ステータス":"APP_DISPLAY","region":"Setagaya","lat":35.659878,"lng":139.667389},{"店舗名":"バビシャーインド・ネパール・アジアン料理","住所":"〒155-0031 東京都世田谷区北沢２丁目１４−７","ステータス":"APP_DISPLAY","region":"Setagaya","lat":35.660149,"lng":139.667374},{"店舗名":"元祖辛麺屋桝元 下北沢店","住所":"〒155-0031 東京都世田谷区北沢２丁目１４−７","ステータス":"APP_DISPLAY","region":"Setagaya","lat":35.660149,"lng":139.667374},{"店舗名":"回転寿司みさき 下北沢店","住所":"〒155-0031 東京都世田谷区北沢２丁目１４−７","ステータス":"APP_DISPLAY","region":"Setagaya","lat":35.660149,"lng":139.667374},{"店舗名":"NAWOD CURRY","住所":"〒155-0031 東京都世田谷区北沢２丁目１４−８","ステータス":"APP_DISPLAY","region":"Setagaya","lat":35.660282,"lng":139.667389},{"店舗名":"ニューかかん","住所":"〒155-0031 東京都世田谷区北沢２丁目１−５","ステータス":"APP_DISPLAY","region":"Setagaya","lat":35.659119,"lng":139.667694},{"店舗名":"オーガニック日本茶と畳カフェTEA TATAMO!下北沢店","住所":"〒155-0031 東京都世田谷区北沢２丁目１５−３","ステータス":"APP_DISPLAY","region":"Setagaya","lat":35.659435,"lng":139.667038},{"店舗名":"もつ焼きばん下北沢店","住所":"〒155-0031 東京都世田谷区北沢２丁目１５−３ 中村ビル","ステータス":"APP_DISPLAY","region":"Setagaya","lat":35.659435,"lng":139.667038},{"店舗名":"ローンスラータイ1950's","住所":"〒155-0031 東京都世田谷区北沢２丁目１７−１４","ステータス":"APP_DISPLAY","region":"Setagaya","lat":35.66003,"lng":139.667313},{"店舗名":"らーめん せい家 下北沢店","住所":"〒155-0031 東京都世田谷区北沢２丁目１−８","ステータス":"APP_DISPLAY","region":"Setagaya","lat":35.659294,"lng":139.667618},{"店舗名":"無添加薬膳スープカレーCOSMOS下北沢 Soup Curry COSMOS Shimokitazawa","住所":"〒155-0031 東京都世田谷区北沢２丁目１−８","ステータス":"APP_DISPLAY","region":"Setagaya","lat":35.659294,"lng":139.667618},{"店舗名":"タコライス専門店「Taco rice Style」","住所":"〒155-0031 東京都世田谷区北沢２丁目１８−５","ステータス":"APP_DISPLAY","region":"Setagaya","lat":35.66021,"lng":139.666641},{"店舗名":"カレーハウス CoCo壱番屋 下北沢店","住所":"〒155-0031 東京都世田谷区北沢２丁目１−９","ステータス":"APP_DISPLAY","region":"Setagaya","lat":35.65942,"lng":139.66774},{"店舗名":"クリスピーチキンアンドトマト 下北沢店 CRISPY CHICKEN n' TOMATO Shimokitazawa","住所":"〒155-0031 東京都世田谷区北沢２丁目１−９","ステータス":"APP_DISPLAY","region":"Setagaya","lat":35.65942,"lng":139.66774},{"店舗名":"SHIMOKITA PUBLIC","住所":"〒155-0031 東京都世田谷区北沢２丁目１９−１０","ステータス":"APP_DISPLAY","region":"Setagaya","lat":35.661198,"lng":139.667496},{"店舗名":"しんぱち食堂下北沢店","住所":"〒155-0031 東京都世田谷区北沢２丁目１９−１１","ステータス":"APP_DISPLAY","region":"Setagaya","lat":35.661121,"lng":139.667572},{"店舗名":"CAFE du BIEN","住所":"〒155-0031 東京都世田谷区北沢２丁目１９−１６","ステータス":"APP_DISPLAY","region":"Setagaya","lat":35.660461,"lng":139.667404},{"店舗名":"札幌味噌ラーメン 下北岳","住所":"〒155-0031 東京都世田谷区北沢２丁目２１−２２","ステータス":"APP_DISPLAY","region":"Setagaya","lat":35.660793,"lng":139.666656},{"店舗名":"Kitade Tacos 下北沢店","住所":"〒155-0031 東京都世田谷区北沢２丁目２１−２２","ステータス":"APP_DISPLAY","region":"Setagaya","lat":35.660793,"lng":139.666656},{"店舗名":"ARENA","住所":"〒155-0031 東京都世田谷区北沢２丁目２−１４","ステータス":"APP_DISPLAY","region":"Setagaya","lat":35.659756,"lng":139.668625},{"店舗名":"ARENA下北沢","住所":"〒155-0031 東京都世田谷区北沢２丁目２−１４ モアイ茶沢ビル","ステータス":"RECEIPT","region":"Setagaya","lat":35.659756,"lng":139.668625},{"店舗名":"MARY STAND","住所":"〒155-0031 東京都世田谷区北沢２丁目２３−１１","ステータス":"APP_DISPLAY","region":"Setagaya","lat":35.661621,"lng":139.666336},{"店舗名":"韓国農林水産大臣賞シェフのカジュアル韓国料理店アス下北店","住所":"〒155-0031 東京都世田谷区北沢２丁目２３−１２ 下北沢デントビル","ステータス":"APP_DISPLAY","region":"Setagaya","lat":35.661594,"lng":139.666489},{"店舗名":"タパシエスタ","住所":"〒155-0031 東京都世田谷区北沢２丁目２３−６","ステータス":"APP_DISPLAY","region":"Setagaya","lat":35.661446,"lng":139.665878},{"店舗名":"四川麻辣湯 下北沢 星星倶楽部","住所":"〒155-0031 東京都世田谷区北沢２丁目２３−９","ステータス":"APP_DISPLAY","region":"Setagaya","lat":35.661682,"lng":139.666016},{"店舗名":"カキノバル下北沢","住所":"〒155-0031 東京都世田谷区北沢２丁目２４−９","ステータス":"APP_DISPLAY","region":"Setagaya","lat":35.662479,"lng":139.667923},{"店舗名":"麻香源","住所":"〒155-0031 東京都世田谷区北沢２丁目２４−９","ステータス":"APP_DISPLAY","region":"Setagaya","lat":35.662479,"lng":139.667923},{"店舗名":"iot replay","住所":"〒155-0031 東京都世田谷区北沢２丁目２４−９ エムズ下北沢","ステータス":"APP_DISPLAY","region":"Setagaya","lat":35.662479,"lng":139.667923},{"店舗名":"吉野家 下北沢駅東口店","住所":"〒155-0031 東京都世田谷区北沢２丁目２５−１６","ステータス":"APP_DISPLAY","region":"Setagaya","lat":35.662498,"lng":139.667633},{"店舗名":"K's Cafe","住所":"〒155-0031 東京都世田谷区北沢２丁目２５−１８","ステータス":"APP_DISPLAY","region":"Setagaya","lat":35.662243,"lng":139.667526},{"店舗名":"珈琲館 下北沢店","住所":"〒155-0031 東京都世田谷区北沢２丁目２５−１９ ピアザ近江屋ビル","ステータス":"APP_DISPLAY","region":"Setagaya","lat":35.662121,"lng":139.667465},{"店舗名":"フレッシュネスバーガー 下北沢店","住所":"〒155-0031 東京都世田谷区北沢２丁目２６−２３","ステータス":"APP_DISPLAY","region":"Setagaya","lat":35.662323,"lng":139.66684},{"店舗名":"BAR RADIO CITY下北沢","住所":"〒155-0031 東京都世田谷区北沢２丁目２６−９","ステータス":"APP_DISPLAY","region":"Setagaya","lat":35.662487,"lng":139.665817},{"店舗名":"バインミーバーバー Banh mi Ba Ba","住所":"〒155-0031 東京都世田谷区北沢２丁目２７−８","ステータス":"APP_DISPLAY","region":"Setagaya","lat":35.663029,"lng":139.665741},{"店舗名":"TheBeet下北沢","住所":"〒155-0031 東京都世田谷区北沢２丁目２９−１６","ステータス":"APP_DISPLAY","region":"Setagaya","lat":35.662964,"lng":139.667053},{"店舗名":"Curry&cafe SAMA下北沢店","住所":"〒155-0031 東京都世田谷区北沢２丁目２９−１６","ステータス":"APP_DISPLAY","region":"Setagaya","lat":35.662964,"lng":139.667053},{"店舗名":"【フローズンヨーグルトアイス・ヨアジョン】Choa Yoajung 下北沢北店","住所":"〒155-0031 東京都世田谷区北沢２丁目２９−１６","ステータス":"APP_DISPLAY","region":"Setagaya","lat":35.662964,"lng":139.667053},{"店舗名":"【アサイーボウル】ALOHA SPOON ～Acai bowl cafe～ 下北沢北店","住所":"〒155-0031 東京都世田谷区北沢２丁目２９−１６","ステータス":"APP_DISPLAY","region":"Setagaya","lat":35.662964,"lng":139.667053},{"店舗名":"アジアン de Eat","住所":"〒155-0031 東京都世田谷区北沢２丁目２９−１６ マガザン下北沢","ステータス":"APP_DISPLAY","region":"Setagaya","lat":35.662964,"lng":139.667053},{"店舗名":"STREET CHURROS 下北沢店","住所":"〒155-0031 東京都世田谷区北沢２丁目３１−１ 玉井屋ビル 1階","ステータス":"APP_DISPLAY","region":"Setagaya","lat":35.662434,"lng":139.668182},{"店舗名":"ForEver","住所":"〒155-0031 東京都世田谷区北沢２丁目３−１２","ステータス":"APP_DISPLAY","region":"Setagaya","lat":35.659977,"lng":139.668701},{"店舗名":"虹色CURRY食堂 NIJIIRO CURRY SYOKUDOU SIMOKITAZAWA","住所":"〒155-0031 東京都世田谷区北沢２丁目３１−９","ステータス":"APP_DISPLAY","region":"Setagaya","lat":35.663048,"lng":139.667969},{"店舗名":"haru no oto","住所":"〒155-0031 東京都世田谷区北沢２丁目３２−８","ステータス":"APP_DISPLAY","region":"Setagaya","lat":35.662834,"lng":139.668747},{"店舗名":"FOkitchen","住所":"〒155-0031 東京都世田谷区北沢２丁目３３－１１","ステータス":"APP_DISPLAY","region":"Setagaya","lat":35.663235,"lng":139.669067},{"店舗名":"juri cafe お団子さんあずきラテカレー","住所":"〒155-0031 東京都世田谷区北沢２丁目３３−１２","ステータス":"APP_DISPLAY","region":"Setagaya","lat":35.663174,"lng":139.66922},{"店舗名":"クラフトビール量り売り TAP&GROWLER下北沢店","住所":"〒155-0031 東京都世田谷区北沢２丁目３３−６","ステータス":"APP_DISPLAY","region":"Setagaya","lat":35.663132,"lng":139.668594},{"店舗名":"YUMMY BURGER","住所":"〒155-0031 東京都世田谷区北沢２丁目３３−６ サンピアビル","ステータス":"APP_DISPLAY","region":"Setagaya","lat":35.663132,"lng":139.668594},{"店舗名":"トシマエン","住所":"〒155-0031 東京都世田谷区北沢２丁目３３−８","ステータス":"APP_DISPLAY","region":"Setagaya","lat":35.663361,"lng":139.668686},{"店舗名":"MEIMEI","住所":"〒155-0031 東京都世田谷区北沢２丁目３３−８","ステータス":"APP_DISPLAY","region":"Setagaya","lat":35.663361,"lng":139.668686},{"店舗名":"GARDEN THEATER 下北沢 CAMP BAR","住所":"〒155-0031 東京都世田谷区北沢２丁目３３−８","ステータス":"APP_DISPLAY","region":"Setagaya","lat":35.663361,"lng":139.668686},{"店舗名":"バーゴリラ","住所":"〒155-0031 東京都世田谷区北沢２丁目３４−１０ ピア下北沢 ３階","ステータス":"RECEIPT","region":"Setagaya","lat":35.663231,"lng":139.668579},{"店舗名":"カレー食堂 心 下北沢店","住所":"〒155-0031 東京都世田谷区北沢２丁目３４−８ 北沢Km Bld. 1f","ステータス":"APP_DISPLAY","region":"Setagaya","lat":35.663464,"lng":139.668564},{"店舗名":"下北氷点冷麺店 SHIMOKITA HYOTEN REIMEN-TEN","住所":"〒155-0031 東京都世田谷区北沢２丁目３４−９","ステータス":"APP_DISPLAY","region":"Setagaya","lat":35.663357,"lng":139.668625},{"店舗名":"下北沢バル セブン","住所":"〒155-0031 東京都世田谷区北沢２丁目３４−９","ステータス":"APP_DISPLAY","region":"Setagaya","lat":35.663357,"lng":139.668625},{"店舗名":"ひとり鍋屋　そろり","住所":"〒155-0031 東京都世田谷区北沢２丁目３６−１４","ステータス":"APP_DISPLAY","region":"Setagaya","lat":35.663857,"lng":139.667953},{"店舗名":"kappa-ism","住所":"〒155-0031 東京都世田谷区北沢２丁目３７−１６ 富士喜ビル","ステータス":"APP_DISPLAY","region":"Setagaya","lat":35.664272,"lng":139.667313},{"店舗名":"ドミノ・ピザ 下北沢店","住所":"〒155-0031 東京都世田谷区北沢２丁目３８−９","ステータス":"APP_DISPLAY","region":"Setagaya","lat":35.664413,"lng":139.666916},{"店舗名":"バーンキラオ下北沢店","住所":"〒155-0031 東京都世田谷区北沢２丁目3番6号","ステータス":"APP_DISPLAY","region":"Setagaya","lat":35.660217,"lng":139.668121},{"店舗名":"【カレー&ファストフード】LOADED","住所":"〒155-0031 東京都世田谷区北沢２丁目４０−１５ 芦田ビル 1F","ステータス":"APP_DISPLAY","region":"Setagaya","lat":35.664883,"lng":139.66571},{"店舗名":"Yonecurry & Co.","住所":"〒155-0031 東京都世田谷区北沢２丁目４０−１６","ステータス":"APP_DISPLAY","region":"Setagaya","lat":35.664825,"lng":139.665863},{"店舗名":"ウェンディーズ・ファーストキッチン 下北沢店","住所":"〒155-0031 東京都世田谷区北沢２丁目５−２","ステータス":"APP_DISPLAY","region":"Setagaya","lat":35.660774,"lng":139.668854},{"店舗名":"ChaiPio","住所":"〒155-0031 東京都世田谷区北沢２丁目６−６","ステータス":"APP_DISPLAY","region":"Setagaya","lat":35.661667,"lng":139.669037},{"店舗名":"Kristy Yogurt -クリスティーヨーグルト-","住所":"〒155-0031 東京都世田谷区北沢２丁目７−２ DEAR HILLS 下北沢","ステータス":"APP_DISPLAY","region":"Setagaya","lat":35.661617,"lng":139.669373},{"店舗名":"串カツ田中 下北沢店","住所":"〒155-0031 東京都世田谷区北沢２丁目７−５","ステータス":"APP_DISPLAY","region":"Setagaya","lat":35.66177,"lng":139.669083},{"店舗名":"大盛スタミナ肉丼 ニンニク野郎 下北沢店","住所":"〒155-0031 東京都世田谷区北沢２丁目７−５ 下北沢プラッツ 2階","ステータス":"APP_DISPLAY","region":"Setagaya","lat":35.66177,"lng":139.669083},{"店舗名":"BAR HONU","住所":"〒155-0031 東京都世田谷区北沢２丁目８−１２ 本多ビル 3階","ステータス":"APP_DISPLAY","region":"Setagaya","lat":35.662815,"lng":139.669708},{"店舗名":"ブッチャーズバル下北沢","住所":"〒155-0031 東京都世田谷区北沢２丁目８−８","ステータス":"APP_DISPLAY","region":"Setagaya","lat":35.662529,"lng":139.669403},{"店舗名":"スープカレー ポニピリカ 下北沢店","住所":"〒155-0031 東京都世田谷区北沢２丁目８−８","ステータス":"APP_DISPLAY","region":"Setagaya","lat":35.662529,"lng":139.669403},{"店舗名":"ビアバルFesta（フェスタ）下北沢","住所":"〒155-0031 東京都世田谷区北沢２丁目９−１","ステータス":"APP_DISPLAY","region":"Setagaya","lat":35.661751,"lng":139.668915},{"店舗名":"セギュレ","住所":"〒155-0031 東京都世田谷区北沢２丁目９−２","ステータス":"APP_DISPLAY","region":"Setagaya","lat":35.6618,"lng":139.668762},{"店舗名":"鉄板焼き メイラード 下北沢 Teppanyaki Maillard Steak","住所":"〒155-0031 東京都世田谷区北沢２丁目９−２","ステータス":"APP_DISPLAY","region":"Setagaya","lat":35.6618,"lng":139.668762},{"店舗名":"【スープカレー専門店】下北スパイス Shimokita Spice","住所":"〒155-0031 東京都世田谷区北沢２丁目９−２ 辻ビル","ステータス":"APP_DISPLAY","region":"Setagaya","lat":35.6618,"lng":139.668762},{"店舗名":"マルアイ","住所":"〒155-0031 東京都世田谷区北沢２丁目９−２３","ステータス":"APP_DISPLAY","region":"Setagaya","lat":35.661919,"lng":139.669083},{"店舗名":"中華そば みつめ","住所":"〒155-0031 東京都世田谷区北沢２丁目９−２３","ステータス":"APP_DISPLAY","region":"Setagaya","lat":35.661919,"lng":139.669083},{"店舗名":"七宝麻辣湯(チーパオマーラータン) 下北沢店","住所":"〒155-0031 東京都世田谷区北沢２丁目９−２３","ステータス":"APP_DISPLAY","region":"Setagaya","lat":35.661919,"lng":139.669083},{"店舗名":"炭火焼 焼き魚と味噌汁 下北沢店","住所":"〒155-0031 東京都世田谷区北沢３丁目１９−１１","ステータス":"APP_DISPLAY","region":"Setagaya","lat":35.663956,"lng":139.670319},{"店舗名":"サーモンマーケット 下北沢店","住所":"〒155-0031 東京都世田谷区北沢３丁目１９−１１","ステータス":"APP_DISPLAY","region":"Setagaya","lat":35.663956,"lng":139.670319},{"店舗名":"健康志向のねばとろ日和 下北沢店","住所":"〒155-0031 東京都世田谷区北沢３丁目１９−１１","ステータス":"APP_DISPLAY","region":"Setagaya","lat":35.663956,"lng":139.670319},{"店舗名":"【からだを想う】ヘルシー海鮮ポキ丼 下北沢店","住所":"〒155-0031 東京都世田谷区北沢３丁目１９−１１","ステータス":"APP_DISPLAY","region":"Setagaya","lat":35.663956,"lng":139.670319},{"店舗名":"東京タコライス 下北沢店","住所":"〒155-0031 東京都世田谷区北沢３丁目１９−１１","ステータス":"APP_DISPLAY","region":"Setagaya","lat":35.663956,"lng":139.670319},{"店舗名":"筋肉ラボ 下北沢店","住所":"〒155-0031 東京都世田谷区北沢３丁目１９−１１","ステータス":"APP_DISPLAY","region":"Setagaya","lat":35.663956,"lng":139.670319},{"店舗名":"本格ケバブ丼の店 ドネルバザール","住所":"〒155-0031 東京都世田谷区北沢３丁目１９−１１","ステータス":"APP_DISPLAY","region":"Setagaya","lat":35.663956,"lng":139.670319},{"店舗名":"鯖職人きんぱち食堂 下北沢店","住所":"〒155-0031 東京都世田谷区北沢３丁目１９−１１","ステータス":"APP_DISPLAY","region":"Setagaya","lat":35.663956,"lng":139.670319},{"店舗名":"豚に夢見て 下北沢店","住所":"〒155-0031 東京都世田谷区北沢３丁目１９−１１","ステータス":"APP_DISPLAY","region":"Setagaya","lat":35.663956,"lng":139.670319},{"店舗名":"【ススル監修】油そば ビッグバン 下北沢店","住所":"〒155-0031 東京都世田谷区北沢３丁目１９−１１","ステータス":"APP_DISPLAY","region":"Setagaya","lat":35.663956,"lng":139.670319},{"店舗名":"アロハな東京ポキ 下北沢店","住所":"〒155-0031 東京都世田谷区北沢３丁目１９−１１","ステータス":"APP_DISPLAY","region":"Setagaya","lat":35.663956,"lng":139.670319},{"店舗名":"【ヘルシーライフ】フレッシュポキ","住所":"〒155-0031 東京都世田谷区北沢３丁目１９−１１","ステータス":"APP_DISPLAY","region":"Setagaya","lat":35.663956,"lng":139.670319},{"店舗名":"ナムさんのやみつきカオマンガイ【アジアンフード専門店】下北沢店","住所":"〒155-0031 東京都世田谷区北沢３丁目１９−１１","ステータス":"APP_DISPLAY","region":"Setagaya","lat":35.663956,"lng":139.670319},{"店舗名":"【本場沖縄の味】うちなータコライス","住所":"〒155-0031 東京都世田谷区北沢３丁目１９−１１","ステータス":"APP_DISPLAY","region":"Setagaya","lat":35.663956,"lng":139.670319},{"店舗名":"カオマンベース","住所":"〒155-0031 東京都世田谷区北沢３丁目１９−１１","ステータス":"APP_DISPLAY","region":"Setagaya","lat":35.663956,"lng":139.670319},{"店舗名":"バンマイデリ","住所":"〒155-0031 東京都世田谷区北沢３丁目１９−１１","ステータス":"APP_DISPLAY","region":"Setagaya","lat":35.663956,"lng":139.670319},{"店舗名":"シモキタ ベントウ スタンド","住所":"〒155-0031 東京都世田谷区北沢３丁目１９−１１","ステータス":"APP_DISPLAY","region":"Setagaya","lat":35.663956,"lng":139.670319},{"店舗名":"背脂豚骨ラーメン豚々ton-ton","住所":"〒155-0031 東京都世田谷区北沢３丁目１９−１１","ステータス":"APP_DISPLAY","region":"Setagaya","lat":35.663956,"lng":139.670319},{"店舗名":"サーモンデリカ","住所":"〒155-0031 東京都世田谷区北沢３丁目１９−１１","ステータス":"APP_DISPLAY","region":"Setagaya","lat":35.663956,"lng":139.670319},{"店舗名":"もつ鍋や もつ福","住所":"〒155-0031 東京都世田谷区北沢３丁目１９−１１","ステータス":"APP_DISPLAY","region":"Setagaya","lat":35.663956,"lng":139.670319},{"店舗名":"Aloha Acai（アロハ アサイー）","住所":"〒155-0031 東京都世田谷区北沢３丁目１９−１１","ステータス":"APP_DISPLAY","region":"Setagaya","lat":35.663956,"lng":139.670319},{"店舗名":"美健食堂 ネバトロ屋","住所":"〒155-0031 東京都世田谷区北沢３丁目１９−１１","ステータス":"APP_DISPLAY","region":"Setagaya","lat":35.663956,"lng":139.670319},{"店舗名":"油そば 麺魂","住所":"〒155-0031 東京都世田谷区北沢３丁目１９−１１","ステータス":"APP_DISPLAY","region":"Setagaya","lat":35.663956,"lng":139.670319},{"店舗名":"【雑穀✕発酵✕ねばとろ丼】ねばとろみのり下北店","住所":"〒155-0031 東京都世田谷区北沢３丁目１９−１１","ステータス":"APP_DISPLAY","region":"Setagaya","lat":35.663956,"lng":139.670319},{"店舗名":"【もっちり玄米と低脂質チキン】とりげん食堂 下北店","住所":"〒155-0031 東京都世田谷区北沢３丁目１９−１１","ステータス":"APP_DISPLAY","region":"Setagaya","lat":35.663956,"lng":139.670319},{"店舗名":"【玄米×発酵×ねばとろ丼】ねばとろみのり 下北店","住所":"〒155-0031 東京都世田谷区北沢３丁目１９−１１","ステータス":"APP_DISPLAY","region":"Setagaya","lat":35.663956,"lng":139.670319},{"店舗名":"【3/4日分の野菜！ゴロゴロ野菜のごちそうスープ】ベジブロ 下北店","住所":"〒155-0031 東京都世田谷区北沢３丁目１９−１１","ステータス":"APP_DISPLAY","region":"Setagaya","lat":35.663956,"lng":139.670319},{"店舗名":"Tokyo Vegan Bakes","住所":"〒155-0031 東京都世田谷区北沢３丁目１９−２０","ステータス":"APP_DISPLAY","region":"Setagaya","lat":35.663227,"lng":139.669739},