[{"店舗名":"K&K Rotisserie","住所":"〒489-0046 愛知県瀬戸市元町1丁目10-1","ステータス":"APP_DISPLAY","region":"Seto","lat":35.226219,"lng":137.097351},{"店舗名":"アジアンキッチン カマナ","住所":"〒489-0067","ステータス":"APP_DISPLAY","region":"Seto","lat":35.244061,"lng":137.072647},{"店舗名":"カフェand キッチン　ONO Hawaiian","住所":"〒489-0068 愛知県瀬戸市上松山町１丁目１７ シャト K1","ステータス":"RECEIPT","region":"Seto","lat":35.232029,"lng":137.081131},{"店舗名":"ピザハット 瀬戸店","住所":"〒489-0805 愛知県瀬戸市陶原町６丁目１２","ステータス":"APP_DISPLAY","region":"Seto","lat":35.2225,"lng":137.085922},{"店舗名":"チキン・ウイングストリート 瀬戸店","住所":"〒489-0805 愛知県瀬戸市陶原町６丁目１２","ステータス":"APP_DISPLAY","region":"Seto","lat":35.2225,"lng":137.085922},{"店舗名":"トスカーニパスタ 瀬戸店","住所":"〒489-0805 愛知県瀬戸市陶原町６丁目１２","ステータス":"APP_DISPLAY","region":"Seto","lat":35.2225,"lng":137.085922},{"店舗名":"かっぱ寿司 瀬戸店","住所":"〒489-0808 愛知県瀬戸市見付町４７−１","ステータス":"APP_DISPLAY","region":"Seto","lat":35.21907,"lng":137.08046},{"店舗名":"丸源ラーメン 瀬戸店","住所":"〒489-0808 愛知県瀬戸市見付町５８","ステータス":"PENDING","region":"Seto","lat":35.218239,"lng":137.079025},{"店舗名":"すし処 光永","住所":"〒489-0809 愛知県瀬戸市共栄通","ステータス":"RECEIPT","region":"Seto","lat":35.221798,"lng":137.083984},{"店舗名":"台湾まぜそば はなび 瀬戸店","住所":"〒489-0809 愛知県瀬戸市共栄通５丁目３８ クリエイティブ21 パート 2 1F","ステータス":"APP_DISPLAY","region":"Seto","lat":35.219433,"lng":137.07431},{"店舗名":"HIRAYAのパン","住所":"〒489-0814 愛知県瀬戸市末広町","ステータス":"APP_DISPLAY","region":"Seto","lat":35.225716,"lng":137.101669},{"店舗名":"味鮮館 山口本店","住所":"〒489-0865","ステータス":"APP_DISPLAY","region":"Seto","lat":35.198784,"lng":137.102859},{"店舗名":"ラスクス インド・ネパール料理","住所":"〒489-0874","ステータス":"APP_DISPLAY","region":"Seto","lat":35.211658,"lng":137.086075},{"店舗名":"LASAKUSA","住所":"〒489-0874","ステータス":"RECEIPT","region":"Seto","lat":35.211658,"lng":137.086075},{"店舗名":"錦繍","住所":"〒489-0875 愛知県瀬戸市緑町２丁目２","ステータス":"APP_DISPLAY","region":"Seto","lat":35.207031,"lng":137.089966},{"店舗名":"くつろぎ居酒屋　花","住所":"〒489-0887","ステータス":"APP_DISPLAY","region":"Seto","lat":35.208672,"lng":137.0952},{"店舗名":"旬彩華","住所":"〒489-0896","ステータス":"APP_DISPLAY","region":"Seto","lat":35.207951,"lng":137.105606},{"店舗名":"焼肉レストラン末広","住所":"〒489-0911","ステータス":"APP_DISPLAY","region":"Seto","lat":35.232021,"lng":137.079941},{"店舗名":"cafe oniton","住所":"〒489-0917","ステータス":"APP_DISPLAY","region":"Seto","lat":35.221718,"lng":137.069534},{"店舗名":"串カツ田中 瀬戸店","住所":"〒489-0927 愛知県瀬戸市川北町１丁目７−５","ステータス":"APP_DISPLAY","region":"Seto","lat":35.217262,"lng":137.06189},{"店舗名":"ぐるめ家 gurumeya","住所":"〒489-0931 愛知県瀬戸市高根町","ステータス":"APP_DISPLAY","region":"Seto","lat":35.211163,"lng":137.07048},{"店舗名":"インド・ネパールレストラン NEWBARAHI","住所":"〒489-0933","ステータス":"APP_DISPLAY","region":"Seto","lat":35.208054,"lng":137.074142},{"店舗名":"ドミノ・ピザ 瀬戸神川町","住所":"〒489-0933 愛知県瀬戸市神川町３９−２","ステータス":"APP_DISPLAY","region":"Seto","lat":35.209114,"lng":137.074905},{"店舗名":"麺屋一民","住所":"〒489-0972 愛知県瀬戸市西原町1-36","ステータス":"APP_DISPLAY","region":"Seto","lat":35.212444,"lng":137.068848},{"店舗名":"ジュガル","住所":"〒489-0986","ステータス":"APP_DISPLAY","region":"Seto","lat":35.223934,"lng":137.064499}]