[{"店舗名":"ケンタッキーフライドチキン イオンモール四條畷店","住所":"〒575-0001 大阪府四條畷市砂４丁目３−２","ステータス":"APP_DISPLAY","region":"Shijonawate","lat":34.744938,"lng":135.631226},{"店舗名":"七丸水産 うなぎ屋","住所":"〒575-0002","ステータス":"APP_DISPLAY","region":"Shijonawate","lat":34.744522,"lng":135.640747},{"店舗名":"ドミノ・ピザ 忍ケ丘店","住所":"〒575-0002 大阪府四條畷市岡山１丁目２５−５０ 平井ハイツ３番館","ステータス":"APP_DISPLAY","region":"Shijonawate","lat":34.744087,"lng":135.64267},{"店舗名":"鉄板酒場 福田家 本店","住所":"〒575-0002 大阪府四條畷市岡山2丁目3-36","ステータス":"RECEIPT","region":"Shijonawate","lat":34.74548,"lng":135.642044},{"店舗名":"トスカーニパスタ 忍ヶ丘駅前店","住所":"〒575-0003 大阪府四條畷市岡山東１丁目８−２","ステータス":"APP_DISPLAY","region":"Shijonawate","lat":34.745224,"lng":135.645493},{"店舗名":"チキン・ウイングストリート 忍ヶ丘駅前店","住所":"〒575-0003 大阪府四條畷市岡山東１丁目８−２","ステータス":"APP_DISPLAY","region":"Shijonawate","lat":34.745224,"lng":135.645493},{"店舗名":"ピザハット 忍ヶ丘駅前店","住所":"〒575-0003 大阪府四條畷市岡山東１丁目８−２ 小南忍ヶ丘ビル 1f","ステータス":"APP_DISPLAY","region":"Shijonawate","lat":34.745224,"lng":135.645493},{"店舗名":"インドネパール料理アヌラジャ","住所":"〒575-0003 大阪府四條畷市岡山東２丁目１−６","ステータス":"APP_DISPLAY","region":"Shijonawate","lat":34.746994,"lng":135.646774},{"店舗名":"創作バル ザッキー","住所":"〒575-0003 大阪府四條畷市岡山東２丁目１−６","ステータス":"APP_DISPLAY","region":"Shijonawate","lat":34.746994,"lng":135.646774},{"店舗名":"Totocafe","住所":"〒575-0016","ステータス":"APP_DISPLAY","region":"Shijonawate","lat":34.719246,"lng":135.680725},{"店舗名":"和食中華ダイニング 千行","住所":"〒575-0021 大阪府四條畷市南野１丁目１７−７","ステータス":"APP_DISPLAY","region":"Shijonawate","lat":34.732136,"lng":135.64328},{"店舗名":"クレープラパン","住所":"〒575-0023","ステータス":"APP_DISPLAY","region":"Shijonawate","lat":34.733356,"lng":135.638306},{"店舗名":"パシュパティ","住所":"〒575-0023 大阪府四條畷市楠公１丁目９−１６","ステータス":"APP_DISPLAY","region":"Shijonawate","lat":34.732899,"lng":135.63884},{"店舗名":"からあげ酒場　鶏笑　四條畷店","住所":"〒575-0023 大阪府四條畷市楠公２丁目","ステータス":"APP_DISPLAY","region":"Shijonawate","lat":34.733227,"lng":135.640671},{"店舗名":"KUSHAL CURRY","住所":"〒575-0036 大阪府四條畷市雁屋南町１７−３","ステータス":"APP_DISPLAY","region":"Shijonawate","lat":34.733078,"lng":135.632614},{"店舗名":"肉屋のハンバーグとガーリックライス 四條畷店","住所":"〒575-0036 大阪府四條畷市雁屋南町１７−３","ステータス":"RECEIPT","region":"Shijonawate","lat":34.733078,"lng":135.632614},{"店舗名":"【ヘルシー&高タンパク弁当】鶏あえずタンパク 四條畷店","住所":"〒575-0036 大阪府四條畷市雁屋南町１７−３","ステータス":"RECEIPT","region":"Shijonawate","lat":34.733078,"lng":135.632614},{"店舗名":"玄米ビビンバ 韓美菜（ハンヤチェ） 四條畷店","住所":"〒575-0036 大阪府四條畷市雁屋南町１７−３","ステータス":"RECEIPT","region":"Shijonawate","lat":34.733078,"lng":135.632614},{"店舗名":"自然派おむすび ゆらぎ","住所":"〒575-0036 大阪府四條畷市雁屋南町２７−６","ステータス":"RECEIPT","region":"Shijonawate","lat":34.732399,"lng":135.637009},{"店舗名":"山どり","住所":"〒575-0051 大阪府四條畷市中野本町２６−４","ステータス":"APP_DISPLAY","region":"Shijonawate","lat":34.742344,"lng":135.63736},{"店舗名":"喫茶あんど","住所":"〒575-0051 大阪府四條畷市中野本町４−２４","ステータス":"APP_DISPLAY","region":"Shijonawate","lat":34.740818,"lng":135.640015},{"店舗名":"お好み焼＆Dining komugi","住所":"〒575-0054 大阪府四條畷市中野新町１０−１５","ステータス":"APP_DISPLAY","region":"Shijonawate","lat":34.737926,"lng":135.637207},{"店舗名":"ほっかほっか亭 忍ヶ丘駅前店","住所":"大阪府四條畷市岡山東1丁目10-11","ステータス":"APP_DISPLAY","region":"Shijonawate","lat":34.745453,"lng":135.645142}]