[{"店舗名":"鰻福","住所":"〒636-0245 奈良県磯城郡田原本町味間３１６−３","ステータス":"APP_DISPLAY","region":"Shiki District","lat":34.538807,"lng":135.817017},{"店舗名":"金鑫マーラータン 奈良店","住所":"〒636-0246 奈良県磯城郡田原本町千代７−１","ステータス":"APP_DISPLAY","region":"Shiki District","lat":34.543869,"lng":135.802109},{"店舗名":"食パン専門店デアイ・ザ・ベーカリー 奈良店","住所":"〒636-0247 奈良県磯城郡田原本町阪手６５６","ステータス":"APP_DISPLAY","region":"Shiki District","lat":34.551861,"lng":135.797089},{"店舗名":"ピザカリビアン田原本店","住所":"〒636-0300","ステータス":"APP_DISPLAY","region":"Shiki District","lat":34.584442,"lng":135.77417},{"店舗名":"台湾料理　美食城","住所":"〒636-0306","ステータス":"RECEIPT","region":"Shiki District","lat":34.556225,"lng":135.771362},{"店舗名":"台湾料理　美食城","住所":"〒636-0306 奈良県磯城郡田原本町西竹田７３−２","ステータス":"APP_DISPLAY","region":"Shiki District","lat":34.559937,"lng":135.772278},{"店舗名":"屋台ラーメン　走麺屋 本店","住所":"〒636-0312 奈良県磯城郡田原本町新町２２０","ステータス":"APP_DISPLAY","region":"Shiki District","lat":34.558037,"lng":135.789673}]