[{"店舗名":"HAPPY OVER RICE 青柳二号店","住所":"〒340-0002 埼玉県草加市青柳４丁目１７−４６","ステータス":"APP_DISPLAY","region":"Soka","lat":35.853714,"lng":139.81636},{"店舗名":"Blossoms Cafe&Deli 【ブロッサムズバーガー】草加店","住所":"〒340-0002 埼玉県草加市青柳６丁目２５−４","ステータス":"APP_DISPLAY","region":"Soka","lat":35.852772,"lng":139.826248},{"店舗名":"鮨 やま田","住所":"〒340-0002 埼玉県草加市青柳８丁目１７−４","ステータス":"APP_DISPLAY","region":"Soka","lat":35.858372,"lng":139.82019},{"店舗名":"フォーハノイ 草加 ( PHỞ HÀ NỘI soka ) QUÁN VIỆT NAM","住所":"〒340-0003 埼玉県草加市稲荷３丁目３０−１２","ステータス":"APP_DISPLAY","region":"Soka","lat":35.830193,"lng":139.825119},{"店舗名":"東池袋大勝軒 弁天店","住所":"〒340-0004 埼玉県草加市弁天２丁目２２−９","ステータス":"APP_DISPLAY","region":"Soka","lat":35.842789,"lng":139.815445},{"店舗名":"居酒屋 麟","住所":"〒340-0006 埼玉県草加市八幡町１２３６−１","ステータス":"APP_DISPLAY","region":"Soka","lat":35.854462,"lng":139.810486},{"店舗名":"Groovy","住所":"〒340-0006 埼玉県草加市八幡町１３１８−２","ステータス":"APP_DISPLAY","region":"Soka","lat":35.853443,"lng":139.808502},{"店舗名":"すき家 草加八幡店","住所":"〒340-0006 埼玉県草加市八幡町２６−１","ステータス":"RECEIPT","region":"Soka","lat":35.849903,"lng":139.808701},{"店舗名":"スマイルバーガー","住所":"〒340-0006 埼玉県草加市八幡町３６４","ステータス":"APP_DISPLAY","region":"Soka","lat":35.848583,"lng":139.816727},{"店舗名":"韓国居酒屋 ケイ","住所":"〒340-0006 埼玉県草加市八幡町６０９−５７","ステータス":"APP_DISPLAY","region":"Soka","lat":35.85265,"lng":139.803513},{"店舗名":"アジア料理SON'S KITCHEN","住所":"〒340-0006 埼玉県草加市八幡町７３９−１","ステータス":"APP_DISPLAY","region":"Soka","lat":35.854649,"lng":139.80661},{"店舗名":"のみくいカラオケファイン","住所":"〒340-0006 埼玉県草加市八幡町８１０−１２ ペンギン","ステータス":"APP_DISPLAY","region":"Soka","lat":35.854248,"lng":139.801697},{"店舗名":"珍来松原店","住所":"〒340-0011","ステータス":"APP_DISPLAY","region":"Soka","lat":35.83746,"lng":139.804871},{"店舗名":"バリヤスサカバ 獨協大学前東口駅前店","住所":"〒340-0011 埼玉県草加市栄町2-8-21","ステータス":"APP_DISPLAY","region":"Soka","lat":35.844101,"lng":139.802933},{"店舗名":"築地海鮮酒場三代目ISSEI","住所":"〒340-0011 埼玉県草加市栄町2-8-25","ステータス":"APP_DISPLAY","region":"Soka","lat":35.844257,"lng":139.803574},{"店舗名":"ミンニヤットレストラン草加店","住所":"〒340-0011 埼玉県草加市栄町２丁目３−３","ステータス":"APP_DISPLAY","region":"Soka","lat":35.84206,"lng":139.801804},{"店舗名":"カレーハウス CoCo壱番屋 東武獨協大学前駅東口店","住所":"〒340-0011 埼玉県草加市栄町２丁目８−２０ 和田商事ビル","ステータス":"APP_DISPLAY","region":"Soka","lat":35.844063,"lng":139.80278},{"店舗名":"大衆鰻 うな銀 獨協大学前東口駅前店","住所":"〒340-0011 埼玉県草加市栄町２丁目８−２１ 2階","ステータス":"APP_DISPLAY","region":"Soka","lat":35.844101,"lng":139.802933},{"店舗名":"築地海鮮酒場三代目ISSEI","住所":"〒340-0011 埼玉県草加市栄町２丁目８−２５ まるそう一福ビル","ステータス":"RECEIPT","region":"Soka","lat":35.844257,"lng":139.803574},{"店舗名":"上海苑","住所":"〒340-0011 埼玉県草加市栄町２丁目８−２７ 松波ビル","ステータス":"APP_DISPLAY","region":"Soka","lat":35.844261,"lng":139.803848},{"店舗名":"ラーメン鷹の目 獨協大学前本店","住所":"〒340-0011 埼玉県草加市栄町２丁目９−１２","ステータス":"APP_DISPLAY","region":"Soka","lat":35.843525,"lng":139.801987},{"店舗名":"Asian Diner WENDY'S","住所":"〒340-0011 埼玉県草加市栄町３丁目","ステータス":"APP_DISPLAY","region":"Soka","lat":35.846535,"lng":139.801132},{"店舗名":"パワーケバブ","住所":"〒340-0011 埼玉県草加市栄町３丁目４−６","ステータス":"APP_DISPLAY","region":"Soka","lat":35.843842,"lng":139.801315},{"店舗名":"日本橋　山喜多　獨協大学前店","住所":"〒340-0011 埼玉県草加市栄町３丁目５−１４","ステータス":"APP_DISPLAY","region":"Soka","lat":35.844444,"lng":139.80101},{"店舗名":"カツ丼 三代目 なかじま 獨協大学前店","住所":"〒340-0011 埼玉県草加市栄町３丁目５−１８","ステータス":"APP_DISPLAY","region":"Soka","lat":35.843842,"lng":139.801239},{"店舗名":"九州沖縄三昧　なんくるないさー　獨協大学前店","住所":"〒340-0011 埼玉県草加市栄町３丁目５−１８ 東武松原第１ビル 2F","ステータス":"RECEIPT","region":"Soka","lat":35.843842,"lng":139.801239},{"店舗名":"九州沖縄三昧　なんくるないさー　獨協大学前店","住所":"〒340-0011 埼玉県草加市栄町３丁目５−１８ 東武松原第１ビル 2F","ステータス":"APP_DISPLAY","region":"Soka","lat":35.843842,"lng":139.801239},{"店舗名":"カツカレー専科 弐代目竜介 獨協大学前店","住所":"〒340-0011 埼玉県草加市栄町３丁目５−１８ 東武松原第１ビル 2F","ステータス":"APP_DISPLAY","region":"Soka","lat":35.843842,"lng":139.801239},{"店舗名":"ドミノ・ピザ 獨協大学前東口店","住所":"〒340-0011 埼玉県草加市栄町３丁目６−１２","ステータス":"APP_DISPLAY","region":"Soka","lat":35.844578,"lng":139.800919},{"店舗名":"リンガーハット 草加松原店","住所":"〒340-0011 埼玉県草加市栄町３丁目９−７８９−１","ステータス":"APP_DISPLAY","region":"Soka","lat":35.846767,"lng":139.801895},{"店舗名":"米重せんべい","住所":"〒340-0012 埼玉県草加市神明１丁目１０−１","ステータス":"APP_DISPLAY","region":"Soka","lat":35.833755,"lng":139.806488},{"店舗名":"ピザハット 草加店","住所":"〒340-0012 埼玉県草加市神明２丁目３−５","ステータス":"APP_DISPLAY","region":"Soka","lat":35.834518,"lng":139.807617},{"店舗名":"チキン・ウイングストリート 草加店","住所":"〒340-0012 埼玉県草加市神明２丁目３−５","ステータス":"APP_DISPLAY","region":"Soka","lat":35.834518,"lng":139.807617},{"店舗名":"トスカーニパスタ 草加店","住所":"〒340-0012 埼玉県草加市神明２丁目３−５","ステータス":"APP_DISPLAY","region":"Soka","lat":35.834518,"lng":139.807617},{"店舗名":"すき家 草加松江店","住所":"〒340-0013 埼玉県草加市松江３丁目７−５","ステータス":"PENDING","region":"Soka","lat":35.83847,"lng":139.809372},{"店舗名":"鰻の成瀬 草加松江店","住所":"〒340-0013 埼玉県草加市松江５丁目６−５","ステータス":"APP_DISPLAY","region":"Soka","lat":35.83474,"lng":139.81929},{"店舗名":"九卓味道","住所":"〒340-0013 埼玉県草加市松江６－７－３２","ステータス":"APP_DISPLAY","region":"Soka","lat":35.836594,"lng":139.818634},{"店舗名":"てくてくぎょうざ","住所":"〒340-0013 埼玉県草加市松江６－８－２５","ステータス":"APP_DISPLAY","region":"Soka","lat":35.835011,"lng":139.819382},{"店舗名":"ニュータンタン 草加","住所":"〒340-0013 埼玉県草加市松江６丁目１３−４６","ステータス":"APP_DISPLAY","region":"Soka","lat":35.833542,"lng":139.820343},{"店舗名":"ちゃんこ酒場じょう","住所":"〒340-0013 埼玉県草加市松江６丁目１４−１","ステータス":"APP_DISPLAY","region":"Soka","lat":35.8335,"lng":139.820236},{"店舗名":"Ｒｅｓｔａｕｒａｎｔ＆Ｃａｆｅ　ＴＨＡＯ","住所":"〒340-0013 埼玉県草加市松江６丁目８−２５","ステータス":"APP_DISPLAY","region":"Soka","lat":35.835011,"lng":139.819382},{"店舗名":"パルティーレ","住所":"〒340-0014","ステータス":"APP_DISPLAY","region":"Soka","lat":35.831219,"lng":139.805511},{"店舗名":"DRUM ROCK","住所":"〒340-0014 埼玉県草加市住吉1-3-2","ステータス":"APP_DISPLAY","region":"Soka","lat":35.830437,"lng":139.806137},{"店舗名":"ケンタッキーフライドチキン 草加店","住所":"〒340-0014 埼玉県草加市住吉１丁目１−１５","ステータス":"APP_DISPLAY","region":"Soka","lat":35.829868,"lng":139.807251},{"店舗名":"創作和食居酒屋 K's garage","住所":"〒340-0014 埼玉県草加市住吉１丁目７−２ 住吉ハイツ","ステータス":"APP_DISPLAY","region":"Soka","lat":35.830139,"lng":139.804916},{"店舗名":"紫菜館","住所":"〒340-0015","ステータス":"APP_DISPLAY","region":"Soka","lat":35.824764,"lng":139.804932},{"店舗名":"77Sweets shop 草加店","住所":"〒340-0015","ステータス":"APP_DISPLAY","region":"Soka","lat":35.824764,"lng":139.804932},{"店舗名":"SHION","住所":"〒340-0015","ステータス":"APP_DISPLAY","region":"Soka","lat":35.824764,"lng":139.804932},{"店舗名":"FreshPokeWorks 草加市店","住所":"〒340-0015 埼玉県草加市高砂１丁目","ステータス":"RECEIPT","region":"Soka","lat":35.824764,"lng":139.804932},{"店舗名":"【フルーツたっぷりアサイーボウル】ワイキキ・ボウルズ 草加市店","住所":"〒340-0015 埼玉県草加市高砂１丁目","ステータス":"APP_DISPLAY","region":"Soka","lat":35.824764,"lng":139.804932},{"店舗名":"【アサイー&グリークヨーグルト】GREEKSPOON 草加市店","住所":"〒340-0015 埼玉県草加市高砂１丁目","ステータス":"APP_DISPLAY","region":"Soka","lat":35.824764,"lng":139.804932},{"店舗名":"サーモン湊 草加店","住所":"〒340-0015 埼玉県草加市高砂１丁目１２−４３","ステータス":"APP_DISPLAY","region":"Soka","lat":35.825024,"lng":139.804214},{"店舗名":"とろろと納豆の柴山 草加店","住所":"〒340-0015 埼玉県草加市高砂１丁目１２−４３","ステータス":"APP_DISPLAY","region":"Soka","lat":35.825024,"lng":139.804214},{"店舗名":"海鮮卵かけご飯 うずめ 草加店","住所":"〒340-0015 埼玉県草加市高砂１丁目１２−４３","ステータス":"APP_DISPLAY","region":"Soka","lat":35.825024,"lng":139.804214},{"店舗名":"タイ料理 praw（プレオ）","住所":"〒340-0015 埼玉県草加市高砂１丁目１２−４３ グランデール青木","ステータス":"APP_DISPLAY","region":"Soka","lat":35.825024,"lng":139.804214},{"店舗名":"ブンブン餃子","住所":"〒340-0015 埼玉県草加市高砂１丁目１２−４３ グランデール青木","ステータス":"APP_DISPLAY","region":"Soka","lat":35.825024,"lng":139.804214},{"店舗名":"FulBari","住所":"〒340-0015 埼玉県草加市高砂１丁目３−２６ 球太郎ビル","ステータス":"APP_DISPLAY","region":"Soka","lat":35.825443,"lng":139.804138},{"店舗名":"居酒屋 金ちゃん","住所":"〒340-0015 埼玉県草加市高砂１丁目４−９","ステータス":"APP_DISPLAY","region":"Soka","lat":35.825737,"lng":139.803528},{"店舗名":"韓国料理モイセsoka","住所":"〒340-0015 埼玉県草加市高砂２丁目１２−９","ステータス":"APP_DISPLAY","region":"Soka","lat":35.829391,"lng":139.804688},{"店舗名":"GOOD THINGS (Cafe&Bar)","住所":"〒340-0015 埼玉県草加市高砂２丁目２１−３１","ステータス":"APP_DISPLAY","region":"Soka","lat":35.827217,"lng":139.807205},{"店舗名":"居酒屋ろじうら IzakayaRojiura","住所":"〒340-0015 埼玉県草加市高砂２丁目４−１３","ステータス":"APP_DISPLAY","region":"Soka","lat":35.827034,"lng":139.80368},{"店舗名":"ゼッテリア ZETTERIA 草加ヴァリエ店","住所":"〒340-0015 埼玉県草加市高砂２丁目５-25","ステータス":"PENDING","region":"Soka","lat":35.827057,"lng":139.803223},{"店舗名":"横浜家系ラーメン赤家 草加店","住所":"〒340-0015 埼玉県草加市高砂２丁目５−５","ステータス":"APP_DISPLAY","region":"Soka","lat":35.826725,"lng":139.803543},{"店舗名":"Ponte Clea","住所":"〒340-0015 埼玉県草加市高砂２丁目６−１３ ビル 徒夢 2階","ステータス":"RECEIPT","region":"Soka","lat":35.827488,"lng":139.803879},{"店舗名":"ダイニングバー Katsu","住所":"〒340-0015 埼玉県草加市高砂２丁目７−１","ステータス":"APP_DISPLAY","region":"Soka","lat":35.827549,"lng":139.804245},{"店舗名":"Soon du boo Taiga","住所":"〒340-0015 埼玉県草加市高砂２丁目７−１","ステータス":"RECEIPT","region":"Soka","lat":35.827549,"lng":139.804245},{"店舗名":"焼肉・ホルモン虎（TAIGA）","住所":"〒340-0015 埼玉県草加市高砂２丁目７−１","ステータス":"RECEIPT","region":"Soka","lat":35.827549,"lng":139.804245},{"店舗名":"大戸屋ごはん処 丸井草加店","住所":"〒340-0015 埼玉県草加市高砂２丁目９−１","ステータス":"APP_DISPLAY","region":"Soka","lat":35.8284,"lng":139.80455},{"店舗名":"肉の村山 マルイ草加店","住所":"〒340-0015 埼玉県草加市高砂２丁目９−１","ステータス":"APP_DISPLAY","region":"Soka","lat":35.8284,"lng":139.80455},{"店舗名":"特製牛スジカレー専門店 肉村 マルイ草加","住所":"〒340-0015 埼玉県草加市高砂２丁目９−１","ステータス":"APP_DISPLAY","region":"Soka","lat":35.8284,"lng":139.80455},{"店舗名":"シヴァのカレー草加店","住所":"〒340-0015 埼玉県草加市高砂２丁目９−１ ８階","ステータス":"APP_DISPLAY","region":"Soka","lat":35.8284,"lng":139.80455},{"店舗名":"海鮮処寿し常 草加マルイ店","住所":"〒340-0015 埼玉県草加市高砂２丁目９−１ マルイ 店,8f","ステータス":"APP_DISPLAY","region":"Soka","lat":35.8284,"lng":139.80455},{"店舗名":"吉野家 草加ヴァリエ店","住所":"〒340-0015 埼玉県草加市高砂４６８−１ 草加駅高架下","ステータス":"APP_DISPLAY","region":"Soka","lat":35.824764,"lng":139.804932},{"店舗名":"白蘭酒家","住所":"〒340-0016 埼玉県草加市中央１丁目１−１３","ステータス":"APP_DISPLAY","region":"Soka","lat":35.826454,"lng":139.807266},{"店舗名":"ポパイ食堂","住所":"〒340-0016 埼玉県草加市中央２丁目１２−２７","ステータス":"APP_DISPLAY","region":"Soka","lat":35.828232,"lng":139.811462},{"店舗名":"Over Drive Burger","住所":"〒340-0016 埼玉県草加市中央２丁目１６−９","ステータス":"APP_DISPLAY","region":"Soka","lat":35.828041,"lng":139.812149},{"店舗名":"Happy Over Rice","住所":"〒340-0017 埼玉県草加市吉町４丁目６−１３","ステータス":"APP_DISPLAY","region":"Soka","lat":35.818569,"lng":139.811249},{"店舗名":"ジャエ・カリカ","住所":"〒340-0022 埼玉県草加市瀬崎１丁目１０−２０","ステータス":"APP_DISPLAY","region":"Soka","lat":35.815136,"lng":139.802017},{"店舗名":"ちょいのみ （新 SHIN）","住所":"〒340-0022 埼玉県草加市瀬崎１丁目７−４３","ステータス":"APP_DISPLAY","region":"Soka","lat":35.815529,"lng":139.802277},{"店舗名":"インドネパール料理 GURASH 谷塚店","住所":"〒340-0022 埼玉県草加市瀬崎３丁目２６−１０","ステータス":"APP_DISPLAY","region":"Soka","lat":35.810963,"lng":139.806},{"店舗名":"Indian Nepali Restaurant GURASH 谷塚","住所":"〒340-0022 埼玉県草加市瀬崎３丁目２６−１０","ステータス":"APP_DISPLAY","region":"Soka","lat":35.810963,"lng":139.806},{"店舗名":"パティスリー　フレーズ・フレーズ","住所":"〒340-0022 埼玉県草加市瀬崎３丁目４０−２５ 102","ステータス":"APP_DISPLAY","region":"Soka","lat":35.810322,"lng":139.804306},{"店舗名":"KBチキン 草加瀬崎店","住所":"〒340-0022 埼玉県草加市瀬崎３丁目４１−２","ステータス":"APP_DISPLAY","region":"Soka","lat":35.810768,"lng":139.806259},{"店舗名":"盘点麻辣 　草加店","住所":"〒340-0022 埼玉県草加市瀬崎４丁目１５−１５","ステータス":"APP_DISPLAY","region":"Soka","lat":35.809803,"lng":139.810379},{"店舗名":"横浜家系ラーメン金安商店　草加店","住所":"〒340-0022 埼玉県草加市瀬崎４丁目１５−１５","ステータス":"APP_DISPLAY","region":"Soka","lat":35.809803,"lng":139.810379},{"店舗名":"中華食堂 悟楼","住所":"〒340-0022埼玉県草加市瀬崎７丁目１１−６","ステータス":"APP_DISPLAY","region":"Soka","lat":35.810143,"lng":139.812302},{"店舗名":"満福園","住所":"〒340-0023 埼玉県草加市谷塚町５８０−１","ステータス":"APP_DISPLAY","region":"Soka","lat":35.813351,"lng":139.799759},{"店舗名":"友ちゃん","住所":"〒340-0024 埼玉県草加市谷塚上町４７２−１１","ステータス":"APP_DISPLAY","region":"Soka","lat":35.81498,"lng":139.788101},{"店舗名":"丸源ラーメン 草加店","住所":"〒340-0024 埼玉県草加市谷塚上町７７５","ステータス":"APP_DISPLAY","region":"Soka","lat":35.821304,"lng":139.793365},{"店舗名":"リンガーハット 草加谷塚店","住所":"〒340-0025 埼玉県草加市谷塚仲町４６７−１","ステータス":"APP_DISPLAY","region":"Soka","lat":35.817291,"lng":139.792984},{"店舗名":"シミー's Kitchen","住所":"〒340-0027","ステータス":"APP_DISPLAY","region":"Soka","lat":35.812359,"lng":139.783951},{"店舗名":"はなまるうどん エキア谷塚店","住所":"〒340-0028 埼玉県草加市谷塚１丁目１−２２","ステータス":"APP_DISPLAY","region":"Soka","lat":35.814121,"lng":139.801361},{"店舗名":"すき家 東武谷塚駅前店","住所":"〒340-0028 埼玉県草加市谷塚１丁目１−２３","ステータス":"RECEIPT","region":"Soka","lat":35.814041,"lng":139.801315},{"店舗名":"ニュールドリ","住所":"〒340-0028 埼玉県草加市谷塚１丁目２１−１","ステータス":"APP_DISPLAY","region":"Soka","lat":35.811344,"lng":139.80246},{"店舗名":"味花 Ajihana","住所":"〒340-0028 埼玉県草加市谷塚１丁目２１−１ メルヘンシャトー草加","ステータス":"APP_DISPLAY","region":"Soka","lat":35.811344,"lng":139.80246},{"店舗名":"串焼もつ鍋 喜楽","住所":"〒340-0028 埼玉県草加市谷塚１丁目２−１４","ステータス":"APP_DISPLAY","region":"Soka","lat":35.813187,"lng":139.802399},{"店舗名":"大戸屋ごはん処 島忠草加舎人店","住所":"〒340-0032 埼玉県草加市遊馬町２−１","ステータス":"APP_DISPLAY","region":"Soka","lat":35.818073,"lng":139.768219},{"店舗名":"福泰厨房 草加舎人店","住所":"〒340-0032 埼玉県草加市遊馬町２−１","ステータス":"APP_DISPLAY","region":"Soka","lat":35.818073,"lng":139.768219},{"店舗名":"吉野家 草加柳島店","住所":"〒340-0033 埼玉県草加市柳島町650-3","ステータス":"APP_DISPLAY","region":"Soka","lat":35.820625,"lng":139.785004},{"店舗名":"横浜家系ラーメン十四代目 野中家","住所":"〒340-0034","ステータス":"APP_DISPLAY","region":"Soka","lat":35.826939,"lng":139.799759},{"店舗名":"サブウェイSUBWAY 東部草加ヴァリエ店","住所":"〒340-0034 埼玉県草加市高砂２丁目５−２５","ステータス":"APP_DISPLAY","region":"Soka","lat":35.827057,"lng":139.803223},{"店舗名":"T.E.D.S KITCHEN & BAR","住所":"〒340-0034 埼玉県草加市氷川町","ステータス":"APP_DISPLAY","region":"Soka","lat":35.826939,"lng":139.799759},{"店舗名":"johns kebab","住所":"〒340-0034 埼玉県草加市氷川町１８２８−１","ステータス":"APP_DISPLAY","region":"Soka","lat":35.821236,"lng":139.796936},{"店舗名":"秋月","住所":"〒340-0034 埼玉県草加市氷川町２１０１−１５","ステータス":"APP_DISPLAY","region":"Soka","lat":35.826797,"lng":139.802856},{"店舗名":"あかり","住所":"〒340-0034 埼玉県草加市氷川町２１０１−５","ステータス":"APP_DISPLAY","region":"Soka","lat":35.826797,"lng":139.802856},{"店舗名":"ドミノ・ピザ 草加氷川町店","住所":"〒340-0034 埼玉県草加市氷川町２１０６−３","ステータス":"APP_DISPLAY","region":"Soka","lat":35.826992,"lng":139.798874},{"店舗名":"目利きの銀次 草加西口駅前店","住所":"〒340-0034 埼玉県草加市氷川町２１２１－５","ステータス":"APP_DISPLAY","region":"Soka","lat":35.827904,"lng":139.802948},{"店舗名":"とんかつの和吉 草加西口駅前店","住所":"〒340-0034 埼玉県草加市氷川町２１２１−５","ステータス":"APP_DISPLAY","region":"Soka","lat":35.827904,"lng":139.802948},{"店舗名":"大衆鰻 うな銀 草加西口駅前店","住所":"〒340-0034 埼玉県草加市氷川町２１２１−５","ステータス":"APP_DISPLAY","region":"Soka","lat":35.827904,"lng":139.802948},{"店舗名":"濃厚鶏白湯つけ麺 どっかん 草加西口駅前店","住所":"〒340-0034 埼玉県草加市氷川町２１２１−５","ステータス":"APP_DISPLAY","region":"Soka","lat":35.827904,"lng":139.802948},{"店舗名":"からあげの鉄人 草加西口駅前店","住所":"〒340-0034 埼玉県草加市氷川町２１２１−５","ステータス":"APP_DISPLAY","region":"Soka","lat":35.827904,"lng":139.802948},{"店舗名":"PINOY","住所":"〒340-0034 埼玉県草加市氷川町２１２４−１３","ステータス":"APP_DISPLAY","region":"Soka","lat":35.828232,"lng":139.801727},{"店舗名":"桜梅桃李","住所":"〒340-0034 埼玉県草加市氷川町２１３２−６","ステータス":"APP_DISPLAY","region":"Soka","lat":35.829094,"lng":139.800598},{"店舗名":"dining room NAHOH","住所":"〒340-0034 埼玉県草加市氷川町２１４６−１３ Ｋｅｎ’ｓビル","ステータス":"APP_DISPLAY","region":"Soka","lat":35.829472,"lng":139.801712},{"店舗名":"アミューズメントバーX","住所":"〒340-0034 埼玉県草加市氷川町２１４８−１","ステータス":"APP_DISPLAY","region":"Soka","lat":35.829414,"lng":139.802872},{"店舗名":"大盛スタミナ肉丼 ニンニク野郎 草加店","住所":"〒340-0034 埼玉県草加市氷川町２１４８−１","ステータス":"APP_DISPLAY","region":"Soka","lat":35.829414,"lng":139.802872},{"店舗名":"串カツ田中 草加店","住所":"〒340-0034 埼玉県草加市氷川町２１４８−１ アークプラザビル 4階","ステータス":"APP_DISPLAY","region":"Soka","lat":35.829414,"lng":139.802872},{"店舗名":"中華食堂 一路草加店","住所":"〒340-0034 埼玉県草加市氷川町２１４９−２０","ステータス":"APP_DISPLAY","region":"Soka","lat":35.829926,"lng":139.802811},{"店舗名":"STANDING&BAR TARU 草加店","住所":"〒340-0034 埼玉県草加市氷川町２１４９−２０","ステータス":"APP_DISPLAY","region":"Soka","lat":35.829926,"lng":139.802811},{"店舗名":"肉まん研究所(草加店)","住所":"〒340-0034 埼玉県草加市氷川町３７−２０","ステータス":"APP_DISPLAY","region":"Soka","lat":35.822746,"lng":139.80249},{"店舗名":"cocomas chocolate","住所":"〒340-0034 埼玉県草加市氷川町７０９","ステータス":"APP_DISPLAY","region":"Soka","lat":35.825394,"lng":139.801956},{"店舗名":"和バル トゥクヌーヴォ.N","住所":"〒340-0034 埼玉県草加市氷川町７３３","ステータス":"APP_DISPLAY","region":"Soka","lat":35.826077,"lng":139.802307},{"店舗名":"かつや 草加谷塚店","住所":"〒340-0035 埼玉県草加市西町１２０５−１","ステータス":"APP_DISPLAY","region":"Soka","lat":35.825214,"lng":139.79248},{"店舗名":"どん亭　草加花栗店","住所":"〒340-0035 埼玉県草加市西町５７０−３","ステータス":"APP_DISPLAY","region":"Soka","lat":35.830418,"lng":139.792114},{"店舗名":"吉野家 獨協大学前西口店","住所":"〒340-0041 埼玉県草加市松原１丁目１","ステータス":"APP_DISPLAY","region":"Soka","lat":35.844284,"lng":139.79805},{"店舗名":"藁焼きDEN","住所":"〒340-0041 埼玉県草加市松原１丁目１−６","ステータス":"APP_DISPLAY","region":"Soka","lat":35.844284,"lng":139.79805},{"店舗名":"VIVIANA","住所":"〒340-0041 埼玉県草加市松原１丁目１－９","ステータス":"APP_DISPLAY","region":"Soka","lat":35.844284,"lng":139.79805},{"店舗名":"バーガーキングトーブイコート店","住所":"〒340-0041 埼玉県草加市松原３丁目−１６３８−１１","ステータス":"APP_DISPLAY","region":"Soka","lat":35.843357,"lng":139.792816},{"店舗名":"大戸屋ごはん処 トーブイコート草加松原店","住所":"〒340-0041 埼玉県草加市松原３丁目３−１","ステータス":"APP_DISPLAY","region":"Soka","lat":35.845711,"lng":139.791885},{"店舗名":"ケンタッキーフライドチキン 獨協大学前トーブイコート店","住所":"〒340-0041 埼玉県草加市松原３丁目３−１","ステータス":"APP_DISPLAY","region":"Soka","lat":35.845711,"lng":139.791885},{"店舗名":"Italian Kitchen VANSAN 獨協大学前トーブイコート店","住所":"〒340-0041 埼玉県草加市松原３丁目３−１","ステータス":"APP_DISPLAY","region":"Soka","lat":35.845711,"lng":139.791885},{"店舗名":"栄龍軒","住所":"〒340-0041 埼玉県草加市松原４丁目１−９","ステータス":"APP_DISPLAY","region":"Soka","lat":35.840683,"lng":139.792389},{"店舗名":"松原水産","住所":"〒340-0041埼玉県草加市松原４－１－２","ステータス":"APP_DISPLAY","region":"Soka","lat":35.841564,"lng":139.792038},{"店舗名":"じゃぱん亭 草加松原店","住所":"〒340-0041埼玉県草加市松原4丁目1-15","ステータス":"APP_DISPLAY","region":"Soka","lat":35.840412,"lng":139.79158},{"店舗名":"しゃぶしゃぶ温野菜 草加店","住所":"〒340-0043 埼玉県草加市草加２丁目８−１","ステータス":"APP_DISPLAY","region":"Soka","lat":35.832851,"lng":139.79953},{"店舗名":"しゃぶしゃぶ温野菜 とんかつかつ慶 草加店","住所":"〒340-0043 埼玉県草加市草加２丁目８−１ トクホンプラザ内","ステータス":"APP_DISPLAY","region":"Soka","lat":35.832851,"lng":139.79953},{"店舗名":"ドイツ・オーストリア料理クリンゲンタール","住所":"〒340-0043 埼玉県草加市草加３-３-３５","ステータス":"APP_DISPLAY","region":"Soka","lat":35.837833,"lng":139.799362},{"店舗名":"仕出し 若竹","住所":"〒340-0043 埼玉県草加市草加３丁目３−３５ ファミリー2番館","ステータス":"APP_DISPLAY","region":"Soka","lat":35.837833,"lng":139.799362},{"店舗名":"トレモロ コーヒー ロースター","住所":"〒340-0043 埼玉県草加市草加３丁目８−１５−１０６","ステータス":"APP_DISPLAY","region":"Soka","lat":35.838966,"lng":139.798553},{"店舗名":"オリジナルガパオライス アロイ・ガパオ 草加店","住所":"〒340-0043 埼玉県草加市草加３丁目９−４３","ステータス":"APP_DISPLAY","region":"Soka","lat":35.839275,"lng":139.798782},{"店舗名":"オリジナルタコライス【Taco feliz】 草加店","住所":"〒340-0043 埼玉県草加市草加３丁目９−４３","ステータス":"APP_DISPLAY","region":"Soka","lat":35.839275,"lng":139.798782},{"店舗名":"美と健康 スムージースタイル 草加店","住所":"〒340-0043 埼玉県草加市草加３丁目９−４３","ステータス":"APP_DISPLAY","region":"Soka","lat":35.839275,"lng":139.798782},{"店舗名":"美と健康 10salad(テンサラダ) 草加店","住所":"〒340-0043 埼玉県草加市草加３丁目９−４３","ステータス":"APP_DISPLAY","region":"Soka","lat":35.839275,"lng":139.798782},{"店舗名":"高たんぱく・糖質制限カオマンガイ 東京鶏飯食堂 草加店","住所":"〒340-0043 埼玉県草加市草加３丁目９−４３","ステータス":"APP_DISPLAY","region":"Soka","lat":35.839275,"lng":139.798782},{"店舗名":"チキンオーバーライス【NY CHICKEN STAND】 草加店","住所":"〒340-0043 埼玉県草加市草加３丁目９−４３","ステータス":"APP_DISPLAY","region":"Soka","lat":35.839275,"lng":139.798782},{"店舗名":"アジアンレストラン&バー マウンテン","住所":"〒340-0043 埼玉県草加市草加３丁目９−４３ ショッピングロード","ステータス":"APP_DISPLAY","region":"Soka","lat":35.839275,"lng":139.798782},{"店舗名":"インド・アジアンレストラン マウンテン MOUNTAIN","住所":"〒340-0043 埼玉県草加市草加３丁目ー９ー４３","ステータス":"APP_DISPLAY","region":"Soka","lat":35.839275,"lng":139.798782},{"店舗名":"自家製バウムクーヘン 切り株の家","住所":"〒340-0043埼玉県 草加市 草加３－８－１５","ステータス":"APP_DISPLAY","region":"Soka","lat":35.838966,"lng":139.798553},{"店舗名":"お酒と麺のたいくんち","住所":"〒340-0044","ステータス":"APP_DISPLAY","region":"Soka","lat":35.834312,"lng":139.793716},{"店舗名":"BLUETREE スカイテラス&シーシャ・カフェ","住所":"〒340-0044","ステータス":"APP_DISPLAY","region":"Soka","lat":35.834312,"lng":139.793716},{"店舗名":"インド北部料理パンジャビ","住所":"〒340-0044 埼玉県草加市花栗４丁目１４−２５","ステータス":"APP_DISPLAY","region":"Soka","lat":35.840153,"lng":139.792252},{"店舗名":"大衆酒場085","住所":"〒340-0044 埼玉県草加市花栗４丁目１４−２６","ステータス":"APP_DISPLAY","region":"Soka","lat":35.840076,"lng":139.792236},{"店舗名":"京都北白川 ラーメン魁力屋草加店","住所":"〒340-0044 埼玉県草加市花栗４丁目２４−１０","ステータス":"APP_DISPLAY","region":"Soka","lat":35.836884,"lng":139.790207},{"店舗名":"らっこ食堂","住所":"〒340-0046 埼玉県草加市北谷２丁目２３−２３","ステータス":"APP_DISPLAY","region":"Soka","lat":35.841225,"lng":139.780579},{"店舗名":"いきなりステーキ 草加新田店","住所":"〒340-0046 埼玉県草加市北谷３丁目１−３５","ステータス":"APP_DISPLAY","region":"Soka","lat":35.845749,"lng":139.786652},{"店舗名":"かっぱ寿司 草加店","住所":"〒340-0051 埼玉県草加市長栄２丁目１−３３","ステータス":"APP_DISPLAY","region":"Soka","lat":35.855286,"lng":139.782669},{"店舗名":"丼ぶり専門 清水港 バンノウ水産 草加店","住所":"〒340-0051 埼玉県草加市長栄２丁目１−３３","ステータス":"APP_DISPLAY","region":"Soka","lat":35.855286,"lng":139.782669},{"店舗名":"Mothers Kitchen","住所":"〒340-0051 埼玉県草加市長栄４丁目１８−１６","ステータス":"APP_DISPLAY","region":"Soka","lat":35.859432,"lng":139.772079},{"店舗名":"じゃぱん亭 草加長栄店","住所":"〒340-0051 埼玉県草加市長栄４丁目１−９","ステータス":"APP_DISPLAY","region":"Soka","lat":35.857983,"lng":139.771454},{"店舗名":"マサラキング 草加新田店","住所":"〒340-0052 埼玉県草加市金明町７４２−４","ステータス":"APP_DISPLAY","region":"Soka","lat":35.854988,"lng":139.790024},{"店舗名":"壺窯 BBQ HOUSE 草加新田店","住所":"〒340-0052 埼玉県草加市金明町７４２−４","ステータス":"APP_DISPLAY","region":"Soka","lat":35.854988,"lng":139.790024},{"店舗名":"究極のビリヤニ料理草加新田店","住所":"〒340-0052 埼玉県草加市金明町７４２−４","ステータス":"APP_DISPLAY","region":"Soka","lat":35.854988,"lng":139.790024},{"店舗名":"マサラキング　草加新田店","住所":"〒340-0052 埼玉県草加市金明町７４２−４","ステータス":"APP_DISPLAY","region":"Soka","lat":35.854988,"lng":139.790024},{"店舗名":"からあげ 揚げアゲ","住所":"〒340-0053 埼玉県草加市旭町１－４－４","ステータス":"APP_DISPLAY","region":"Soka","lat":35.853615,"lng":139.800049},{"店舗名":"吉野家 草加新田店","住所":"〒340-0053 埼玉県草加市旭町１丁目４−３６","ステータス":"APP_DISPLAY","region":"Soka","lat":35.852104,"lng":139.800369},{"店舗名":"まぜそばとタピオカのお店","住所":"〒340-0053 埼玉県草加市旭町１丁目４－４","ステータス":"APP_DISPLAY","region":"Soka","lat":35.853615,"lng":139.800049},{"店舗名":"パンとケーキの店 朝日堂","住所":"〒340-0053 埼玉県草加市旭町4-9-26","ステータス":"APP_DISPLAY","region":"Soka","lat":35.852768,"lng":139.795685},{"店舗名":"アジアンレストラン&バー SWAGAT","住所":"〒340-0053 埼玉県草加市旭町６丁目１５−２６","ステータス":"APP_DISPLAY","region":"Soka","lat":35.852276,"lng":139.794617},{"店舗名":"珍來新田イトーヨーカドー前店","住所":"〒340-0053 埼玉県草加市旭町６丁目２−１７ 河野マンション 111","ステータス":"APP_DISPLAY","region":"Soka","lat":35.851494,"lng":139.794769},{"店舗名":"からあげ金と銀 草加新善町店","住所":"〒340-0054 埼玉県草加市新善町３８３","ステータス":"APP_DISPLAY","region":"Soka","lat":35.850288,"lng":139.783157},{"店舗名":"らあめん花月嵐　草加バイパス店","住所":"〒340-0055 埼玉県草加市清門１丁目４０１−１","ステータス":"APP_DISPLAY","region":"Soka","lat":35.853985,"lng":139.784073},{"店舗名":"カレーハウス CoCo壱番屋 草加セーモンプラザ店","住所":"〒340-0055 埼玉県草加市清門１丁目４０１−２","ステータス":"APP_DISPLAY","region":"Soka","lat":35.853985,"lng":139.784073},{"店舗名":"Sunday Food　埼玉店","住所":"〒340-0055 埼玉県草加市清門町清門２丁目１−３９","ステータス":"APP_DISPLAY","region":"Soka","lat":35.852844,"lng":139.785751},{"店舗名":"吉野家 草加新栄店","住所":"〒340-0056 埼玉県草加市新栄１丁目５７−１０","ステータス":"APP_DISPLAY","region":"Soka","lat":35.854919,"lng":139.776962},{"店舗名":"Ｏｓｔｅｒｉａ Ｂｒａ","住所":"埼玉県草加市高砂１丁目１２−４３","ステータス":"APP_DISPLAY","region":"Soka","lat":35.825024,"lng":139.804214},{"店舗名":"魚丼 谷塚店","住所":"埼玉県草加市谷塚1-2-14","ステータス":"APP_DISPLAY","region":"Soka","lat":35.813187,"lng":139.802399},{"店舗名":"TANGIERS CAFE 2ND","住所":"埼玉県草加市松原4-1-9","ステータス":"RECEIPT","region":"Soka","lat":35.840683,"lng":139.792389}]