[{"店舗名":"雀荘ひよの","住所":"〒985-0842 宮城県多賀城市桜木１丁目１−５６","ステータス":"RECEIPT","region":"Tagajo","lat":38.288364,"lng":141.010361},{"店舗名":"とんこつ豚らーめん飛燕","住所":"〒985-0842 宮城県多賀城市桜木３丁目３−５２","ステータス":"RECEIPT","region":"Tagajo","lat":38.286449,"lng":141.011581},{"店舗名":"東日本ラーメン研究所","住所":"〒985-0842 宮城県多賀城市桜木３丁目３−５２","ステータス":"RECEIPT","region":"Tagajo","lat":38.286449,"lng":141.011581},{"店舗名":"ラーメンビリー☆R45多賀城店","住所":"〒985-0845 宮城県多賀城市町前","ステータス":"RECEIPT","region":"Tagajo","lat":38.283012,"lng":140.99826},{"店舗名":"とろり天使のわらびもち多賀城駅前店","住所":"〒985-0863 宮城県多賀城市東田中２丁目","ステータス":"RECEIPT","region":"Tagajo","lat":38.290863,"lng":141.000443},{"店舗名":"焼肉料理さるしな Yakiniku Cuisine Sarusina","住所":"〒985-0874 宮城県多賀城市八幡","ステータス":"RECEIPT","region":"Tagajo","lat":38.285484,"lng":140.996399},{"店舗名":"SARU CURRY","住所":"〒985-0874 宮城県多賀城市八幡３丁目６−１２","ステータス":"RECEIPT","region":"Tagajo","lat":38.290585,"lng":141.008575},{"店舗名":"インドレストラン　ガンジー","住所":"〒985-0874 宮城県多賀城市八幡４丁目３−４２","ステータス":"RECEIPT","region":"Tagajo","lat":38.289909,"lng":141.009171}]