[{"店舗名":"St.Bonheur","住所":"〒359-0001 埼玉県所沢市下富１４３７","ステータス":"APP_DISPLAY","region":"Tokorozawa","lat":35.837303,"lng":139.466797},{"店舗名":"中華居酒屋明月","住所":"〒359-0003 埼玉県所沢市中富南４丁目１","ステータス":"APP_DISPLAY","region":"Tokorozawa","lat":35.812336,"lng":139.497574},{"店舗名":"Vietnam Green","住所":"〒359-0021","ステータス":"APP_DISPLAY","region":"Tokorozawa","lat":35.797783,"lng":139.517746},{"店舗名":"居酒屋のも","住所":"〒359-0021","ステータス":"APP_DISPLAY","region":"Tokorozawa","lat":35.797783,"lng":139.517746},{"店舗名":"やきとり にしだ場 東所沢店","住所":"〒359-0021 埼玉県所沢市東所沢１丁目１−７","ステータス":"APP_DISPLAY","region":"Tokorozawa","lat":35.795353,"lng":139.51442},{"店舗名":"NAバインミー東所沢","住所":"〒359-0021 埼玉県所沢市東所沢１丁目１７−１３ 徳原ビル","ステータス":"APP_DISPLAY","region":"Tokorozawa","lat":35.798119,"lng":139.515106},{"店舗名":"アジアンダイニング サムジャナ","住所":"〒359-0021 埼玉県所沢市東所沢１丁目５−４","ステータス":"APP_DISPLAY","region":"Tokorozawa","lat":35.797482,"lng":139.513687},{"店舗名":"がんこ蔵","住所":"〒359-0021 埼玉県所沢市東所沢２丁目１−３","ステータス":"APP_DISPLAY","region":"Tokorozawa","lat":35.797394,"lng":139.512299},{"店舗名":"鰻の成瀬 東所沢店","住所":"〒359-0021 埼玉県所沢市東所沢２丁目８−１６","ステータス":"APP_DISPLAY","region":"Tokorozawa","lat":35.798775,"lng":139.512375},{"店舗名":"デニーズ 東所沢店","住所":"〒359-0022 埼玉県所沢市本郷字西上１０９０−４","ステータス":"APP_DISPLAY","region":"Tokorozawa","lat":35.794636,"lng":139.523773},{"店舗名":"ジェラートとクレープとCOTORIDO 東所沢店","住所":"〒359-0023 埼玉県所沢市東所沢和田","ステータス":"APP_DISPLAY","region":"Tokorozawa","lat":35.791245,"lng":139.51062},{"店舗名":"スズメジャンプ","住所":"〒359-0023 埼玉県所沢市東所沢和田２丁目１７−１１ グランドウール東所沢","ステータス":"APP_DISPLAY","region":"Tokorozawa","lat":35.795414,"lng":139.509201},{"店舗名":"熱狂チキン","住所":"〒359-0023 埼玉県所沢市東所沢和田３丁目１７−１","ステータス":"RECEIPT","region":"Tokorozawa","lat":35.794273,"lng":139.504105},{"店舗名":"Kitchen-King","住所":"〒359-0023 埼玉県所沢市東所沢和田３丁目１−９","ステータス":"APP_DISPLAY","region":"Tokorozawa","lat":35.796913,"lng":139.51123},{"店舗名":"東所沢アサイーボウルFDcafe","住所":"〒359-0023 埼玉県所沢市東所沢和田３丁目８−２９","ステータス":"APP_DISPLAY","region":"Tokorozawa","lat":35.798504,"lng":139.508682},{"店舗名":"伝説のすた丼屋 東所沢店","住所":"〒359-0024 埼玉県所沢市下安松１５１０－１７","ステータス":"APP_DISPLAY","region":"Tokorozawa","lat":35.792664,"lng":139.502579},{"店舗名":"ピザハット 東所沢店","住所":"〒359-0024 埼玉県所沢市下安松１５１３−１","ステータス":"APP_DISPLAY","region":"Tokorozawa","lat":35.792271,"lng":139.500549},{"店舗名":"トスカーニパスタ 東所沢店","住所":"〒359-0024 埼玉県所沢市下安松１５１３−１","ステータス":"APP_DISPLAY","region":"Tokorozawa","lat":35.792271,"lng":139.500549},{"店舗名":"チキン・ウイングストリート 東所沢店","住所":"〒359-0024 埼玉県所沢市下安松１５１３−１","ステータス":"APP_DISPLAY","region":"Tokorozawa","lat":35.792271,"lng":139.500549},{"店舗名":"台湾料理　福味居　所沢店 Taiwanese food Fumii Tokorozawa","住所":"〒359-0024 埼玉県所沢市下安松１５７３−８","ステータス":"APP_DISPLAY","region":"Tokorozawa","lat":35.791473,"lng":139.498047},{"店舗名":"OWL LODGE","住所":"〒359-0024 埼玉県所沢市下安松１６５−１１","ステータス":"APP_DISPLAY","region":"Tokorozawa","lat":35.785065,"lng":139.506989},{"店舗名":"ステーキのどん　所沢東店","住所":"〒359-0025 埼玉県所沢市上安松１１４０−２３","ステータス":"APP_DISPLAY","region":"Tokorozawa","lat":35.789532,"lng":139.482513},{"店舗名":"アジアン料理　カルダモン本店","住所":"〒359-0025 埼玉県所沢市上安松８１９－７","ステータス":"APP_DISPLAY","region":"Tokorozawa","lat":35.791035,"lng":139.494614},{"店舗名":"串カツ田中 所沢牛沼店","住所":"〒359-0026 埼玉県所沢市牛沼２８３３−６","ステータス":"APP_DISPLAY","region":"Tokorozawa","lat":35.793533,"lng":139.481445},{"店舗名":"大盛スタミナ肉丼 ニンニク野郎 所沢牛沼店","住所":"〒359-0026 埼玉県所沢市牛沼２８３３−６","ステータス":"APP_DISPLAY","region":"Tokorozawa","lat":35.793533,"lng":139.481445},{"店舗名":"かつや 所沢牛沼店","住所":"〒359-0026 埼玉県所沢市牛沼４６４−７","ステータス":"APP_DISPLAY","region":"Tokorozawa","lat":35.7981,"lng":139.490936},{"店舗名":"美味しい天ぷらと天丼 豚丼 松郷庵 甚五郎","住所":"〒359-0027 埼玉県所沢市松郷２７２−２","ステータス":"APP_DISPLAY","region":"Tokorozawa","lat":35.79734,"lng":139.499619},{"店舗名":"割烹手打ちうどんちとせ","住所":"〒359-0032 埼玉県所沢市若松町８２５−３","ステータス":"APP_DISPLAY","region":"Tokorozawa","lat":35.800739,"lng":139.480576},{"店舗名":"NANA＆HACHI","住所":"〒359-0032 埼玉県所沢市若松町８２７-１","ステータス":"APP_DISPLAY","region":"Tokorozawa","lat":35.800739,"lng":139.480576},{"店舗名":"docca","住所":"〒359-0034 埼玉県所沢市東新井町２５６−１","ステータス":"APP_DISPLAY","region":"Tokorozawa","lat":35.796082,"lng":139.479111},{"店舗名":"リンガーハット 所沢航空公園店","住所":"〒359-0034 埼玉県所沢市東新井町３０５−１","ステータス":"APP_DISPLAY","region":"Tokorozawa","lat":35.796677,"lng":139.480804},{"店舗名":"Ｄ麺","住所":"〒359-0035","ステータス":"APP_DISPLAY","region":"Tokorozawa","lat":35.794025,"lng":139.474304},{"店舗名":"ゴーゴーカレー グランエミオ所沢パーク","住所":"〒359-0037 埼玉県所沢市くすのき台１丁目１４−５","ステータス":"APP_DISPLAY","region":"Tokorozawa","lat":35.78746,"lng":139.473984},{"店舗名":"PRONTO　グランエミオ所沢店","住所":"〒359-0037 埼玉県所沢市くすのき台１丁目１４−５","ステータス":"APP_DISPLAY","region":"Tokorozawa","lat":35.78746,"lng":139.473984},{"店舗名":"カレーハウス CoCo壱番屋 所沢駅東口店","住所":"〒359-0037 埼玉県所沢市くすのき台１丁目９−８","ステータス":"APP_DISPLAY","region":"Tokorozawa","lat":35.788177,"lng":139.476135},{"店舗名":"アジアン酒場 ヒマラヤンダイニング所沢","住所":"〒359-0037 埼玉県所沢市くすのき台３丁目１６−２","ステータス":"APP_DISPLAY","region":"Tokorozawa","lat":35.787151,"lng":139.478851},{"店舗名":"スタミナ丼 活家 所沢店","住所":"〒359-0038 埼玉県所沢市北秋津３５７−１","ステータス":"RECEIPT","region":"Tokorozawa","lat":35.779881,"lng":139.477661},{"店舗名":"宅配とんかつ かさねや 所沢店","住所":"〒359-0038 埼玉県所沢市北秋津３５７−１","ステータス":"APP_DISPLAY","region":"Tokorozawa","lat":35.779881,"lng":139.477661},{"店舗名":"韓国カルビ丼とスンドゥブ 洞山 所沢店","住所":"〒359-0038 埼玉県所沢市北秋津３５７−１","ステータス":"APP_DISPLAY","region":"Tokorozawa","lat":35.779881,"lng":139.477661},{"店舗名":"うどんと肉 角立 所沢店","住所":"〒359-0038 埼玉県所沢市北秋津３５７−１","ステータス":"APP_DISPLAY","region":"Tokorozawa","lat":35.779881,"lng":139.477661},{"店舗名":"どんぶり 神宮軒 所沢店","住所":"〒359-0038 埼玉県所沢市北秋津３５７−１","ステータス":"APP_DISPLAY","region":"Tokorozawa","lat":35.779881,"lng":139.477661},{"店舗名":"お粥 煮え花 所沢店","住所":"〒359-0038 埼玉県所沢市北秋津３５７−１","ステータス":"APP_DISPLAY","region":"Tokorozawa","lat":35.779881,"lng":139.477661},{"店舗名":"背徳めし食堂 所沢店","住所":"〒359-0038 埼玉県所沢市北秋津３５７−１","ステータス":"APP_DISPLAY","region":"Tokorozawa","lat":35.779881,"lng":139.477661},{"店舗名":"元祖金沢チャンピオンカレーデリバリー 所沢店","住所":"〒359-0038 埼玉県所沢市北秋津３５７−１","ステータス":"APP_DISPLAY","region":"Tokorozawa","lat":35.779881,"lng":139.477661},{"店舗名":"韓国クッパとビビンバ 全州 所沢店","住所":"〒359-0038 埼玉県所沢市北秋津３５７−１","ステータス":"APP_DISPLAY","region":"Tokorozawa","lat":35.779881,"lng":139.477661},{"店舗名":"さぬきうどん・どんぶり 博好 所沢店","住所":"〒359-0038 埼玉県所沢市北秋津３５７−１","ステータス":"APP_DISPLAY","region":"Tokorozawa","lat":35.779881,"lng":139.477661},{"店舗名":"熟成厚切りとんてき 三元道 所沢店","住所":"〒359-0038 埼玉県所沢市北秋津３５７−１","ステータス":"APP_DISPLAY","region":"Tokorozawa","lat":35.779881,"lng":139.477661},{"店舗名":"出前家系ラーメン 吉祥寺 武蔵家 所沢店","住所":"〒359-0038 埼玉県所沢市北秋津３５７−１","ステータス":"APP_DISPLAY","region":"Tokorozawa","lat":35.779881,"lng":139.477661},{"店舗名":"お好み焼き おた福商店 所沢店","住所":"〒359-0038 埼玉県所沢市北秋津３５７−１","ステータス":"APP_DISPLAY","region":"Tokorozawa","lat":35.779881,"lng":139.477661},{"店舗名":"十勝帯広豚丼 三代目ぶた広 所沢店","住所":"〒359-0038 埼玉県所沢市北秋津３５７−１","ステータス":"APP_DISPLAY","region":"Tokorozawa","lat":35.779881,"lng":139.477661},{"店舗名":"うなぎの照本 所沢店","住所":"〒359-0038 埼玉県所沢市北秋津３５７−１","ステータス":"RECEIPT","region":"Tokorozawa","lat":35.779881,"lng":139.477661},{"店舗名":"とりめし かえで食堂 所沢店","住所":"〒359-0038 埼玉県所沢市北秋津３５７−１ センチュリー新井","ステータス":"APP_DISPLAY","region":"Tokorozawa","lat":35.779881,"lng":139.477661},{"店舗名":"鶏弁 とり日和 所沢店","住所":"〒359-0038 埼玉県所沢市北秋津３５７−１ センチュリー新井","ステータス":"APP_DISPLAY","region":"Tokorozawa","lat":35.779881,"lng":139.477661},{"店舗名":"焼きかつ丼 勝吉 所沢店","住所":"〒359-0038 埼玉県所沢市北秋津３５７−１ センチュリー新井","ステータス":"APP_DISPLAY","region":"Tokorozawa","lat":35.779881,"lng":139.477661},{"店舗名":"かつ丼屋 のぶお 所沢店","住所":"〒359-0038 埼玉県所沢市北秋津３５７−１ センチュリー新井","ステータス":"APP_DISPLAY","region":"Tokorozawa","lat":35.779881,"lng":139.477661},{"店舗名":"かつ丼 とん吉 所沢店","住所":"〒359-0038 埼玉県所沢市北秋津３５７−１ センチュリー新井","ステータス":"APP_DISPLAY","region":"Tokorozawa","lat":35.779881,"lng":139.477661},{"店舗名":"台湾カフェ 時香茶 所沢店","住所":"〒359-0038 埼玉県所沢市北秋津３５７−１ センチュリー新井","ステータス":"APP_DISPLAY","region":"Tokorozawa","lat":35.779881,"lng":139.477661},{"店舗名":"出前つけ麺専門店 三田製麺所 所沢店","住所":"〒359-0038 埼玉県所沢市北秋津３５７−１ センチュリー新井","ステータス":"APP_DISPLAY","region":"Tokorozawa","lat":35.779881,"lng":139.477661},{"店舗名":"旨辛スタミナ鉄板焼き 天神軒 所沢店","住所":"〒359-0038 埼玉県所沢市北秋津３５７−１ センチュリー新井","ステータス":"APP_DISPLAY","region":"Tokorozawa","lat":35.779881,"lng":139.477661},{"店舗名":"ぶた玉丼とうどん ぶた玉家 所沢店","住所":"〒359-0038 埼玉県所沢市北秋津３５７−１ センチュリー新井","ステータス":"APP_DISPLAY","region":"Tokorozawa","lat":35.779881,"lng":139.477661},{"店舗名":"肉汁つけうどん 六三四 所沢店","住所":"〒359-0038 埼玉県所沢市北秋津３５７−１ センチュリー新井","ステータス":"APP_DISPLAY","region":"Tokorozawa","lat":35.779881,"lng":139.477661},{"店舗名":"鶏天豚天 通天道 所沢店","住所":"〒359-0038 埼玉県所沢市北秋津３５７−１ センチュリー新井","ステータス":"APP_DISPLAY","region":"Tokorozawa","lat":35.779881,"lng":139.477661},{"店舗名":"のり弁 浅草屋 所沢店","住所":"〒359-0038 埼玉県所沢市北秋津３５７−１ センチュリー新井","ステータス":"APP_DISPLAY","region":"Tokorozawa","lat":35.779881,"lng":139.477661},{"店舗名":"ケンタッキーフライドチキン ソコラ所沢店","住所":"〒359-0038 埼玉県所沢市北秋津５９２","ステータス":"APP_DISPLAY","region":"Tokorozawa","lat":35.784214,"lng":139.481033},{"店舗名":"一風堂 SOCOLA所沢店","住所":"〒359-0038 埼玉県所沢市北秋津５９２","ステータス":"PENDING","region":"Tokorozawa","lat":35.784214,"lng":139.481033},{"店舗名":"ジンギスカン勝","住所":"〒359-0041","ステータス":"APP_DISPLAY","region":"Tokorozawa","lat":35.815262,"lng":139.466782},{"店舗名":"ドウ・クロッシュ","住所":"〒359-0041 埼玉県所沢市中新井１丁目７９２−２４","ステータス":"APP_DISPLAY","region":"Tokorozawa","lat":35.815998,"lng":139.465836},{"店舗名":"Royal Kitchen Asian Dining & Bar","住所":"〒359-0041 埼玉県所沢市中新井２丁目２１１−７","ステータス":"APP_DISPLAY","region":"Tokorozawa","lat":35.816864,"lng":139.466629},{"店舗名":"アジアレストラン＆バー亜蓮(アレン)","住所":"〒359-0041 埼玉県所沢市中新井２丁目２１１−７","ステータス":"APP_DISPLAY","region":"Tokorozawa","lat":35.816864,"lng":139.466629},{"店舗名":"Rocco","住所":"〒359-0042 埼玉県所沢市並木１-９-１","ステータス":"APP_DISPLAY","region":"Tokorozawa","lat":35.800167,"lng":139.473694},{"店舗名":"【米粉100%たこ焼き】たこ焼きたけちゃん","住所":"〒359-0042 埼玉県所沢市並木１丁目１３ 内","ステータス":"APP_DISPLAY","region":"Tokorozawa","lat":35.798306,"lng":139.469131},{"店舗名":"Cafe&Restaurant ELMO","住所":"〒359-0042 埼玉県所沢市並木２丁目 １","ステータス":"APP_DISPLAY","region":"Tokorozawa","lat":35.799412,"lng":139.465302},{"店舗名":"〈ごはん大盛まで無料〉ハンバーグ亭 沢村 並木3丁目2号店","住所":"〒359-0042 埼玉県所沢市並木３−１","ステータス":"APP_DISPLAY","region":"Tokorozawa","lat":35.800636,"lng":139.469254},{"店舗名":"【ごはん特盛可】名物チャーシューエッグ丼 大衆食堂スタンドそのだ 並木3丁目2号店","住所":"〒359-0042 埼玉県所沢市並木３−１","ステータス":"APP_DISPLAY","region":"Tokorozawa","lat":35.800636,"lng":139.469254},{"店舗名":"炙りチャーシュー家 並木3丁目2号店","住所":"〒359-0042 埼玉県所沢市並木３−１","ステータス":"APP_DISPLAY","region":"Tokorozawa","lat":35.800636,"lng":139.469254},{"店舗名":"【豚マシ・ニンニク・アブラ】豚メシ どストライク 並木3丁目2号店","住所":"〒359-0042 埼玉県所沢市並木３−１","ステータス":"APP_DISPLAY","region":"Tokorozawa","lat":35.800636,"lng":139.469254},{"店舗名":"厳選とろとろ豚 炒飯一華-ichika- 並木3丁目2号店","住所":"〒359-0042 埼玉県所沢市並木３丁目１","ステータス":"APP_DISPLAY","region":"Tokorozawa","lat":35.800636,"lng":139.469254},{"店舗名":"〈ごはん特盛まで無料〉デミグラスハンバーグの店 デミたま 並木3丁目2号店","住所":"〒359-0042 埼玉県所沢市並木３丁目１","ステータス":"APP_DISPLAY","region":"Tokorozawa","lat":35.800636,"lng":139.469254},{"店舗名":"【とろける角煮】東京角煮総本店 並木3丁目2号店","住所":"〒359-0042 埼玉県所沢市並木３丁目１","ステータス":"APP_DISPLAY","region":"Tokorozawa","lat":35.800636,"lng":139.469254},{"店舗名":"元祖台湾まぜそばはなび エクスプレス 並木3丁目2号店","住所":"〒359-0042 埼玉県所沢市並木３丁目１","ステータス":"APP_DISPLAY","region":"Tokorozawa","lat":35.800636,"lng":139.469254},{"店舗名":"【BBQ】LAジャークチキン&ハンバーグ JERK SHACK 並木3丁目2号店","住所":"〒359-0042 埼玉県所沢市並木３丁目１","ステータス":"APP_DISPLAY","region":"Tokorozawa","lat":35.800636,"lng":139.469254},{"店舗名":"自慢の王道タコライス 並木3丁目2号店","住所":"〒359-0042 埼玉県所沢市並木３丁目１","ステータス":"APP_DISPLAY","region":"Tokorozawa","lat":35.800636,"lng":139.469254},{"店舗名":"【58℃の魔法】厳選熟成赤身肉使用 低温調理ローストビーフ丼 エアーズロック 並木3丁目2号店","住所":"〒359-0042 埼玉県所沢市並木３丁目１","ステータス":"APP_DISPLAY","region":"Tokorozawa","lat":35.800636,"lng":139.469254},{"店舗名":"アジアンキッチンandバーアーラブ","住所":"〒359-0042 埼玉県所沢市並木３丁目１−４","ステータス":"APP_DISPLAY","region":"Tokorozawa","lat":35.800636,"lng":139.469254},{"店舗名":"PRAKRITI","住所":"〒359-0044 埼玉県所沢市松葉町１１−６","ステータス":"APP_DISPLAY","region":"Tokorozawa","lat":35.807751,"lng":139.456726},{"店舗名":"クリスピーチキンアンドトマト 所沢店 CRISPY CHICKEN n' TOMATO Tokorozawa","住所":"〒359-0044 埼玉県所沢市松葉町１１−６","ステータス":"APP_DISPLAY","region":"Tokorozawa","lat":35.807751,"lng":139.456726},{"店舗名":"漁夫の利 所沢店","住所":"〒359-0044 埼玉県所沢市松葉町１１−６ アミティ","ステータス":"APP_DISPLAY","region":"Tokorozawa","lat":35.807751,"lng":139.456726},{"店舗名":"トンバンキンパ 所沢店","住所":"〒359-0044 埼玉県所沢市松葉町１１−６ アミティ","ステータス":"APP_DISPLAY","region":"Tokorozawa","lat":35.807751,"lng":139.456726},{"店舗名":"激盛り豚丼 メガトン 新所沢店","住所":"〒359-0044 埼玉県所沢市松葉町１−３","ステータス":"APP_DISPLAY","region":"Tokorozawa","lat":35.807297,"lng":139.455933},{"店舗名":"串カツ田中 新所沢店","住所":"〒359-0044 埼玉県所沢市松葉町２−１","ステータス":"APP_DISPLAY","region":"Tokorozawa","lat":35.807205,"lng":139.45607},{"店舗名":"大盛スタミナ肉丼 ニンニク野郎 新所沢店","住所":"〒359-0044 埼玉県所沢市松葉町２−１","ステータス":"APP_DISPLAY","region":"Tokorozawa","lat":35.807205,"lng":139.45607},{"店舗名":"SWAD","住所":"〒359-0044 埼玉県所沢市松葉町２−１４ 浅井ビル","ステータス":"APP_DISPLAY","region":"Tokorozawa","lat":35.808018,"lng":139.455719},{"店舗名":"笑神酒場","住所":"〒359-0044 埼玉県所沢市松葉町２－１９","ステータス":"APP_DISPLAY","region":"Tokorozawa","lat":35.80748,"lng":139.456223},{"店舗名":"おこのみやきＢａｎＢａｎハウス","住所":"〒359-0044 埼玉県所沢市松葉町２３−１１","ステータス":"APP_DISPLAY","region":"Tokorozawa","lat":35.807373,"lng":139.459244},{"店舗名":"KEBABU UP","住所":"〒359-0044 埼玉県所沢市松葉町２３−２","ステータス":"APP_DISPLAY","region":"Tokorozawa","lat":35.80825,"lng":139.458344},{"店舗名":"江戸名代亜門 新所沢店","住所":"〒359-0044 埼玉県所沢市松葉町２３−２","ステータス":"APP_DISPLAY","region":"Tokorozawa","lat":35.80825,"lng":139.458344},{"店舗名":"サンガム新所沢","住所":"〒359-0044 埼玉県所沢市松葉町２３−２０","ステータス":"APP_DISPLAY","region":"Tokorozawa","lat":35.808048,"lng":139.458237},{"店舗名":"Asian Dining&Bar Zaika","住所":"〒359-0044 埼玉県所沢市松葉町２４−２２ー１－Ｂ","ステータス":"APP_DISPLAY","region":"Tokorozawa","lat":35.808338,"lng":139.458313},{"店舗名":"ローザ ケバブ キッチン","住所":"〒359-0044 埼玉県所沢市松葉町２６−２１","ステータス":"APP_DISPLAY","region":"Tokorozawa","lat":35.80798,"lng":139.459045},{"店舗名":"パキスタン&インドレストランビスミラー","住所":"〒359-0044 埼玉県所沢市松葉町２−８","ステータス":"APP_DISPLAY","region":"Tokorozawa","lat":35.807953,"lng":139.455368},{"店舗名":"とこ蕎麦","住所":"〒359-0044 埼玉県所沢市松葉町３−１ 明進ビル 1F","ステータス":"APP_DISPLAY","region":"Tokorozawa","lat":35.806797,"lng":139.456436},{"店舗名":"やきとり串一","住所":"〒359-0045","ステータス":"APP_DISPLAY","region":"Tokorozawa","lat":35.80864,"lng":139.46051},{"店舗名":"コグレクレープ","住所":"〒359-0046 埼玉県所沢市北所沢町２０１９−１５","ステータス":"APP_DISPLAY","region":"Tokorozawa","lat":35.808853,"lng":139.45491},{"店舗名":"ラーメンまこと屋新所沢店","住所":"〒359-0046 埼玉県所沢市北所沢町２２１９−１","ステータス":"APP_DISPLAY","region":"Tokorozawa","lat":35.811176,"lng":139.455399},{"店舗名":"大戸屋ごはん処 新所沢店","住所":"〒359-0046 埼玉県所沢市北所沢町２２３３−１","ステータス":"APP_DISPLAY","region":"Tokorozawa","lat":35.810699,"lng":139.453568},{"店舗名":"ジャンクガレッジ 新所沢店","住所":"〒359-0046 埼玉県所沢市北所沢町２２６２−１","ステータス":"APP_DISPLAY","region":"Tokorozawa","lat":35.810047,"lng":139.454605},{"店舗名":"MILKA'S COFFEE","住所":"〒359-0047 埼玉県所沢市花園4-2589-89","ステータス":"RECEIPT","region":"Tokorozawa","lat":35.816643,"lng":139.461044},{"店舗名":"らーめんたつ","住所":"〒359-1101","ステータス":"APP_DISPLAY","region":"Tokorozawa","lat":35.808369,"lng":139.432236},{"店舗名":"ケンタッキーフライドチキン 所沢北中店","住所":"〒359-1101 埼玉県所沢市北中１丁目２１８−４","ステータス":"APP_DISPLAY","region":"Tokorozawa","lat":35.808426,"lng":139.431381},{"店舗名":"cafe アンニョン","住所":"〒359-1101 埼玉県所沢市北中１丁目２１９−５","ステータス":"APP_DISPLAY","region":"Tokorozawa","lat":35.808426,"lng":139.431381},{"店舗名":"Korean Dining TAMMI コリアンダイニングタンミ","住所":"〒359-1101 埼玉県所沢市北中１丁目２１９−５ Ａｓｉａｎ Ｄｉｎｉｎｇ ＴＡＭＭＩ 2f","ステータス":"APP_DISPLAY","region":"Tokorozawa","lat":35.808426,"lng":139.431381},{"店舗名":"かつや 埼玉所沢北中店","住所":"〒359-1101 埼玉県所沢市北中２丁目１６８−２","ステータス":"APP_DISPLAY","region":"Tokorozawa","lat":35.809769,"lng":139.434601},{"店舗名":"ラー麺ずんどう屋 所沢店","住所":"〒359-1104 埼玉県所沢市榎町７−１１","ステータス":"APP_DISPLAY","region":"Tokorozawa","lat":35.803459,"lng":139.443573},{"店舗名":"バーガーキングホームズ所沢店","住所":"〒359-1105 埼玉県所沢市青葉台１３２７","ステータス":"APP_DISPLAY","region":"Tokorozawa","lat":35.806625,"lng":139.439987},{"店舗名":"だんご屋本舗狭山ヶ丘駅前店","住所":"〒359-1106 埼玉県所沢市東狭山ケ丘１－４－１","ステータス":"APP_DISPLAY","region":"Tokorozawa","lat":35.810848,"lng":139.417343},{"店舗名":"美と健康10salad(テンサラダ) 狭山ヶ丘店","住所":"〒359-1106 埼玉県所沢市東狭山ケ丘１丁目２７−１","ステータス":"APP_DISPLAY","region":"Tokorozawa","lat":35.812977,"lng":139.418762},{"店舗名":"高たんぱく・糖質制限カオマンガイ 東京鶏飯食堂 狭山ヶ丘店","住所":"〒359-1106 埼玉県所沢市東狭山ケ丘１丁目２７−１","ステータス":"APP_DISPLAY","region":"Tokorozawa","lat":35.812977,"lng":139.418762},{"店舗名":"オリジナルガパオライス アロイ・ガパオ 狭山ヶ丘店","住所":"〒359-1106 埼玉県所沢市東狭山ケ丘１丁目２７−１","ステータス":"APP_DISPLAY","region":"Tokorozawa","lat":35.812977,"lng":139.418762},{"店舗名":"チキンオーバーライス【NY CHICKEN STAND】 狭山ヶ丘店","住所":"〒359-1106 埼玉県所沢市東狭山ケ丘１丁目２７−１","ステータス":"APP_DISPLAY","region":"Tokorozawa","lat":35.812977,"lng":139.418762},{"店舗名":"オリジナルタコライス【Taco feliz】 狭山ヶ丘店","住所":"〒359-1106 埼玉県所沢市東狭山ケ丘１丁目２７−１","ステータス":"APP_DISPLAY","region":"Tokorozawa","lat":35.812977,"lng":139.418762},{"店舗名":"Asian Dining & Bar さくら Sakura","住所":"〒359-1106 埼玉県所沢市東狭山ケ丘１丁目２７−１ エクシード狭山ヶ丘","ステータス":"APP_DISPLAY","region":"Tokorozawa","lat":35.812977,"lng":139.418762},{"店舗名":"らぁ麺 ひよこ","住所":"〒359-1106 埼玉県所沢市東狭山ケ丘６丁目８０２−５","ステータス":"APP_DISPLAY","region":"Tokorozawa","lat":35.815979,"lng":139.423035},{"店舗名":"麺屋敬 所沢店","住所":"〒359-1106 埼玉県所沢市東狭山ケ丘６丁目８０２−５","ステータス":"APP_DISPLAY","region":"Tokorozawa","lat":35.815979,"lng":139.423035},{"店舗名":"Korean dining MiLim","住所":"〒359-1111 埼玉県所沢市 緑町１丁目１７−１１","ステータス":"APP_DISPLAY","region":"Tokorozawa","lat":35.806782,"lng":139.453018},{"店舗名":"ルンチャン　タイカフェ","住所":"〒359-1111 埼玉県所沢市緑町","ステータス":"APP_DISPLAY","region":"Tokorozawa","lat":35.805386,"lng":139.453491},{"店舗名":"まーちゃんらぁめん","住所":"〒359-1111 埼玉県所沢市緑町１丁目１−６","ステータス":"APP_DISPLAY","region":"Tokorozawa","lat":35.805691,"lng":139.456573},{"店舗名":"油そば 豚魂 新所沢店 TON-KON Abura Soba with a Giant Slice of Roasted PorkShintokorozawa","住所":"〒359-1111 埼玉県所沢市緑町１丁目１−６","ステータス":"APP_DISPLAY","region":"Tokorozawa","lat":35.805691,"lng":139.456573},{"店舗名":"アジアンレストラン＆バー タンドリーキング","住所":"〒359-1111 埼玉県所沢市緑町１丁目１−６","ステータス":"APP_DISPLAY","region":"Tokorozawa","lat":35.805691,"lng":139.456573},{"店舗名":"ハワイアンカフェ レイ","住所":"〒359-1111 埼玉県所沢市緑町１丁目１６−９","ステータス":"APP_DISPLAY","region":"Tokorozawa","lat":35.805691,"lng":139.454025},{"店舗名":"【ポテトが主食。芋神ポテイトン】","住所":"〒359-1111 埼玉県所沢市緑町１丁目１６−９","ステータス":"APP_DISPLAY","region":"Tokorozawa","lat":35.805691,"lng":139.454025},{"店舗名":"ゴハン300gが標準！ゴロ肉ライスカレー","住所":"〒359-1111 埼玉県所沢市緑町１丁目１６−９","ステータス":"APP_DISPLAY","region":"Tokorozawa","lat":35.805691,"lng":139.454025},{"店舗名":"中華そば 麺ノ花","住所":"〒359-1111 埼玉県所沢市緑町１丁目１７−１１","ステータス":"APP_DISPLAY","region":"Tokorozawa","lat":35.806782,"lng":139.453018},{"店舗名":"ボックスチュロス ～Churros time～ 所沢緑町店","住所":"〒359-1111 埼玉県所沢市緑町１丁目１７−１１","ステータス":"APP_DISPLAY","region":"Tokorozawa","lat":35.806782,"lng":139.453018},{"店舗名":"【アサイーボウル】ALOHA SPOON ～Acai bowl cafe～ 所沢緑町店","住所":"〒359-1111 埼玉県所沢市緑町１丁目１７−１１","ステータス":"APP_DISPLAY","region":"Tokorozawa","lat":35.806782,"lng":139.453018},{"店舗名":"【韓国フローズンヨーグルトアイスボウル】Yoppo！ 所沢緑町店","住所":"〒359-1111 埼玉県所沢市緑町１丁目１７−１１","ステータス":"APP_DISPLAY","region":"Tokorozawa","lat":35.806782,"lng":139.453018},{"店舗名":"魚民 新所沢西口駅前店","住所":"〒359-1111 埼玉県所沢市緑町１丁目２０−１","ステータス":"APP_DISPLAY","region":"Tokorozawa","lat":35.806633,"lng":139.455353},{"店舗名":"からあげの鉄人 新所沢西口駅前店","住所":"〒359-1111 埼玉県所沢市緑町１丁目２０−１ 新所沢ミナミプラザ","ステータス":"APP_DISPLAY","region":"Tokorozawa","lat":35.806633,"lng":139.455353},{"店舗名":"粉もん屋八 新所沢駅前店","住所":"〒359-1111 埼玉県所沢市緑町１丁目２０−１ 新所沢ミナミプラザ","ステータス":"APP_DISPLAY","region":"Tokorozawa","lat":35.806633,"lng":139.455353},{"店舗名":"とんかつの和吉 新所沢西口駅前店","住所":"〒359-1111 埼玉県所沢市緑町１丁目２０−１ 新所沢ミナミプラザ 1","ステータス":"APP_DISPLAY","region":"Tokorozawa","lat":35.806633,"lng":139.455353},{"店舗名":"【韓国料理&韓国商品】ハンチャン市場 KOREAN FOOD HANCHANICHIBA","住所":"〒359-1111 埼玉県所沢市緑町2－7－14","ステータス":"APP_DISPLAY","region":"Tokorozawa","lat":35.804344,"lng":139.455765},{"店舗名":"ピザハット 新所沢店","住所":"〒359-1111 埼玉県所沢市緑町２丁目１４−２","ステータス":"APP_DISPLAY","region":"Tokorozawa","lat":35.804043,"lng":139.455078},{"店舗名":"トスカーニパスタ 新所沢店","住所":"〒359-1111 埼玉県所沢市緑町２丁目１４−２","ステータス":"APP_DISPLAY","region":"Tokorozawa","lat":35.804043,"lng":139.455078},{"店舗名":"チキン・ウイングストリート 新所沢店","住所":"〒359-1111 埼玉県所沢市緑町２丁目１４−２","ステータス":"APP_DISPLAY","region":"Tokorozawa","lat":35.804043,"lng":139.455078},{"店舗名":"旬菜料理 花もも","住所":"〒359-1111 埼玉県所沢市緑町３−２９−６","ステータス":"APP_DISPLAY","region":"Tokorozawa","lat":35.801098,"lng":139.447128},{"店舗名":"和風からあげ 所沢店","住所":"〒359-1111 埼玉県所沢市緑町４丁目","ステータス":"RECEIPT","region":"Tokorozawa","lat":35.806889,"lng":139.449493},{"店舗名":"本格 yummy 韓国 フライドチキン 所沢店","住所":"〒359-1111 埼玉県所沢市緑町４丁目","ステータス":"RECEIPT","region":"Tokorozawa","lat":35.806889,"lng":139.449493},{"店舗名":"餃子市　新所沢店","住所":"〒359-1111 埼玉県所沢市緑町４丁目","ステータス":"APP_DISPLAY","region":"Tokorozawa","lat":35.806889,"lng":139.449493},{"店舗名":"ASIAN DINING&BAR KASIKA","住所":"〒359-1111 埼玉県所沢市緑町４丁目１５−２０","ステータス":"APP_DISPLAY","region":"Tokorozawa","lat":35.805878,"lng":139.447449},{"店舗名":"パティスリーラ・サンテ","住所":"〒359-1111 埼玉県所沢市緑町４丁目３０−３","ステータス":"APP_DISPLAY","region":"Tokorozawa","lat":35.807247,"lng":139.451187},{"店舗名":"デニーズ 新所沢店","住所":"〒359-1111 埼玉県所沢市緑町４丁目３３−１１","ステータス":"APP_DISPLAY","region":"Tokorozawa","lat":35.807693,"lng":139.452332},{"店舗名":"たこ嘉","住所":"〒359-1113 埼玉県所沢市喜多町６−１４","ステータス":"APP_DISPLAY","region":"Tokorozawa","lat":35.798866,"lng":139.463409},{"店舗名":"MALIKA","住所":"〒359-1116 埼玉県所沢市東町１１−１","ステータス":"APP_DISPLAY","region":"Tokorozawa","lat":35.79007,"lng":139.4702},{"店舗名":"やきとり家 すみれ 所沢店","住所":"〒359-1116 埼玉県所沢市東町１２−２","ステータス":"APP_DISPLAY","region":"Tokorozawa","lat":35.789215,"lng":139.47084},{"店舗名":"ジェラフル 所沢店","住所":"〒359-1116 埼玉県所沢市東町５−２２","ステータス":"APP_DISPLAY","region":"Tokorozawa","lat":35.789097,"lng":139.470337},{"店舗名":"バーガーキング 所沢トコトコスクエア店","住所":"〒359-1116 埼玉県所沢市東町５−２２","ステータス":"APP_DISPLAY","region":"Tokorozawa","lat":35.789097,"lng":139.470337},{"店舗名":"吉野家 新所沢店","住所":"〒359-1118 埼玉県所沢市けやき台１丁目１３−６","ステータス":"APP_DISPLAY","region":"Tokorozawa","lat":35.797573,"lng":139.453705},{"店舗名":"五穀味噌らーめん 味噌屋蔵之介 所沢けやき台店","住所":"〒359-1118 埼玉県所沢市けやき台１丁目１４−１","ステータス":"APP_DISPLAY","region":"Tokorozawa","lat":35.798435,"lng":139.452225},{"店舗名":"【ドイツ製法手作りハム・ソーセージ】ゼーホフカフェ【所沢　けやき台】","住所":"〒359-1118 埼玉県所沢市けやき台１丁目８−５","ステータス":"APP_DISPLAY","region":"Tokorozawa","lat":35.798134,"lng":139.454727},{"店舗名":"からあげのおいしいお弁当屋さん","住所":"〒359-1118 埼玉県所沢市けやき台２丁目２９−９","ステータス":"APP_DISPLAY","region":"Tokorozawa","lat":35.799206,"lng":139.455978},{"店舗名":"韓国料理ニクロー","住所":"〒359-1122 埼玉県所沢市寿町２７−７","ステータス":"APP_DISPLAY","region":"Tokorozawa","lat":35.791683,"lng":139.467514},{"店舗名":"キングケバブ","住所":"〒359-1123 埼玉県所沢市日吉町１０−２２","ステータス":"APP_DISPLAY","region":"Tokorozawa","lat":35.787537,"lng":139.472412},{"店舗名":"オッパチーズ OPPA CHEESE","住所":"〒359-1123 埼玉県所沢市日吉町１０−２２","ステータス":"APP_DISPLAY","region":"Tokorozawa","lat":35.787537,"lng":139.472412},{"店舗名":"とんかつの和吉 所沢西口駅前店","住所":"〒359-1123 埼玉県所沢市日吉町１１−１９","ステータス":"APP_DISPLAY","region":"Tokorozawa","lat":35.787041,"lng":139.472717},{"店舗名":"目利きの銀次 所沢西口駅前店","住所":"〒359-1123 埼玉県所沢市日吉町１１−１９","ステータス":"APP_DISPLAY","region":"Tokorozawa","lat":35.787041,"lng":139.472717},{"店舗名":"カミナリステーキ 所沢西口駅前店","住所":"〒359-1123 埼玉県所沢市日吉町１１−１９","ステータス":"APP_DISPLAY","region":"Tokorozawa","lat":35.787041,"lng":139.472717},{"店舗名":"所沢大和家","住所":"〒359-1123 埼玉県所沢市日吉町１１−２","ステータス":"APP_DISPLAY","region":"Tokorozawa","lat":35.786789,"lng":139.472519},{"店舗名":"吉野家 所沢駅前店","住所":"〒359-1123 埼玉県所沢市日吉町１１−２０ フジビル １Ｆ","ステータス":"APP_DISPLAY","region":"Tokorozawa","lat":35.786915,"lng":139.472794},{"店舗名":"ケンタッキーフライドチキン 所沢駅前店","住所":"〒359-1123 埼玉県所沢市日吉町２−２","ステータス":"APP_DISPLAY","region":"Tokorozawa","lat":35.787178,"lng":139.472687},{"店舗名":"果茶果茶 所沢駅前","住所":"〒359-1123 埼玉県所沢市日吉町３−４","ステータス":"APP_DISPLAY","region":"Tokorozawa","lat":35.787575,"lng":139.472443},{"店舗名":"ごはんが進む！『チキン南蛮本舗』 所沢店","住所":"〒359-1123 埼玉県所沢市日吉町３−４","ステータス":"APP_DISPLAY","region":"Tokorozawa","lat":35.787575,"lng":139.472443},{"店舗名":"『油そば桐ちゃん』～食べログ百名店 桐麺監修～ 所沢駅前店","住所":"〒359-1123 埼玉県所沢市日吉町３−４","ステータス":"APP_DISPLAY","region":"Tokorozawa","lat":35.787575,"lng":139.472443},{"店舗名":"ミルゼリッチ 所沢駅前店","住所":"〒359-1123 埼玉県所沢市日吉町３−４","ステータス":"APP_DISPLAY","region":"Tokorozawa","lat":35.787575,"lng":139.472443},{"店舗名":"二段仕込み唐揚げ『鶏の福』 所沢駅前店","住所":"〒359-1123 埼玉県所沢市日吉町３−４","ステータス":"APP_DISPLAY","region":"Tokorozawa","lat":35.787575,"lng":139.472443},{"店舗名":"ビックエコーデリバリー 所沢駅前店","住所":"〒359-1123 埼玉県所沢市日吉町３−４ 1f","ステータス":"APP_DISPLAY","region":"Tokorozawa","lat":35.787575,"lng":139.472443},{"店舗名":"らーめん せい家 所沢店","住所":"〒359-1123 埼玉県所沢市日吉町３−６","ステータス":"APP_DISPLAY","region":"Tokorozawa","lat":35.787834,"lng":139.47226},{"店舗名":"フェリーチェ酒場","住所":"〒359-1123 埼玉県所沢市日吉町4-17","ステータス":"APP_DISPLAY","region":"Tokorozawa","lat":35.788258,"lng":139.472549},{"店舗名":"大戸屋ごはん処 所沢プロぺ通り店","住所":"〒359-1123 埼玉県所沢市日吉町８","ステータス":"APP_DISPLAY","region":"Tokorozawa","lat":35.788792,"lng":139.471771},{"店舗名":"ひねり蛇口ハイ 大衆酒泉テルマエ所沢泉","住所":"〒359-1123 埼玉県所沢市日吉町８−３","ステータス":"APP_DISPLAY","region":"Tokorozawa","lat":35.788609,"lng":139.471497},{"店舗名":"【からあげグランプリ金賞受賞】とりいちず所沢プロぺ通り店","住所":"〒359-1123 埼玉県所沢市日吉町８−４ ヤマ本ビル 1F","ステータス":"RECEIPT","region":"Tokorozawa","lat":35.788715,"lng":139.471375},{"店舗名":"串カツ田中 所沢店","住所":"〒359-1123 埼玉県所沢市日吉町８−６","ステータス":"APP_DISPLAY","region":"Tokorozawa","lat":35.788925,"lng":139.471146},{"店舗名":"大盛スタミナ肉丼 ニンニク野郎 所沢店","住所":"〒359-1123 埼玉県所沢市日吉町８−６","ステータス":"APP_DISPLAY","region":"Tokorozawa","lat":35.788925,"lng":139.471146},{"店舗名":"肉汁餃子のダンダダン 所沢店","住所":"〒359-1123 埼玉県所沢市日吉町８−７","ステータス":"APP_DISPLAY","region":"Tokorozawa","lat":35.789001,"lng":139.471069},{"店舗名":"フレッシュネスバーガー エミテラス所沢店","住所":"〒359-1124 埼玉県所沢市東住吉１０","ステータス":"APP_DISPLAY","region":"Tokorozawa","lat":35.785194,"lng":139.470795},{"店舗名":"クリスピー・クリーム・ドーナツ エミテラス所沢店","住所":"〒359-1124 埼玉県所沢市東住吉１０−１","ステータス":"APP_DISPLAY","region":"Tokorozawa","lat":35.785194,"lng":139.470795},{"店舗名":"武蔵國珈琲","住所":"〒359-1124 埼玉県所沢市東住吉１０−１","ステータス":"APP_DISPLAY","region":"Tokorozawa","lat":35.785194,"lng":139.470795},{"店舗名":"本格点心と台湾料理のダパイダン105 エミテラス所沢店","住所":"〒359-1124 埼玉県所沢市東住吉１０−１","ステータス":"APP_DISPLAY","region":"Tokorozawa","lat":35.785194,"lng":139.470795},{"店舗名":"七宝麻辣湯(チーパオマーラータン) 所沢店","住所":"〒359-1124 埼玉県所沢市東住吉１−４","ステータス":"APP_DISPLAY","region":"Tokorozawa","lat":35.785805,"lng":139.472321},{"店舗名":"バインミーシンチャオ所沢店","住所":"〒359-1124 埼玉県所沢市東住吉９－１","ステータス":"APP_DISPLAY","region":"Tokorozawa","lat":35.784542,"lng":139.472336},{"店舗名":"アサイー工房所沢","住所":"〒359-1124 埼玉県所沢市東住吉９−１","ステータス":"APP_DISPLAY","region":"Tokorozawa","lat":35.784542,"lng":139.472336},{"店舗名":"中華そばまるいち","住所":"〒359-1127 埼玉県所沢市星の宮１丁目２−８ ビューラ21","ステータス":"APP_DISPLAY","region":"Tokorozawa","lat":35.785793,"lng":139.463562},{"店舗名":"ステーキのどん　星の宮店","住所":"〒359-1127 埼玉県所沢市星の宮１丁目９−６","ステータス":"APP_DISPLAY","region":"Tokorozawa","lat":35.788094,"lng":139.46106},{"店舗名":"ドミノ・ピザ 所沢店","住所":"〒359-1128 埼玉県所沢市金山町１４−１２","ステータス":"PENDING","region":"Tokorozawa","lat":35.791008,"lng":139.460175},{"店舗名":"カッパカラアゲセンター","住所":"〒359-1131 埼玉県所沢市久米","ステータス":"APP_DISPLAY","region":"Tokorozawa","lat":35.78035,"lng":139.463135},{"店舗名":"小僧寿し 十人坂店","住所":"〒359-1131 埼玉県所沢市大字久米１１４１−１２","ステータス":"APP_DISPLAY","region":"Tokorozawa","lat":35.781895,"lng":139.46019},{"店舗名":"元祖 からあげの中津家 十人坂店","住所":"〒359-1131 埼玉県所沢市大字久米１１４１−１２","ステータス":"APP_DISPLAY","region":"Tokorozawa","lat":35.781895,"lng":139.46019},{"店舗名":"とんかつの和吉 小手指タワーズ店","住所":"〒359-1141 埼玉県所沢市小手指町１丁目","ステータス":"APP_DISPLAY","region":"Tokorozawa","lat":35.803318,"lng":139.439209},{"店舗名":"ニューナマステインディア","住所":"〒359-1141 埼玉県所沢市小手指町１丁目１６−３","ステータス":"APP_DISPLAY","region":"Tokorozawa","lat":35.801945,"lng":139.439484},{"店舗名":"鰻の成瀬 所沢小手指店","住所":"〒359-1141 埼玉県所沢市小手指町１丁目２２−１８","ステータス":"APP_DISPLAY","region":"Tokorozawa","lat":35.802193,"lng":139.44101},{"店舗名":"串カツ田中 小手指店","住所":"〒359-1141 埼玉県所沢市小手指町１丁目５","ステータス":"APP_DISPLAY","region":"Tokorozawa","lat":35.801571,"lng":139.438461},{"店舗名":"大盛スタミナ肉丼 ニンニク野郎 小手指店","住所":"〒359-1141 埼玉県所沢市小手指町１丁目５","ステータス":"APP_DISPLAY","region":"Tokorozawa","lat":35.801571,"lng":139.438461},{"店舗名":"目利きの銀次 小手指タワーズ店","住所":"〒359-1141 埼玉県所沢市小手指町１丁目６","ステータス":"APP_DISPLAY","region":"Tokorozawa","lat":35.801819,"lng":139.437912},{"店舗名":"カミナリステーキ 小手指タワーズ店","住所":"〒359-1141 埼玉県所沢市小手指町１丁目６","ステータス":"APP_DISPLAY","region":"Tokorozawa","lat":35.801819,"lng":139.437912},{"店舗名":"大衆鰻 うな銀 小手指タワーズ店","住所":"〒359-1141 埼玉県所沢市小手指町１丁目６−６ 小手指タワーズ","ステータス":"APP_DISPLAY","region":"Tokorozawa","lat":35.801819,"lng":139.437912},{"店舗名":"【本格インドカレー】印度亭小手指店 Indotei","住所":"〒359-1141 埼玉県所沢市小手指町３－１２－２６","ステータス":"APP_DISPLAY","region":"Tokorozawa","lat":35.799931,"lng":139.434006},{"店舗名":"炭鉄 小手指駅前店","住所":"〒359-1141 埼玉県所沢市小手指町３丁目１７","ステータス":"APP_DISPLAY","region":"Tokorozawa","lat":35.800003,"lng":139.436661},{"店舗名":"リンガーハット 埼玉所沢店","住所":"〒359-1142 埼玉県所沢市上新井２丁目８１−７","ステータス":"APP_DISPLAY","region":"Tokorozawa","lat":35.792007,"lng":139.44429},{"店舗名":"どうらく亭","住所":"〒359-1142 埼玉県所沢市上新井3-68-33","ステータス":"APP_DISPLAY","region":"Tokorozawa","lat":35.79882,"lng":139.440948},{"店舗名":"お持ち帰りの専門　ししとう","住所":"〒359-1142 埼玉県所沢市上新井３丁目２２−３０","ステータス":"APP_DISPLAY","region":"Tokorozawa","lat":35.794868,"lng":139.440063},{"店舗名":"VOLKS 所沢店","住所":"〒359-1142 埼玉県所沢市上新井４丁目３０−６","ステータス":"APP_DISPLAY","region":"Tokorozawa","lat":35.801613,"lng":139.445724},{"店舗名":"カレーハウス CoCo壱番屋 所沢上新井店","住所":"〒359-1142 埼玉県所沢市上新井５丁目９−１","ステータス":"APP_DISPLAY","region":"Tokorozawa","lat":35.795792,"lng":139.455719},{"店舗名":"うずら屋","住所":"〒359-1143 埼玉県所沢市宮本町２丁目５−８","ステータス":"APP_DISPLAY","region":"Tokorozawa","lat":35.795975,"lng":139.462753},{"店舗名":"RUNGRUEANG","住所":"〒359-1144","ステータス":"APP_DISPLAY","region":"Tokorozawa","lat":35.789436,"lng":139.457932},{"店舗名":"和風茶屋のびる","住所":"〒359-1144 埼玉県所沢市西所沢","ステータス":"APP_DISPLAY","region":"Tokorozawa","lat":35.789436,"lng":139.457932},{"店舗名":"KebabPizza&indiancurry","住所":"〒359-1144 埼玉県所沢市西所沢１丁目１０－４","ステータス":"APP_DISPLAY","region":"Tokorozawa","lat":35.78846,"lng":139.456955},{"店舗名":"たこ焼き たこ福","住所":"〒359-1144 埼玉県所沢市西所沢１丁目１０−４","ステータス":"APP_DISPLAY","region":"Tokorozawa","lat":35.78846,"lng":139.456955},{"店舗名":"シュリーガネーシャ","住所":"〒359-1144 埼玉県所沢市西所沢１丁目１６−１４","ステータス":"APP_DISPLAY","region":"Tokorozawa","lat":35.790813,"lng":139.456238},{"店舗名":"集宝亭","住所":"〒359-1144 埼玉県所沢市西所沢１丁目１７−１８","ステータス":"APP_DISPLAY","region":"Tokorozawa","lat":35.790298,"lng":139.456223},{"店舗名":"CHILLING","住所":"〒359-1144 埼玉県所沢市西所沢１丁目５−１７","ステータス":"APP_DISPLAY","region":"Tokorozawa","lat":35.789013,"lng":139.457886},{"店舗名":"小僧寿し 山口店","住所":"〒359-1145 埼玉県所沢市大字山口１４３４","ステータス":"APP_DISPLAY","region":"Tokorozawa","lat":35.778336,"lng":139.437378},{"店舗名":"インドネパールレストラン ヴィヤンジャン VYANJAN","住所":"〒359-1145 埼玉県所沢市山口 １５１７−２","ステータス":"APP_DISPLAY","region":"Tokorozawa","lat":35.778496,"lng":139.435104},{"店舗名":"元祖 からあげの中津家 山口店","住所":"〒359-1145 埼玉県所沢市山口１４３４","ステータス":"APP_DISPLAY","region":"Tokorozawa","lat":35.778336,"lng":139.437378},{"店舗名":"インドネパールレストラン ヴィヤンジャン","住所":"〒359-1145 埼玉県所沢市山口１５１７−２","ステータス":"APP_DISPLAY","region":"Tokorozawa","lat":35.778496,"lng":139.435104},{"店舗名":"港女茶餐車","住所":"〒359-1145 埼玉県所沢市山口１９４９−２１","ステータス":"APP_DISPLAY","region":"Tokorozawa","lat":35.775921,"lng":139.429779},{"店舗名":"INDIAN RESTAURANT ＆ BAR ANANDA","住所":"〒359-1146 埼玉県所沢市小手指南２丁目１−１","ステータス":"APP_DISPLAY","region":"Tokorozawa","lat":35.790085,"lng":139.438995},{"店舗名":"cotecafe","住所":"〒359-1147 埼玉県所沢市小手指元町１丁目８−１８","ステータス":"APP_DISPLAY","region":"Tokorozawa","lat":35.794636,"lng":139.435974},{"店舗名":"【カラダが喜ぶオムライスCafe】Egg House～西所沢店～","住所":"〒359-1148 埼玉県所沢市小手指台","ステータス":"APP_DISPLAY","region":"Tokorozawa","lat":35.79166,"lng":139.442001},{"店舗名":"【アサイー＆グリークヨーグルト】Crunchy Treasure（クランチー・トレジャー）～西所沢店～","住所":"〒359-1148 埼玉県所沢市小手指台","ステータス":"APP_DISPLAY","region":"Tokorozawa","lat":35.79166,"lng":139.442001},{"店舗名":"【チキンステーキ弁当】Master Of Chicken～西所沢店～","住所":"〒359-1148 埼玉県所沢市小手指台","ステータス":"APP_DISPLAY","region":"Tokorozawa","lat":35.79166,"lng":139.442001},{"店舗名":"【和牛ハンバーグステーキ弁当】GOD OF MEAT～西所沢店～","住所":"〒359-1148 埼玉県所沢市小手指台","ステータス":"APP_DISPLAY","region":"Tokorozawa","lat":35.79166,"lng":139.442001},{"店舗名":"【出汁の親子丼】鶏ヶ屋(TORIGAYA)～西所沢店～","住所":"〒359-1148 埼玉県所沢市小手指台","ステータス":"APP_DISPLAY","region":"Tokorozawa","lat":35.79166,"lng":139.442001},{"店舗名":"バーガーキング マミーマート所沢山口店","住所":"〒359-1148 埼玉県所沢市小手指台２３−１","ステータス":"APP_DISPLAY","region":"Tokorozawa","lat":35.791473,"lng":139.442703},{"店舗名":"Moon Curry","住所":"〒359-1148 埼玉県所沢市小手指台９−１","ステータス":"APP_DISPLAY","region":"Tokorozawa","lat":35.790539,"lng":139.442474},{"店舗名":"【タレ香る十勝豚丼】豚龍BUTARYU～西所沢店～","住所":"〒359-1148 埼玉県所沢市小手指台９−１","ステータス":"APP_DISPLAY","region":"Tokorozawa","lat":35.790539,"lng":139.442474},{"店舗名":"ドミノ・ピザ 狭山ヶ丘店","住所":"〒359-1151 埼玉県所沢市若狭４丁目２４６８−３","ステータス":"APP_DISPLAY","region":"Tokorozawa","lat":35.804432,"lng":139.413467},{"店舗名":"コナズ珈琲 所沢店","住所":"〒359-1152 埼玉県所沢市北野１丁目２−６１","ステータス":"APP_DISPLAY","region":"Tokorozawa","lat":35.795303,"lng":139.426788},{"店舗名":"丸源ラーメン 所沢北野店","住所":"〒359-1152 埼玉県所沢市北野２丁目１−１","ステータス":"APP_DISPLAY","region":"Tokorozawa","lat":35.796947,"lng":139.426697},{"店舗名":"台湾料理 龍福","住所":"〒359-1153 埼玉県所沢市上山口１３７−１","ステータス":"APP_DISPLAY","region":"Tokorozawa","lat":35.777496,"lng":139.42482},{"店舗名":"京都北白川 ラーメン魁力屋所沢小手指店","住所":"〒359-1161 埼玉県所沢市東狭山ケ丘４丁目２６７３−８","ステータス":"APP_DISPLAY","region":"Tokorozawa","lat":35.809101,"lng":139.428162},{"店舗名":"カラフジ狭山ヶ丘店","住所":"〒359-1161 埼玉県所沢市狭山ケ丘１丁目２９９３−１","ステータス":"APP_DISPLAY","region":"Tokorozawa","lat":35.81041,"lng":139.416443},{"店舗名":"Kitchen King","住所":"〒359-1161 埼玉県所沢市狭山ケ丘１丁目２９９４－１","ステータス":"APP_DISPLAY","region":"Tokorozawa","lat":35.808304,"lng":139.415039},{"店舗名":"鉄板ダイニング&カフェ Ricars〜リッカーズ〜","住所":"〒359-1161 埼玉県所沢市狭山ケ丘１丁目３００３ コート狭山ヶ丘 12JUN 101","ステータス":"APP_DISPLAY","region":"Tokorozawa","lat":35.809231,"lng":139.414047},{"店舗名":"所沢牛焼肉べこ助","住所":"〒359-1162","ステータス":"APP_DISPLAY","region":"Tokorozawa","lat":35.806866,"lng":139.410675},{"店舗名":"黒墨商店 所沢店","住所":"〒359-1162","ステータス":"RECEIPT","region":"Tokorozawa","lat":35.806866,"lng":139.410675},{"店舗名":"菓心かめだや","住所":"〒359-1162 埼玉県所沢市和ケ原1-112-10","ステータス":"APP_DISPLAY","region":"Tokorozawa","lat":35.808132,"lng":139.41124},{"店舗名":"インド料理 SANGAM","住所":"〒359-1162 埼玉県所沢市和ケ原１－１２１－２３","ステータス":"APP_DISPLAY","region":"Tokorozawa","lat":35.80661,"lng":139.410156},{"店舗名":"寿司の大黒屋狭山ヶ丘店","住所":"〒359-1162 埼玉県所沢市和ケ原１丁目４１−１７","ステータス":"APP_DISPLAY","region":"Tokorozawa","lat":35.807987,"lng":139.412155},{"店舗名":"噂の最強唐揚げ～蕎麦ダイニング佳心～","住所":"〒359-1162 埼玉県所沢市和ケ原１丁目４１−８","ステータス":"APP_DISPLAY","region":"Tokorozawa","lat":35.807987,"lng":139.412155},{"店舗名":"LITTLE HAWKER","住所":"〒359-1163 埼玉県所沢市西狭山ケ丘１丁目２３７−１４","ステータス":"APP_DISPLAY","region":"Tokorozawa","lat":35.805351,"lng":139.407867},{"店舗名":"たこ焼きのんちゃん 居酒屋おんなの宿","住所":"〒359-1163 埼玉県所沢市西狭山ケ丘１丁目２４６０−６１","ステータス":"APP_DISPLAY","region":"Tokorozawa","lat":35.804241,"lng":139.41217},{"店舗名":"Asian Sky Garden","住所":"〒359-1167 埼玉県所沢市林３丁目５５３−１","ステータス":"APP_DISPLAY","region":"Tokorozawa","lat":35.808964,"lng":139.403244},{"店舗名":"かつや 所沢林店","住所":"〒359-1167 埼玉県所沢市林３丁目５５７−１","ステータス":"APP_DISPLAY","region":"Tokorozawa","lat":35.810284,"lng":139.403198},{"店舗名":"リンガーハット 西武所沢S.C.店","住所":"〒359-1198 埼玉県所沢市日吉町１２−１","ステータス":"APP_DISPLAY","region":"Tokorozawa","lat":35.78648,"lng":139.472},{"店舗名":"おだしのカレーとスパイス酒場　ハレノヒ","住所":"埼玉県所沢市小手指町1-21-12","ステータス":"APP_DISPLAY","region":"Tokorozawa","lat":35.801945,"lng":139.441635},{"店舗名":"麺屋こころ長野佐久店","住所":"埼玉県所沢市日吉町１０－２０","ステータス":"RECEIPT","region":"Tokorozawa","lat":35.787758,"lng":139.47226},{"店舗名":"マザーリーフティースタイル　グランエミオ所沢店","住所":"所沢市くすのき台1-14-5　グランエミオ所沢3階　ＴＳＵＴＡＹＡ　ブックストア内","ステータス":"APP_DISPLAY","region":"Tokorozawa","lat":35.78746,"lng":139.473984}]