[{"店舗名":"からあげや【カリッジュ】徳島本店","住所":"〒770-0005","ステータス":"RECEIPT","region":"Tokushima","lat":34.083145,"lng":134.529953},{"店舗名":"珈琲日出蔵二番館","住所":"〒770-0011 徳島県徳島市北佐古一番町５８－1","ステータス":"RECEIPT","region":"Tokushima","lat":34.081791,"lng":134.539398},{"店舗名":"金剛","住所":"〒770-0022","ステータス":"RECEIPT","region":"Tokushima","lat":34.078434,"lng":134.538498},{"店舗名":"ぱんぷきっちん","住所":"〒770-0025 徳島県徳島市佐古五番町１１−３","ステータス":"RECEIPT","region":"Tokushima","lat":34.079201,"lng":134.531784},{"店舗名":"無添加たいやき屋 きいち","住所":"〒770-0025 徳島県徳島市佐古五番町１４−８ メディソン佐古","ステータス":"RECEIPT","region":"Tokushima","lat":34.07975,"lng":134.531052},{"店舗名":"焼そば専門店 突貫亭 佐古店","住所":"〒770-0027 徳島県徳島市佐古七番町３−２７","ステータス":"RECEIPT","region":"Tokushima","lat":34.078068,"lng":134.524155},{"店舗名":"マイシンカレー","住所":"〒770-0037 徳島県徳島市南佐古七番町８−８","ステータス":"RECEIPT","region":"Tokushima","lat":34.074226,"lng":134.524994},{"店舗名":"合同会社DANIX","住所":"〒770-0042","ステータス":"RECEIPT","region":"Tokushima","lat":34.077263,"lng":134.519943},{"店舗名":"Halal Kebab","住所":"〒770-0042","ステータス":"RECEIPT","region":"Tokushima","lat":34.077263,"lng":134.519943},{"店舗名":"すぎもと　きんたろう商店","住所":"〒770-0046 徳島県徳島市鮎喰町１丁目２３５−１","ステータス":"RECEIPT","region":"Tokushima","lat":34.072533,"lng":134.503632},{"店舗名":"ネパール・インド料理 タンドリーキッチンパフナ","住所":"〒770-0052 徳島県徳島市中島田町２丁目３３−１","ステータス":"RECEIPT","region":"Tokushima","lat":34.082741,"lng":134.512146},{"店舗名":"インドネパールカレー スープカレー イチゴ 15 吉野本町店","住所":"〒770-0802 徳島県徳島市吉野本町５丁目３９−２ あごおとし","ステータス":"RECEIPT","region":"Tokushima","lat":34.085148,"lng":134.552399},{"店舗名":"水谷珈琲店","住所":"〒770-0804 徳島県徳島市中吉野町４丁目３４−２０","ステータス":"RECEIPT","region":"Tokushima","lat":34.084782,"lng":134.549591},{"店舗名":"THE ACAI TOKYO徳島中央店","住所":"〒770-0813 徳島県徳島市中常三島町","ステータス":"RECEIPT","region":"Tokushima","lat":34.079597,"lng":134.560226},{"店舗名":"辻堂餃子店","住所":"〒770-0843","ステータス":"RECEIPT","region":"Tokushima","lat":34.07082,"lng":134.552216},{"店舗名":"愛宝麻辣烫","住所":"〒770-0843 徳島県徳島市両国本町","ステータス":"RECEIPT","region":"Tokushima","lat":34.07082,"lng":134.552216},{"店舗名":"Culture&Spice KOPOLI","住所":"〒770-0843 徳島県徳島市両国本町１丁目２１ 幸栄ビル １階","ステータス":"RECEIPT","region":"Tokushima","lat":34.070263,"lng":134.551666},{"店舗名":"369キッチン","住所":"〒770-0847 徳島県徳島市幸町３丁目５−２","ステータス":"RECEIPT","region":"Tokushima","lat":34.069191,"lng":134.554077},{"店舗名":"からあげ専門店 から家 市立体育館前店","住所":"〒770-0851 徳島県徳島市徳島町城内６−８１","ステータス":"RECEIPT","region":"Tokushima","lat":34.077332,"lng":134.54863},{"店舗名":"まるほのベビーカステラ","住所":"〒770-0866 徳島県徳島市末広","ステータス":"RECEIPT","region":"Tokushima","lat":34.064175,"lng":134.569122},{"店舗名":"焼そば専門店 突貫亭 金沢本店","住所":"〒770-0871 徳島県徳島市金沢２丁目２−３７","ステータス":"RECEIPT","region":"Tokushima","lat":34.071842,"lng":134.586594},{"店舗名":"ポカラダイニング徳島店","住所":"〒770-0874 徳島県徳島市南沖洲１丁目２−４","ステータス":"RECEIPT","region":"Tokushima","lat":34.066822,"lng":134.58432},{"店舗名":"テーマ、OKAZU。","住所":"〒770-0911 徳島県徳島市東船場町","ステータス":"RECEIPT","region":"Tokushima","lat":34.070648,"lng":134.54866},{"店舗名":"お好み焼 いか十","住所":"〒770-0912 徳島県徳島市東新町１丁目２８−１","ステータス":"RECEIPT","region":"Tokushima","lat":34.070011,"lng":134.547684},{"店舗名":"麺屋 やま樹","住所":"〒770-0913 徳島県徳島市南新町１丁目１５","ステータス":"RECEIPT","region":"Tokushima","lat":34.069798,"lng":134.546982},{"店舗名":"ダイニングバー GOLAZO (ゴラッソ)","住所":"〒770-0917 徳島県徳島市両国橋２１−２ b1f","ステータス":"RECEIPT","region":"Tokushima","lat":34.0676,"lng":134.550171},{"店舗名":"餃子と牛丼　たけちゃん","住所":"〒770-0934 徳島県德島市秋田町1丁目29番地","ステータス":"RECEIPT","region":"Tokushima","lat":34.065762,"lng":134.55928},{"店舗名":"からあげ専門店 から家 秋田町店","住所":"〒770-0934 徳島県徳島市秋田町１丁目18−１","ステータス":"RECEIPT","region":"Tokushima","lat":34.06588,"lng":134.54953},{"店舗名":"天ぷら麻布3代目泉家","住所":"〒770-0934 徳島県徳島市秋田町１丁目２８−１","ステータス":"RECEIPT","region":"Tokushima","lat":34.065365,"lng":134.549698},{"店舗名":"個室居酒屋 わか waka","住所":"〒770-0934 徳島県徳島市秋田町１丁目３２","ステータス":"RECEIPT","region":"Tokushima","lat":34.06551,"lng":134.549332},{"店舗名":"ハピネスキッチン1","住所":"〒770-0937 徳島県徳島市富田橋５丁目１１−４ プチ・メゾン 富田","ステータス":"RECEIPT","region":"Tokushima","lat":34.059299,"lng":134.5513},{"店舗名":"絹家 -炭火焼鳥とおにぎりのお店-","住所":"〒770-0942 徳島県徳島市昭和町２丁目５ 松本ビル 1F","ステータス":"RECEIPT","region":"Tokushima","lat":34.064739,"lng":134.559006},{"店舗名":"N's Burger","住所":"〒770-0944 徳島県徳島市南昭和町４丁目６６","ステータス":"RECEIPT","region":"Tokushima","lat":34.056133,"lng":134.560257},{"店舗名":"キャトル アンファン","住所":"〒770-8006 徳島県徳島市新浜町２丁目４−２５","ステータス":"RECEIPT","region":"Tokushima","lat":34.049984,"lng":134.567917},{"店舗名":"カフェと雑貨 Couleur","住所":"〒770-8040 徳島県徳島市上八万町中山１７−４４１","ステータス":"RECEIPT","region":"Tokushima","lat":34.030098,"lng":134.506409},{"店舗名":"神屋銀","住所":"〒771-0103 徳島県徳島市川内町小松東","ステータス":"RECEIPT","region":"Tokushima","lat":34.08749,"lng":134.592682},{"店舗名":"やどり菜","住所":"〒771-1151 徳島県徳島市応神町古川戎子野１３９−１２","ステータス":"RECEIPT","region":"Tokushima","lat":34.103783,"lng":134.55217},{"店舗名":"【創作パスタ/ピザ】SCENA","住所":"〒779-3114 徳島県徳島市国府町桜間字家内田１８−１","ステータス":"RECEIPT","region":"Tokushima","lat":34.083054,"lng":134.467499},{"店舗名":"インドネパールカレー&スープカレー イチゴ 15 国府町店","住所":"〒779-3121 徳島県徳島市国府町和田表１８−６ ハッピーマンション","ステータス":"RECEIPT","region":"Tokushima","lat":34.071774,"lng":134.489349},{"店舗名":"鶏笑国府店","住所":"〒779-3122 徳島県徳島市国府町府中５９２","ステータス":"RECEIPT","region":"Tokushima","lat":34.071957,"lng":134.480911}]