[{"店舗名":"ぷらっとイタリアンCheStrano","住所":"〒053-0004","ステータス":"APP_DISPLAY","region":"Tomakomai","lat":42.632999,"lng":141.62233},{"店舗名":"ラーメン茶湖","住所":"〒053-0004","ステータス":"APP_DISPLAY","region":"Tomakomai","lat":42.632999,"lng":141.62233},{"店舗名":"スーリヤ苫小牧店","住所":"〒053-0006","ステータス":"RECEIPT","region":"Tomakomai","lat":42.644375,"lng":141.617325},{"店舗名":"スープカレー・ネパールカレースーリヤ苫小牧店","住所":"〒053-0006 北海道苫小牧市新中野町３丁目２０−９","ステータス":"APP_DISPLAY","region":"Tomakomai","lat":42.643269,"lng":141.609039},{"店舗名":"BluRo Liseron","住所":"〒053-0015","ステータス":"APP_DISPLAY","region":"Tomakomai","lat":42.628647,"lng":141.595993},{"店舗名":"和伊ん場","住所":"〒053-0015 北海道苫小牧市本幸町","ステータス":"APP_DISPLAY","region":"Tomakomai","lat":42.628647,"lng":141.595993},{"店舗名":"和伊ん場 wainba","住所":"〒053-0015 北海道苫小牧市本幸町","ステータス":"APP_DISPLAY","region":"Tomakomai","lat":42.628647,"lng":141.595993},{"店舗名":"四季の味 熊谷","住所":"〒053-0022","ステータス":"RECEIPT","region":"Tomakomai","lat":42.634953,"lng":141.602539},{"店舗名":"【海鮮居酒屋の鶏ザンギ】苫小牧新鮮魚市場","住所":"〒053-0022 北海道苫小牧市表町２丁目","ステータス":"RECEIPT","region":"Tomakomai","lat":42.634014,"lng":141.600479},{"店舗名":"大衆鰻 うな銀 苫小牧表町2丁目店","住所":"〒053-0022 北海道苫小牧市表町２丁目２−１０","ステータス":"APP_DISPLAY","region":"Tomakomai","lat":42.633949,"lng":141.599899},{"店舗名":"千年の宴 苫小牧表町2丁目店","住所":"〒053-0022 北海道苫小牧市表町２丁目２−１０","ステータス":"APP_DISPLAY","region":"Tomakomai","lat":42.633949,"lng":141.599899},{"店舗名":"濃厚鶏白湯つけ麺 どっかん 苫小牧表町2丁目店","住所":"〒053-0022 北海道苫小牧市表町２丁目２−１０","ステータス":"APP_DISPLAY","region":"Tomakomai","lat":42.633949,"lng":141.599899},{"店舗名":"福福屋 苫小牧表町2丁目店","住所":"〒053-0022 北海道苫小牧市表町２丁目２−１０","ステータス":"APP_DISPLAY","region":"Tomakomai","lat":42.633949,"lng":141.599899},{"店舗名":"韓国クリスピーチキン＆HOTドッグ　チキンモッコパ 苫小牧表町2丁目店","住所":"〒053-0022 北海道苫小牧市表町２丁目２−１０","ステータス":"APP_DISPLAY","region":"Tomakomai","lat":42.633949,"lng":141.599899},{"店舗名":"ビビンバ・カルビ丼・スンドゥブ グンチャン 苫小牧表町2丁目店","住所":"〒053-0022 北海道苫小牧市表町２丁目２−１０","ステータス":"APP_DISPLAY","region":"Tomakomai","lat":42.633949,"lng":141.599899},{"店舗名":"センチュリースープカレー＆インドネパールカレー","住所":"〒053-0022 北海道苫小牧市表町２丁目２−２２","ステータス":"APP_DISPLAY","region":"Tomakomai","lat":42.634537,"lng":141.601028},{"店舗名":"油そば輝麺組（Bar Gento内）","住所":"〒053-0023","ステータス":"RECEIPT","region":"Tomakomai","lat":42.632275,"lng":141.598846},{"店舗名":"ジンギスカン鷹 苫小牧店","住所":"〒053-0023 北海道苫小牧市錦町","ステータス":"APP_DISPLAY","region":"Tomakomai","lat":42.632275,"lng":141.598846},{"店舗名":"海鮮炭火焼き居酒屋 八福","住所":"〒053-0023 北海道苫小牧市錦町","ステータス":"APP_DISPLAY","region":"Tomakomai","lat":42.632275,"lng":141.598846},{"店舗名":"鮨天","住所":"〒053-0023 北海道苫小牧市錦町１丁目２−１","ステータス":"APP_DISPLAY","region":"Tomakomai","lat":42.632099,"lng":141.599686},{"店舗名":"らーめん極 錦町店","住所":"〒053-0023 北海道苫小牧市錦町２丁目３−７","ステータス":"APP_DISPLAY","region":"Tomakomai","lat":42.632004,"lng":141.596924},{"店舗名":"カフェラウンジ SATInサテン","住所":"〒053-0023 北海道苫小牧市錦町２丁目５−７ 北海ビル","ステータス":"APP_DISPLAY","region":"Tomakomai","lat":42.633102,"lng":141.59729},{"店舗名":"樂食中華 孝","住所":"〒053-0025 北海道苫小牧市本町２丁目１−１１ 苫小牧中央ボウル","ステータス":"APP_DISPLAY","region":"Tomakomai","lat":42.631046,"lng":141.594086},{"店舗名":"麺の房長久命 とん助 春日店","住所":"〒053-0031 北海道苫小牧市春日町３丁目","ステータス":"APP_DISPLAY","region":"Tomakomai","lat":42.648571,"lng":141.601105},{"店舗名":"麺屋 樹 苫小牧店","住所":"〒053-0033","ステータス":"RECEIPT","region":"Tomakomai","lat":42.641499,"lng":141.596558},{"店舗名":"たこ焼 ぺちゃ焼 あほや","住所":"〒053-0033 北海道苫小牧市木場町１丁目６−１","ステータス":"APP_DISPLAY","region":"Tomakomai","lat":42.640896,"lng":141.596252},{"店舗名":"ベビーフェイスプラネッツ苫小牧店","住所":"〒053-0033 北海道苫小牧市木場町１丁目６−１","ステータス":"APP_DISPLAY","region":"Tomakomai","lat":42.640896,"lng":141.596252},{"店舗名":"コスパ最強海鮮丼 大漁丼家 苫小牧本店","住所":"〒053-0041 北海道苫小牧市美園町","ステータス":"APP_DISPLAY","region":"Tomakomai","lat":42.661446,"lng":141.618378},{"店舗名":"札幌海鮮丸 苫小牧東店 Sapporokaisenmaru Tomakomaihigashiten","住所":"〒053-0041 北海道苫小牧市美園町１丁目４−１","ステータス":"RECEIPT","region":"Tomakomai","lat":42.658695,"lng":141.618378},{"店舗名":"ネパールレストラン SAINO苫小牧店","住所":"〒053-0041 北海道苫小牧市美園町２丁目１０−１０","ステータス":"APP_DISPLAY","region":"Tomakomai","lat":42.657658,"lng":141.611542},{"店舗名":"麺屋中華","住所":"〒053-0042 北海道苫小牧市三光町","ステータス":"APP_DISPLAY","region":"Tomakomai","lat":42.653809,"lng":141.62471},{"店舗名":"ニボシの恵","住所":"〒053-0043 北海道苫小牧市日の出町１丁目５−３０","ステータス":"RECEIPT","region":"Tomakomai","lat":42.651638,"lng":141.624222},{"店舗名":"味の鉄砲","住所":"〒053-0047 北海道苫小牧市泉町１丁目１−８","ステータス":"APP_DISPLAY","region":"Tomakomai","lat":42.656075,"lng":141.610641},{"店舗名":"山の猿 苫小牧柳町店","住所":"〒053-0053 北海道苫小牧市柳町４丁目１９−２８","ステータス":"APP_DISPLAY","region":"Tomakomai","lat":42.65292,"lng":141.628021},{"店舗名":"クレープパーラーJewel","住所":"〒053-0054 北海道苫小牧市明野新町","ステータス":"APP_DISPLAY","region":"Tomakomai","lat":42.657368,"lng":141.637177},{"店舗名":"かつてん 苫小牧総本店","住所":"〒053-0054 北海道苫小牧市明野新町１丁目１ カーサヴィオラ","ステータス":"APP_DISPLAY","region":"Tomakomai","lat":42.657307,"lng":141.639114},{"店舗名":"みよしの 苫小牧明野店","住所":"〒053-0054 北海道苫小牧市明野新町１丁目２","ステータス":"RECEIPT","region":"Tomakomai","lat":42.656357,"lng":141.636307},{"店舗名":"横濱家系ラーメン 前田家　苫小牧店","住所":"〒053-0054 北海道苫小牧市明野新町１丁目２－２０","ステータス":"APP_DISPLAY","region":"Tomakomai","lat":42.655659,"lng":141.634857},{"店舗名":"ピザハット 苫小牧明野新町店","住所":"〒053-0054 北海道苫小牧市明野新町４丁目１−１６","ステータス":"APP_DISPLAY","region":"Tomakomai","lat":42.660614,"lng":141.638214},{"店舗名":"チキン・ウイングストリート 苫小牧明野新町店","住所":"〒053-0054 北海道苫小牧市明野新町４丁目１−１６","ステータス":"APP_DISPLAY","region":"Tomakomai","lat":42.660614,"lng":141.638214},{"店舗名":"トスカーニパスタ 苫小牧明野新町店","住所":"〒053-0054 北海道苫小牧市明野新町４丁目１−１６","ステータス":"APP_DISPLAY","region":"Tomakomai","lat":42.660614,"lng":141.638214},{"店舗名":"居酒屋 たかやん","住所":"〒053-0054 北海道苫小牧市明野新町６丁目３１−６","ステータス":"APP_DISPLAY","region":"Tomakomai","lat":42.660564,"lng":141.624863},{"店舗名":"中華料理 八珍玉","住所":"〒053-0805 北海道苫小牧市新富町","ステータス":"APP_DISPLAY","region":"Tomakomai","lat":42.624897,"lng":141.576004},{"店舗名":"そば処 今々亭","住所":"〒053-0806 北海道苫小牧市大成町１丁目７−１","ステータス":"APP_DISPLAY","region":"Tomakomai","lat":42.626492,"lng":141.575745},{"店舗名":"やき鳥 光洋店","住所":"〒053-0811","ステータス":"APP_DISPLAY","region":"Tomakomai","lat":42.622738,"lng":141.564453},{"店舗名":"ヒマラヤダイニング 糸井店","住所":"〒053-0814 北海道苫小牧市糸井７１−３","ステータス":"APP_DISPLAY","region":"Tomakomai","lat":42.616234,"lng":141.538788},{"店舗名":"鶏から屋 さとちゃん店","住所":"〒053-0821 北海道苫小牧市しらかば町３丁目３１−１９ 開道マンションＣ","ステータス":"APP_DISPLAY","region":"Tomakomai","lat":42.624531,"lng":141.534683},{"店舗名":"札幌海鮮丸 苫小牧西店","住所":"〒053-0821 北海道苫小牧市しらかば町６丁目１５−２０","ステータス":"PENDING","region":"Tomakomai","lat":42.62907,"lng":141.546097},{"店舗名":"一休そば川沿店","住所":"〒053-0822 北海道苫小牧市川沿町","ステータス":"APP_DISPLAY","region":"Tomakomai","lat":42.619637,"lng":141.531906},{"店舗名":"居酒屋あおちゃん","住所":"〒053-0823 北海道苫小牧市柏木町","ステータス":"RECEIPT","region":"Tomakomai","lat":42.625519,"lng":141.529404},{"店舗名":"きたや食堂","住所":"〒053-0823 北海道苫小牧市柏木町１丁目２３−２２","ステータス":"RECEIPT","region":"Tomakomai","lat":42.627682,"lng":141.530975},{"店舗名":"DIYOスパイスダイニング 苫小牧店","住所":"〒053-0831 北海道苫小牧市豊川町２丁目１−７","ステータス":"APP_DISPLAY","region":"Tomakomai","lat":42.63269,"lng":141.555054},{"店舗名":"ピザハット 苫小牧豊川店","住所":"〒053-0831 北海道苫小牧市豊川町２丁目２−４","ステータス":"APP_DISPLAY","region":"Tomakomai","lat":42.632519,"lng":141.554062},{"店舗名":"チキン・ウイングストリート 苫小牧豊川店","住所":"〒053-0831 北海道苫小牧市豊川町２丁目２−４","ステータス":"APP_DISPLAY","region":"Tomakomai","lat":42.632519,"lng":141.554062},{"店舗名":"トスカーニパスタ 苫小牧豊川店","住所":"〒053-0831 北海道苫小牧市豊川町２丁目２−４","ステータス":"APP_DISPLAY","region":"Tomakomai","lat":42.632519,"lng":141.554062},{"店舗名":"山の猿 苫小牧日新町店","住所":"〒053-0833 北海道苫小牧市日新町２丁目１−３５","ステータス":"APP_DISPLAY","region":"Tomakomai","lat":42.628807,"lng":141.543121},{"店舗名":"天ぷらめし天丼 三代目 真之 苫小牧日新町店","住所":"〒053-0833 北海道苫小牧市日新町２丁目１−３５","ステータス":"RECEIPT","region":"Tomakomai","lat":42.628807,"lng":141.543121},{"店舗名":"北州食彩","住所":"〒053-0855 北海道苫小牧市見山町２丁目１−５","ステータス":"APP_DISPLAY","region":"Tomakomai","lat":42.638275,"lng":141.570877},{"店舗名":"そば処 東家","住所":"〒053-0855 北海道苫小牧市見山町２丁目２−１","ステータス":"APP_DISPLAY","region":"Tomakomai","lat":42.638035,"lng":141.570328},{"店舗名":"麺や鶏恵 ときわ店","住所":"〒059-1261 北海道苫小牧市ときわ町６丁目２３−３５","ステータス":"RECEIPT","region":"Tomakomai","lat":42.620193,"lng":141.519913},{"店舗名":"無添加専門パン屋 PanSal","住所":"〒059-1262 北海道苫小牧市美原町２丁目２７−１３","ステータス":"APP_DISPLAY","region":"Tomakomai","lat":42.612362,"lng":141.496948},{"店舗名":"いろどり鶏","住所":"〒059-1271 北海道苫小牧市澄川町２丁目","ステータス":"APP_DISPLAY","region":"Tomakomai","lat":42.620464,"lng":141.515015},{"店舗名":"三代目鳥よし","住所":"〒059-1271 北海道苫小牧市澄川町２丁目１−１０","ステータス":"APP_DISPLAY","region":"Tomakomai","lat":42.619038,"lng":141.515442},{"店舗名":"あほや澄川店","住所":"〒059-1271 北海道苫小牧市澄川町４丁目２−１３","ステータス":"APP_DISPLAY","region":"Tomakomai","lat":42.615887,"lng":141.505127},{"店舗名":"Cafe Bar May","住所":"〒059-1272","ステータス":"APP_DISPLAY","region":"Tomakomai","lat":42.615879,"lng":141.501938},{"店舗名":"【チーズナン カレー セットが人気！本格インドカレー】インドネパールカレー ナマステ 苫小牧店【苫小牧市 のぞみ町】","住所":"〒059-1272 北海道苫小牧市のぞみ町１丁目１５−２３","ステータス":"APP_DISPLAY","region":"Tomakomai","lat":42.617409,"lng":141.502136},{"店舗名":"curry house  Gurkha苫小牧　curry house GurkhaTomakomai","住所":"〒059-1272 北海道苫小牧市のぞみ町２丁目２−５","ステータス":"APP_DISPLAY","region":"Tomakomai","lat":42.612782,"lng":141.497192},{"店舗名":"多国籍フードバル　ドリームビーチ","住所":"〒059-1273","ステータス":"APP_DISPLAY","region":"Tomakomai","lat":42.612411,"lng":141.49295},{"店舗名":"炭火焼 本陣","住所":"〒059-1273 北海道苫小牧市明徳町","ステータス":"APP_DISPLAY","region":"Tomakomai","lat":42.612411,"lng":141.49295},{"店舗名":"ぎょうざの宝永 苫小牧","住所":"〒059-1277 北海道苫小牧市北星町２丁目２９−７","ステータス":"APP_DISPLAY","region":"Tomakomai","lat":42.601276,"lng":141.462234},{"店舗名":"お食事処 八っちゃん","住所":"〒059-1301 北海道苫小牧市東開町５丁目１５−１６","ステータス":"APP_DISPLAY","region":"Tomakomai","lat":42.667973,"lng":141.693451},{"店舗名":"麺の房 長久命 とん助 拓勇店","住所":"〒059-1303 北海道苫小牧市拓勇東町３丁目","ステータス":"APP_DISPLAY","region":"Tomakomai","lat":42.671204,"lng":141.676697},{"店舗名":"アジアンダイニングGocoo","住所":"〒059-1303 北海道苫小牧市拓勇東町４丁目１８-３７","ステータス":"APP_DISPLAY","region":"Tomakomai","lat":42.675331,"lng":141.683594},{"店舗名":"ハイからや","住所":"〒059-1304","ステータス":"APP_DISPLAY","region":"Tomakomai","lat":42.675098,"lng":141.692093},{"店舗名":"Japanese Noodle House さくら","住所":"〒059-1304 北海道苫小牧市北栄町","ステータス":"APP_DISPLAY","region":"Tomakomai","lat":42.675098,"lng":141.692093},{"店舗名":"ヒマラヤダイニング苫小牧店","住所":"〒059-1304 北海道苫小牧市北栄町１丁目１９−１","ステータス":"APP_DISPLAY","region":"Tomakomai","lat":42.675568,"lng":141.693954},{"店舗名":"LEAKOA","住所":"〒059-1305","ステータス":"APP_DISPLAY","region":"Tomakomai","lat":42.674309,"lng":141.704941},{"店舗名":"麺や鶏恵 沼ノ端店","住所":"〒059-1306 北海道苫小牧市ウトナイ北４丁目","ステータス":"RECEIPT","region":"Tomakomai","lat":42.680592,"lng":141.690247},{"店舗名":"かつや　北海道苫小牧店","住所":"北海道苫小牧市旭町4-8-12","ステータス":"APP_DISPLAY","region":"Tomakomai","lat":42.635235,"lng":141.605698},{"店舗名":"ピザテンフォー苫小牧西店","住所":"北海道苫小牧市日新町1丁目7-14","ステータス":"RECEIPT","region":"Tomakomai","lat":42.63081,"lng":141.543457},{"店舗名":"第１０４代肉横綱苫小牧西店","住所":"北海道苫小牧市日新町1丁目7-14","ステータス":"RECEIPT","region":"Tomakomai","lat":42.63081,"lng":141.543457},{"店舗名":"北海道チーズドリア　天使のオーブン苫小牧西店","住所":"北海道苫小牧市日新町1丁目7-14","ステータス":"RECEIPT","region":"Tomakomai","lat":42.63081,"lng":141.543457}]