[{"店舗名":"カレーマナシ","住所":"〒300-1512 茨城県取手市藤代６７８−１ 藤代ハイム 102","ステータス":"RECEIPT","region":"Toride","lat":35.920414,"lng":140.111893},{"店舗名":"やきとり とんちゃん","住所":"〒300-1516 茨城県取手市藤代南１丁目９−８","ステータス":"RECEIPT","region":"Toride","lat":35.918713,"lng":140.117004},{"店舗名":"AA-TI","住所":"〒302-0004 茨城県取手市取手3-2-12","ステータス":"RECEIPT","region":"Toride","lat":35.896946,"lng":140.064316},{"店舗名":"パアルウィンおいしい","住所":"〒302-0004 茨城県取手市取手３丁目３−１９","ステータス":"RECEIPT","region":"Toride","lat":35.89571,"lng":140.065643},{"店舗名":"ハリオン取手店","住所":"〒302-0004 茨城県取手市取手３丁目４−８","ステータス":"RECEIPT","region":"Toride","lat":35.895317,"lng":140.063858},{"店舗名":"おにぎり専門店 みのり","住所":"〒302-0005","ステータス":"RECEIPT","region":"Toride","lat":35.889046,"lng":140.067261},{"店舗名":"インド料理 PARIWAR 取手店","住所":"〒302-0005 茨城県取手市東３丁目４−１５ a 10","ステータス":"RECEIPT","region":"Toride","lat":35.888748,"lng":140.073013},{"店舗名":"インド料理 ディヨ","住所":"〒302-0005 茨城県取手市東６丁目７５−７","ステータス":"RECEIPT","region":"Toride","lat":35.893211,"lng":140.077652},{"店舗名":"よしだ肉屋本店","住所":"〒302-0006 茨城県取手市青柳３６８−２","ステータス":"RECEIPT","region":"Toride","lat":35.891319,"lng":140.078003},{"店舗名":"インドネパール料理レストラン　クマリカレー","住所":"〒302-0023","ステータス":"RECEIPT","region":"Toride","lat":35.900352,"lng":140.064087},{"店舗名":"Gajur Cuisine","住所":"〒302-0025 茨城県取手市西１丁目４５−１０","ステータス":"RECEIPT","region":"Toride","lat":35.903671,"lng":140.044418},{"店舗名":"中国美食料理 萬多福","住所":"〒302-0032 茨城県取手市野々井","ステータス":"RECEIPT","region":"Toride","lat":35.914944,"lng":140.031097},{"店舗名":"八福中華料理 hathifukutyuukaryouri","住所":"〒302-0034 茨城県取手市戸頭","ステータス":"RECEIPT","region":"Toride","lat":35.915356,"lng":140.009033},{"店舗名":"ｉ－ｋｉｔｃｈｅｎ　戸頭店","住所":"〒302-0034 茨城県取手市戸頭５丁目２−１","ステータス":"RECEIPT","region":"Toride","lat":35.928677,"lng":140.014435}]