[{"店舗名":"から揚げ専門店 文ー牛川店","住所":"〒440-0011 愛知県豊橋市牛川通１丁目１９−１","ステータス":"APP_DISPLAY","region":"Toyohashi","lat":34.776691,"lng":137.42189},{"店舗名":"童庵牛川店","住所":"〒440-0011 愛知県豊橋市牛川通３丁目１３−１","ステータス":"APP_DISPLAY","region":"Toyohashi","lat":34.777866,"lng":137.42186},{"店舗名":"(宅配専門店)ゴーゴーカレー 牛川通3丁目店","住所":"〒440-0011 愛知県豊橋市牛川通３丁目４−１","ステータス":"APP_DISPLAY","region":"Toyohashi","lat":34.780579,"lng":137.42186},{"店舗名":"【本格麻辣×自家製春雨】白虎麻辣湯 牛川通3丁目店","住所":"〒440-0011 愛知県豊橋市牛川通３丁目４−１","ステータス":"RECEIPT","region":"Toyohashi","lat":34.780579,"lng":137.42186},{"店舗名":"【アサイー&グリークヨーグルト】GREEKSPOON 牛川通3丁目店","住所":"〒440-0011 愛知県豊橋市牛川通３丁目４−１","ステータス":"RECEIPT","region":"Toyohashi","lat":34.780579,"lng":137.42186},{"店舗名":"ピザ・カリフォルニア 豊橋牛川通店","住所":"〒440-0011 愛知県豊橋市牛川通３丁目４−１","ステータス":"APP_DISPLAY","region":"Toyohashi","lat":34.780579,"lng":137.42186},{"店舗名":"おべんところころ","住所":"〒440-0011 愛知県豊橋市牛川通５丁目２−１６","ステータス":"APP_DISPLAY","region":"Toyohashi","lat":34.785553,"lng":137.42659},{"店舗名":"cafenane","住所":"〒440-0024 愛知県豊橋市東田町井原１６−１","ステータス":"APP_DISPLAY","region":"Toyohashi","lat":34.763126,"lng":137.427795},{"店舗名":"Amazon味　豊橋店","住所":"〒440-0025","ステータス":"APP_DISPLAY","region":"Toyohashi","lat":34.766376,"lng":137.423508},{"店舗名":"ブラジル料理 Esquina's Restaurant","住所":"〒440-0036","ステータス":"APP_DISPLAY","region":"Toyohashi","lat":34.763027,"lng":137.420074},{"店舗名":"BandD インド レストラン B&D INDO RESTAURANT","住所":"〒440-0037 愛知県豊橋市平川町７−８","ステータス":"APP_DISPLAY","region":"Toyohashi","lat":34.763653,"lng":137.422974},{"店舗名":"POKHARA 豊橋岩田店","住所":"〒440-0038 愛知県豊橋市平川本町１丁目１６−８","ステータス":"APP_DISPLAY","region":"Toyohashi","lat":34.76112,"lng":137.424698},{"店舗名":"ナザレうどん","住所":"〒440-0046 愛知県豊橋市仲ノ町８０−１","ステータス":"APP_DISPLAY","region":"Toyohashi","lat":34.758621,"lng":137.413727},{"店舗名":"近江牛の丼ぶり屋　上伝馬町","住所":"〒440-0074 愛知県豊橋市上伝馬町57番地2","ステータス":"APP_DISPLAY","region":"Toyohashi","lat":34.768059,"lng":137.385803},{"店舗名":"CEYLON SAKURA","住所":"〒440-0083 愛知県豊橋市下地町字操穴４５","ステータス":"APP_DISPLAY","region":"Toyohashi","lat":34.786179,"lng":137.387222},{"店舗名":"コウヨウ館　豊橋清須店","住所":"〒440-0095 愛知県豊橋市清須町字堂西108番地1","ステータス":"APP_DISPLAY","region":"Toyohashi","lat":34.778172,"lng":137.351196},{"店舗名":"御食事処 かしわ KASHIWA","住所":"〒440-0806 愛知県豊橋市八町通","ステータス":"APP_DISPLAY","region":"Toyohashi","lat":34.768612,"lng":137.389465},{"店舗名":"PHỞ GOLD","住所":"〒440-0814 愛知県豊橋市前田町１丁目7−６","ステータス":"RECEIPT","region":"Toyohashi","lat":34.761814,"lng":137.395554},{"店舗名":"ブラジリアーナピザ豊橋","住所":"〒440-0821 愛知県豊橋市春日町二丁目3番地1","ステータス":"APP_DISPLAY","region":"Toyohashi","lat":34.759766,"lng":137.416443},{"店舗名":"PONTOBRASILFOODS豊橋店","住所":"〒440-0822 愛知県豊橋市伝馬町７７ シブラジル","ステータス":"APP_DISPLAY","region":"Toyohashi","lat":34.756824,"lng":137.412201},{"店舗名":"BOMBRASiL","住所":"〒440-0832 愛知県豊橋市中岩田５丁目５−１２","ステータス":"APP_DISPLAY","region":"Toyohashi","lat":34.750946,"lng":137.428421},{"店舗名":"かっぱ寿司 豊橋飯村店","住所":"〒440-0833 愛知県豊橋市飯村町７−６２４","ステータス":"APP_DISPLAY","region":"Toyohashi","lat":34.742172,"lng":137.437164},{"店舗名":"ピザハット 豊橋飯村北店","住所":"〒440-0834 愛知県豊橋市飯村北２丁目２４−１","ステータス":"APP_DISPLAY","region":"Toyohashi","lat":34.746761,"lng":137.42099},{"店舗名":"チキン・ウイングストリート 豊橋飯村北店","住所":"〒440-0834 愛知県豊橋市飯村北２丁目２４−１","ステータス":"APP_DISPLAY","region":"Toyohashi","lat":34.746761,"lng":137.42099},{"店舗名":"トスカーニパスタ 豊橋飯村北店","住所":"〒440-0834 愛知県豊橋市飯村北２丁目２４−１","ステータス":"APP_DISPLAY","region":"Toyohashi","lat":34.746761,"lng":137.42099},{"店舗名":"ジュリアナ　パンタロット　ケーキ＆デザート","住所":"〒440-0834 愛知県豊橋市飯村北４丁目８−１１","ステータス":"APP_DISPLAY","region":"Toyohashi","lat":34.745949,"lng":137.428757},{"店舗名":"Filet Burger","住所":"〒440-0837 愛知県豊橋市三ノ輪町字本興寺９−１５− 3","ステータス":"APP_DISPLAY","region":"Toyohashi","lat":34.746799,"lng":137.41156},{"店舗名":"スーパー・プラス","住所":"〒440-0842 愛知県豊橋市岩屋町字岩屋下62番地8","ステータス":"APP_DISPLAY","region":"Toyohashi","lat":34.736305,"lng":137.421921},{"店舗名":"Teka Foods","住所":"〒440-0843","ステータス":"APP_DISPLAY","region":"Toyohashi","lat":34.7341,"lng":137.417587},{"店舗名":"BURGER EATS","住所":"〒440-0843 愛知県豊橋市東幸町東明１３０ 1b","ステータス":"APP_DISPLAY","region":"Toyohashi","lat":34.733238,"lng":137.420029},{"店舗名":"ガイレさんのナンカレー Gaire Restaurant Nan &Curry","住所":"〒440-0851 愛知県豊橋市前田南町２丁目２６−３","ステータス":"APP_DISPLAY","region":"Toyohashi","lat":34.751488,"lng":137.396667},{"店舗名":"ポカラ 豊橋佐藤店 POKHARA Toyohashi Sato store","住所":"〒440-0853 愛知県豊橋市佐藤１丁目１４−１６","ステータス":"APP_DISPLAY","region":"Toyohashi","lat":34.746452,"lng":137.403427},{"店舗名":"きりん堂","住所":"〒440-0872 愛知県豊橋市前田中町２−１","ステータス":"APP_DISPLAY","region":"Toyohashi","lat":34.760975,"lng":137.394821},{"店舗名":"カレー&アジアンダイニング　ネパキチ","住所":"〒440-0874 愛知県豊橋市東松山町75","ステータス":"RECEIPT","region":"Toyohashi","lat":34.757496,"lng":137.390717},{"店舗名":"童庵本店","住所":"〒440-0876 愛知県豊橋市西松山町２４","ステータス":"APP_DISPLAY","region":"Toyohashi","lat":34.757988,"lng":137.386673},{"店舗名":"八剣伝 豊橋広小路店","住所":"〒440-0881","ステータス":"APP_DISPLAY","region":"Toyohashi","lat":34.764351,"lng":137.384338},{"店舗名":"かつさと広小路店","住所":"〒440-0881","ステータス":"APP_DISPLAY","region":"Toyohashi","lat":34.764351,"lng":137.384338},{"店舗名":"創作美味わっぽい","住所":"〒440-0881 愛知県豊橋市広小路２丁目２","ステータス":"APP_DISPLAY","region":"Toyohashi","lat":34.76429,"lng":137.385956},{"店舗名":"味の天心爛饅 豊橋総本店","住所":"〒440-0881 愛知県豊橋市広小路２丁目４","ステータス":"APP_DISPLAY","region":"Toyohashi","lat":34.76429,"lng":137.385956},{"店舗名":"其の一","住所":"〒440-0881 愛知県豊橋市広小路２丁目９−１","ステータス":"RECEIPT","region":"Toyohashi","lat":34.764324,"lng":137.38681},{"店舗名":"cafe&gateaux knohd","住所":"〒440-0888 愛知県豊橋市駅前大通","ステータス":"RECEIPT","region":"Toyohashi","lat":34.762691,"lng":137.38414},{"店舗名":"【アサイー＆パフェ】フルーツパーラーハナコ","住所":"〒440-0888 愛知県豊橋市駅前大通１丁目","ステータス":"APP_DISPLAY","region":"Toyohashi","lat":34.762691,"lng":137.38414},{"店舗名":"【もっちり玄米と低脂質チキン】とりげん食堂 豊橋駅前店","住所":"〒440-0888 愛知県豊橋市駅前大通１丁目１１１","ステータス":"RECEIPT","region":"Toyohashi","lat":34.761986,"lng":137.384995},{"店舗名":"アサイーボウルとグリークヨーグルトbeauty 豊橋店","住所":"〒440-0888 愛知県豊橋市駅前大通１丁目１１１","ステータス":"APP_DISPLAY","region":"Toyohashi","lat":34.761986,"lng":137.384995},{"店舗名":"【本格麻辣×自家製春雨】白虎麻辣湯 豊橋店","住所":"〒440-0888 愛知県豊橋市駅前大通１丁目１１４","ステータス":"RECEIPT","region":"Toyohashi","lat":34.761986,"lng":137.384995},{"店舗名":"【雑穀×発酵×ねばとろ丼】ねばとろみのり 豊橋店","住所":"〒440-0888 愛知県豊橋市駅前大通１丁目１１４","ステータス":"RECEIPT","region":"Toyohashi","lat":34.761986,"lng":137.384995},{"店舗名":"【雑穀＆8種野菜のカスタムビビンバ】ウェルビンビビンバ 豊橋店","住所":"〒440-0888 愛知県豊橋市駅前大通１丁目１１４","ステータス":"RECEIPT","region":"Toyohashi","lat":34.761986,"lng":137.384995},{"店舗名":"【3/4日分の野菜！ゴロゴロ野菜のごちそうスープ】ベジブロ 豊橋店","住所":"〒440-0888 愛知県豊橋市駅前大通１丁目１１４","ステータス":"RECEIPT","region":"Toyohashi","lat":34.761986,"lng":137.384995},{"店舗名":"【出汁の旨みとたっぷり具材】雑炊の気分 豊橋店","住所":"〒440-0888 愛知県豊橋市駅前大通１丁目１１４","ステータス":"RECEIPT","region":"Toyohashi","lat":34.761986,"lng":137.384995},{"店舗名":"【玄米×発酵×ねばとろ丼】ねばとろみのり 豊橋店","住所":"〒440-0888 愛知県豊橋市駅前大通１丁目１１４","ステータス":"RECEIPT","region":"Toyohashi","lat":34.761986,"lng":137.384995},{"店舗名":"夜パフェZiZi 豊橋店","住所":"〒440-0888 愛知県豊橋市駅前大通１丁目１１４","ステータス":"RECEIPT","region":"Toyohashi","lat":34.761986,"lng":137.384995},{"店舗名":"【とろじゅわフレンチトースト】CafeBonheur 豊橋店","住所":"〒440-0888 愛知県豊橋市駅前大通１丁目１１４","ステータス":"RECEIPT","region":"Toyohashi","lat":34.761986,"lng":137.384995},{"店舗名":"HUONGVIETベトナム料理　豊橋駅店","住所":"〒440-0888 愛知県豊橋市駅前大通１丁目１−２９ 板倉実業ビル","ステータス":"APP_DISPLAY","region":"Toyohashi","lat":34.763512,"lng":137.383972},{"店舗名":"とんかつの和吉 豊橋東口駅前店","住所":"〒440-0888 愛知県豊橋市駅前大通１丁目４６−１","ステータス":"APP_DISPLAY","region":"Toyohashi","lat":34.762749,"lng":137.383865},{"店舗名":"からあげの鉄人 豊橋東口駅前店","住所":"〒440-0888 愛知県豊橋市駅前大通１丁目４６−１","ステータス":"APP_DISPLAY","region":"Toyohashi","lat":34.762749,"lng":137.383865},{"店舗名":"魚民 豊橋東口駅前店","住所":"〒440-0888 愛知県豊橋市駅前大通１丁目４６−１","ステータス":"APP_DISPLAY","region":"Toyohashi","lat":34.762749,"lng":137.383865},{"店舗名":"大衆鰻 うな銀 豊橋東口駅前店","住所":"〒440-0888 愛知県豊橋市駅前大通１丁目４６−１","ステータス":"APP_DISPLAY","region":"Toyohashi","lat":34.762749,"lng":137.383865},{"店舗名":"築地銀だこ 豊橋駅前店","住所":"〒440-0888 愛知県豊橋市駅前大通２丁目２９","ステータス":"APP_DISPLAY","region":"Toyohashi","lat":34.762707,"lng":137.385818},{"店舗名":"豊二郎","住所":"〒440-0888 愛知県豊橋市駅前大通２丁目３０−１","ステータス":"APP_DISPLAY","region":"Toyohashi","lat":34.762707,"lng":137.385818},{"店舗名":"【本格ハンバーガーのお店】AMBER’S DINER","住所":"〒440-0888 愛知県豊橋市駅前大通２丁目71-18","ステータス":"APP_DISPLAY","region":"Toyohashi","lat":34.761852,"lng":137.387054},{"店舗名":"WASHA WASHA emCAMPUS店","住所":"〒440-0888 愛知県豊橋市駅前大通2丁目81","ステータス":"APP_DISPLAY","region":"Toyohashi","lat":34.762714,"lng":137.386703},{"店舗名":"飲み処バンチョン","住所":"〒440-0893","ステータス":"APP_DISPLAY","region":"Toyohashi","lat":34.766659,"lng":137.390121},{"店舗名":"Room No.03","住所":"〒440-0896  愛知県豊橋市萱町４４","ステータス":"APP_DISPLAY","region":"Toyohashi","lat":34.76619,"lng":137.385818},{"店舗名":"アジアン酒場 MoMo","住所":"〒440-0896 愛知県豊橋市萱町２０−１０","ステータス":"APP_DISPLAY","region":"Toyohashi","lat":34.765091,"lng":137.385452},{"店舗名":"Alpha","住所":"〒440-0897","ステータス":"APP_DISPLAY","region":"Toyohashi","lat":34.765209,"lng":137.384338},{"店舗名":":ころん","住所":"〒440-0897 愛知県豊橋市松葉町２丁目３５","ステータス":"APP_DISPLAY","region":"Toyohashi","lat":34.766243,"lng":137.383911},{"店舗名":"ガネーシャ","住所":"〒441-0156 愛知県豊橋市西浜町9番地3","ステータス":"APP_DISPLAY","region":"Toyohashi","lat":34.787697,"lng":137.331039},{"店舗名":"居酒屋　たぬきの心","住所":"〒441-3101 愛知県豊橋市大脇町字大脇75-4","ステータス":"RECEIPT","region":"Toyohashi","lat":34.726376,"lng":137.454056},{"店舗名":"LATERRE TOYOHASHI","住所":"〒441-3125","ステータス":"APP_DISPLAY","region":"Toyohashi","lat":34.703293,"lng":137.432037},{"店舗名":"バインミーニャットラン","住所":"〒441-3133","ステータス":"APP_DISPLAY","region":"Toyohashi","lat":34.711487,"lng":137.439209},{"店舗名":"菓匠 華月","住所":"〒441-3141 愛知県豊橋市大岩町字北山３６７−１","ステータス":"APP_DISPLAY","region":"Toyohashi","lat":34.728195,"lng":137.436371},{"店舗名":"麺屋でんすけ","住所":"〒441-3147","ステータス":"APP_DISPLAY","region":"Toyohashi","lat":34.723125,"lng":137.438065},{"店舗名":"かつさと二川店","住所":"〒441-3147","ステータス":"APP_DISPLAY","region":"Toyohashi","lat":34.723125,"lng":137.438065},{"店舗名":"うどんのむらた屋","住所":"〒441-3147","ステータス":"APP_DISPLAY","region":"Toyohashi","lat":34.723125,"lng":137.438065},{"店舗名":"レストラン シャンデリア","住所":"〒441-3301","ステータス":"APP_DISPLAY","region":"Toyohashi","lat":34.692043,"lng":137.341522},{"店舗名":"麺屋にかい 豊橋店","住所":"〒441-8007 愛知県豊橋市馬見塚町３１３","ステータス":"APP_DISPLAY","region":"Toyohashi","lat":34.768517,"lng":137.357285},{"店舗名":"インド食堂 ビジェさんのカリー屋 1丁目","住所":"〒441-8011 愛知県豊橋市菰口町２丁目５８−２","ステータス":"APP_DISPLAY","region":"Toyohashi","lat":34.770374,"lng":137.373306},{"店舗名":"SHELTER","住所":"〒441-8013","ステータス":"APP_DISPLAY","region":"Toyohashi","lat":34.762943,"lng":137.379028},{"店舗名":"アサイー工房　豊橋店","住所":"〒441-8016","ステータス":"APP_DISPLAY","region":"Toyohashi","lat":34.765095,"lng":137.364655},{"店舗名":"アジアンレストランアティティ","住所":"〒441-8016 愛知県豊橋市新栄町字南小向９４−１２","ステータス":"APP_DISPLAY","region":"Toyohashi","lat":34.76593,"lng":137.36261},{"店舗名":"モティマハール","住所":"〒441-8032 愛知県豊橋市花中町１０","ステータス":"APP_DISPLAY","region":"Toyohashi","lat":34.75423,"lng":137.385117},{"店舗名":"南 ダイニング","住所":"〒441-8032 愛知県豊橋市花中町１０","ステータス":"APP_DISPLAY","region":"Toyohashi","lat":34.75423,"lng":137.385117},{"店舗名":"CLASSICAL COFFEE ROASTER CAFE","住所":"〒441-8077","ステータス":"APP_DISPLAY","region":"Toyohashi","lat":34.748795,"lng":137.333023},{"店舗名":"ぽかぽかの森アンキカフェ","住所":"〒441-8077","ステータス":"RECEIPT","region":"Toyohashi","lat":34.748795,"lng":137.333023},{"店舗名":"サウナピア","住所":"〒441-8077 愛知県豊橋市神野新田町字ヨノ割66","ステータス":"APP_DISPLAY","region":"Toyohashi","lat":34.741203,"lng":137.34761},{"店舗名":"INDIAN RESTAURANTアーチャーラ","住所":"〒441-8077 愛知県豊橋市神野新田町字宮前８４番地1","ステータス":"APP_DISPLAY","region":"Toyohashi","lat":34.737957,"lng":137.362534},{"店舗名":"ピザハット 豊橋往完町店","住所":"〒441-8082 愛知県豊橋市往完町往還西８３","ステータス":"APP_DISPLAY","region":"Toyohashi","lat":34.756817,"lng":137.370102},{"店舗名":"チキン・ウイングストリート 豊橋往完町店","住所":"〒441-8082 愛知県豊橋市往完町往還西８３","ステータス":"APP_DISPLAY","region":"Toyohashi","lat":34.756817,"lng":137.370102},{"店舗名":"トスカーニパスタ 豊橋往完町店","住所":"〒441-8082 愛知県豊橋市往完町往還西８３","ステータス":"APP_DISPLAY","region":"Toyohashi","lat":34.756817,"lng":137.370102},{"店舗名":"一番すし","住所":"〒441-8083 愛知県豊橋市東脇１丁目７−１３","ステータス":"RECEIPT","region":"Toyohashi","lat":34.754143,"lng":137.366837},{"店舗名":"元祖 博多屋 豊橋店","住所":"〒441-8106 愛知県豊橋市弥生町東豊和","ステータス":"APP_DISPLAY","region":"Toyohashi","lat":34.733742,"lng":137.392181},{"店舗名":"モティマハール レストラン アンドバー","住所":"〒441-8107 愛知県豊橋市南栄町空池２９","ステータス":"APP_DISPLAY","region":"Toyohashi","lat":34.735085,"lng":137.384689},{"店舗名":"麺屋でんすけ 小松店","住所":"〒441-8109 愛知県豊橋市小松町２００−１","ステータス":"RECEIPT","region":"Toyohashi","lat":34.739941,"lng":137.393433},{"店舗名":"エルのところイスタンブル","住所":"〒441-8109 愛知県豊橋市小松町214番地","ステータス":"APP_DISPLAY","region":"Toyohashi","lat":34.740543,"lng":137.393585},{"店舗名":"【美容と健康のためのスイーツ店】HAPPY PROTEIN","住所":"〒441-8113 愛知県豊橋市西幸町笠松３３−１","ステータス":"APP_DISPLAY","region":"Toyohashi","lat":34.730694,"lng":137.410431},{"店舗名":"丸源ラーメン 豊橋曙店","住所":"〒441-8113 愛知県豊橋市西幸町浜池８−２","ステータス":"PENDING","region":"Toyohashi","lat":34.724056,"lng":137.403748},{"店舗名":"New Orleans Cafe","住所":"〒441-8116","ステータス":"APP_DISPLAY","region":"Toyohashi","lat":34.718418,"lng":137.416901},{"店舗名":"デリコデリミ Delico Delime","住所":"〒441-8117 愛知県豊橋市浜道町字南側８−３","ステータス":"APP_DISPLAY","region":"Toyohashi","lat":34.719173,"lng":137.4077},{"店舗名":"淡路島バーガー","住所":"〒441-8117 愛知県豊橋市浜道町字浜道７４−１","ステータス":"APP_DISPLAY","region":"Toyohashi","lat":34.716042,"lng":137.405411},{"店舗名":"スバカマナ・ミニ イオン豊橋南店","住所":"〒441-8124 愛知県豊橋市野依町落合１−１２","ステータス":"RECEIPT","region":"Toyohashi","lat":34.709778,"lng":137.387756},{"店舗名":"antic","住所":"〒441-8133 愛知県豊橋市大清水町大清水７１−１６","ステータス":"APP_DISPLAY","region":"Toyohashi","lat":34.69894,"lng":137.358826},{"店舗名":"清水庵","住所":"〒441-8133 愛知県豊橋市大清水町娵田５４","ステータス":"APP_DISPLAY","region":"Toyohashi","lat":34.705265,"lng":137.353653},{"店舗名":"キッチンたの","住所":"〒441-8141","ステータス":"APP_DISPLAY","region":"Toyohashi","lat":34.734093,"lng":137.378784},{"店舗名":"Bengs Karaokebar&Restaurant","住所":"〒441-8141","ステータス":"APP_DISPLAY","region":"Toyohashi","lat":34.734093,"lng":137.378784},{"店舗名":"中国料理 美楽","住所":"〒441-8151","ステータス":"APP_DISPLAY","region":"Toyohashi","lat":34.727512,"lng":137.40097},{"店舗名":"韓国大衆酒場 豚丸商店 曙店","住所":"〒441-8151 愛知県豊橋市曙町","ステータス":"APP_DISPLAY","region":"Toyohashi","lat":34.727512,"lng":137.40097},{"店舗名":"ドミノ・ピザ 豊橋曙町","住所":"〒441-8151 愛知県豊橋市曙町測点１４９−２","ステータス":"APP_DISPLAY","region":"Toyohashi","lat":34.727268,"lng":137.401184},{"店舗名":"Fain","住所":"〒441-8153 愛知県豊橋市高師本郷町北浦６７−２","ステータス":"APP_DISPLAY","region":"Toyohashi","lat":34.715706,"lng":137.394882},{"店舗名":"台湾料理 豊盛園","住所":"〒441-8157","ステータス":"APP_DISPLAY","region":"Toyohashi","lat":34.72348,"lng":137.389465}]