[{"店舗名":"焼肉　響","住所":"〒640-8024 和歌山県和歌山市元寺町１丁目５７","ステータス":"APP_DISPLAY","region":"Wakayama","lat":34.234455,"lng":135.177414},{"店舗名":"中国酒家 くうくう","住所":"〒640-8024 和歌山県和歌山市元寺町２丁目１３","ステータス":"APP_DISPLAY","region":"Wakayama","lat":34.235741,"lng":135.177124},{"店舗名":"和歌山もんじゃ ヒゲモグラ","住所":"〒640-8024 和歌山県和歌山市元寺町４丁目５ 黒岩ビル 102","ステータス":"APP_DISPLAY","region":"Wakayama","lat":34.238682,"lng":135.176682},{"店舗名":"ラサボジュン和歌山 Rasa Bojun Wakayama","住所":"〒640-8027","ステータス":"RECEIPT","region":"Wakayama","lat":34.233318,"lng":135.175491},{"店舗名":"ラサボジュン和歌山 Rasa Bojun Wakayama","住所":"〒640-8033","ステータス":"RECEIPT","region":"Wakayama","lat":34.233185,"lng":135.174606},{"店舗名":"ラサボジュン 和歌山","住所":"〒640-8033 和歌山県和歌山市本町１丁目２７－１","ステータス":"APP_DISPLAY","region":"Wakayama","lat":34.233185,"lng":135.174606},{"店舗名":"SICK","住所":"〒640-8033 和歌山県和歌山市本町１丁目３２−１","ステータス":"APP_DISPLAY","region":"Wakayama","lat":34.233292,"lng":135.174698},{"店舗名":"うまいもん処 幸太郎","住所":"〒640-8033 和歌山県和歌山市本町１丁目３３","ステータス":"APP_DISPLAY","region":"Wakayama","lat":34.233185,"lng":135.174606},{"店舗名":"はざま屋の唐揚専門店卜半町本店","住所":"〒640-8045","ステータス":"APP_DISPLAY","region":"Wakayama","lat":34.233006,"lng":135.17038},{"店舗名":"オサケとゴハン P-NUTS","住所":"〒640-8108 和歌山県和歌山市雑賀町１１８","ステータス":"APP_DISPLAY","region":"Wakayama","lat":34.233189,"lng":135.177292},{"店舗名":"丸京","住所":"〒640-8108 和歌山県和歌山市雑賀町１２０","ステータス":"APP_DISPLAY","region":"Wakayama","lat":34.232643,"lng":135.175552},{"店舗名":"めでたい焼き本舗","住所":"〒640-8127 和歌山県和歌山市元町奉行丁","ステータス":"APP_DISPLAY","region":"Wakayama","lat":34.224243,"lng":135.179428},{"店舗名":"かっぱ寿司 和歌山店","住所":"〒640-8127 和歌山県和歌山市元町奉行丁２丁目１２","ステータス":"APP_DISPLAY","region":"Wakayama","lat":34.224712,"lng":135.184082},{"店舗名":"中華そばないとう","住所":"〒640-8144","ステータス":"RECEIPT","region":"Wakayama","lat":34.228062,"lng":135.177856},{"店舗名":"中華そばないとう","住所":"〒640-8144 和歌山県和歌山市四番丁１","ステータス":"APP_DISPLAY","region":"Wakayama","lat":34.228062,"lng":135.177856},{"店舗名":"とらや食堂","住所":"〒640-8150 和歌山県和歌山市十三番丁","ステータス":"APP_DISPLAY","region":"Wakayama","lat":34.231861,"lng":135.169266},{"店舗名":"鶏笑","住所":"〒640-8151 和歌山県和歌山市屋形町５丁目４","ステータス":"APP_DISPLAY","region":"Wakayama","lat":34.224045,"lng":135.178055},{"店舗名":"蒸しダイニング Musu Musu","住所":"〒640-8203 和歌山県和歌山市東蔵前丁３９","ステータス":"APP_DISPLAY","region":"Wakayama","lat":34.236008,"lng":135.166321},{"店舗名":"Ｎ白木屋 和歌山市駅前店","住所":"〒640-8203 和歌山県和歌山市東蔵前丁4番地","ステータス":"APP_DISPLAY","region":"Wakayama","lat":34.235485,"lng":135.167007},{"店舗名":"SHIROKI BURGER 和歌山市駅前店","住所":"〒640-8203 和歌山県和歌山市東蔵前丁4番地","ステータス":"APP_DISPLAY","region":"Wakayama","lat":34.235485,"lng":135.167007},{"店舗名":"ハンバーグ TERU 和歌山市駅前店","住所":"〒640-8203 和歌山県和歌山市東蔵前丁４番地","ステータス":"APP_DISPLAY","region":"Wakayama","lat":34.235485,"lng":135.167007},{"店舗名":"日々屋-日々をむすぶ、おにぎり屋-","住所":"〒640-8221 和歌山県和歌山市湊紺屋町2丁目15","ステータス":"APP_DISPLAY","region":"Wakayama","lat":34.233562,"lng":135.164948},{"店舗名":"ラクシュミー","住所":"〒640-8249 和歌山県和歌山市雑賀屋町３６","ステータス":"APP_DISPLAY","region":"Wakayama","lat":34.228043,"lng":135.167297},{"店舗名":"吉野家 和歌山築地橋店","住所":"〒640-8255 和歌山県和歌山市舟津町１丁目１０","ステータス":"APP_DISPLAY","region":"Wakayama","lat":34.224121,"lng":135.159164},{"店舗名":"おぎん","住所":"〒640-8269 和歌山県和歌山市小松原通１丁目５−３","ステータス":"RECEIPT","region":"Wakayama","lat":34.225315,"lng":135.16951},{"店舗名":"PANTO 和歌山店","住所":"〒640-8272 和歌山県和歌山市砂山南４丁目２−１８","ステータス":"RECEIPT","region":"Wakayama","lat":34.215694,"lng":135.159607},{"店舗名":"ラーメンまこと屋和歌山大浦街道店","住所":"〒640-8272 和歌山県和歌山市砂山南４丁目４−１","ステータス":"APP_DISPLAY","region":"Wakayama","lat":34.212566,"lng":135.159531},{"店舗名":"和風ステーキ　まるひこ亭","住所":"〒640-8291 和歌山県和歌山市北甚五兵衛丁３","ステータス":"APP_DISPLAY","region":"Wakayama","lat":34.227211,"lng":135.163544},{"店舗名":"インド料理 ガンディー Indian Restaurant GANDHI","住所":"〒640-8294 和歌山県和歌山市南中間町53-1","ステータス":"APP_DISPLAY","region":"Wakayama","lat":34.225029,"lng":135.163605},{"店舗名":"浪花屋和歌山店","住所":"〒640-8305 和歌山県和歌山市栗栖１１１７−１","ステータス":"APP_DISPLAY","region":"Wakayama","lat":34.244778,"lng":135.216782},{"店舗名":"お弁当 どんまい","住所":"〒640-8314","ステータス":"APP_DISPLAY","region":"Wakayama","lat":34.212234,"lng":135.208176},{"店舗名":"べあくれーぷ","住所":"〒640-8314 和歌山県和歌山市神前１３８−７","ステータス":"APP_DISPLAY","region":"Wakayama","lat":34.214878,"lng":135.203613},{"店舗名":"とんかつ弁当おおにし","住所":"〒640-8314 和歌山県和歌山市神前１７３−３","ステータス":"APP_DISPLAY","region":"Wakayama","lat":34.215488,"lng":135.20105},{"店舗名":"ピザハット 和歌山店","住所":"〒640-8319 和歌山県和歌山市手平３丁目６－２","ステータス":"APP_DISPLAY","region":"Wakayama","lat":34.214882,"lng":135.186829},{"店舗名":"チキン・ウイングストリート 和歌山店","住所":"〒640-8319 和歌山県和歌山市手平３丁目６−２","ステータス":"APP_DISPLAY","region":"Wakayama","lat":34.214882,"lng":135.186829},{"店舗名":"トスカーニパスタ 和歌山店","住所":"〒640-8319 和歌山県和歌山市手平３丁目６−２","ステータス":"APP_DISPLAY","region":"Wakayama","lat":34.214882,"lng":135.186829},{"店舗名":"吉野家 和歌山手平店","住所":"〒640-8319 和歌山県和歌山市手平５丁目７−２８","ステータス":"APP_DISPLAY","region":"Wakayama","lat":34.214008,"lng":135.184875},{"店舗名":"吉野家 和歌山秋月店","住所":"〒640-8322 和歌山県和歌山市秋月２８１−１","ステータス":"APP_DISPLAY","region":"Wakayama","lat":34.230606,"lng":135.204712},{"店舗名":"桜蘭","住所":"〒640-8323","ステータス":"APP_DISPLAY","region":"Wakayama","lat":34.230095,"lng":135.199524},{"店舗名":"旨い油そば・台湾まぜそばJR和歌山駅前　麺やじろう","住所":"〒640-8323","ステータス":"APP_DISPLAY","region":"Wakayama","lat":34.230095,"lng":135.199524},{"店舗名":"アイスクレープクロッカンテJR和歌山駅前店","住所":"〒640-8323","ステータス":"APP_DISPLAY","region":"Wakayama","lat":34.230095,"lng":135.199524},{"店舗名":"ボックスチュロス ～Churros time～ JR和歌山駅前店","住所":"〒640-8323","ステータス":"APP_DISPLAY","region":"Wakayama","lat":34.230095,"lng":135.199524},{"店舗名":"魔神豚 JR和歌山駅前店","住所":"〒640-8323","ステータス":"APP_DISPLAY","region":"Wakayama","lat":34.230095,"lng":135.199524},{"店舗名":"【ご飯300gまで無料】とんかつ とん彩 JR和歌山駅前店","住所":"〒640-8323","ステータス":"APP_DISPLAY","region":"Wakayama","lat":34.230095,"lng":135.199524},{"店舗名":"とじないカツ丼とカツ茶漬け 勝穂庵(かつほあん） JR和歌山駅前店","住所":"〒640-8323","ステータス":"APP_DISPLAY","region":"Wakayama","lat":34.230095,"lng":135.199524},{"店舗名":"【アサイーボウル】ALOHA SPOON～Acai bowl cafe～ JR和歌山駅前店","住所":"〒640-8323","ステータス":"APP_DISPLAY","region":"Wakayama","lat":34.230095,"lng":135.199524},{"店舗名":"【韓国フローズンヨーグルトアイスボウル】Yoppo！ JR和歌山駅前店","住所":"〒640-8323","ステータス":"APP_DISPLAY","region":"Wakayama","lat":34.230095,"lng":135.199524},{"店舗名":"香麗麻辣湯（シャンリーマーラータン） JR和歌山駅前店","住所":"〒640-8323","ステータス":"APP_DISPLAY","region":"Wakayama","lat":34.230095,"lng":135.199524},{"店舗名":"ドミノ・ピザ 和歌山太田店","住所":"〒640-8323 和歌山県和歌山市太田１２１","ステータス":"APP_DISPLAY","region":"Wakayama","lat":34.227077,"lng":135.197754},{"店舗名":"『俺の牛タンカレー食ってみな。』 和歌山駅前店","住所":"〒640-8323 和歌山県和歌山市太田１丁目１−１２","ステータス":"APP_DISPLAY","region":"Wakayama","lat":34.229546,"lng":135.192795},{"店舗名":"焼肉　ザ ゴッドタン","住所":"〒640-8323 和歌山県和歌山市太田２３−７","ステータス":"APP_DISPLAY","region":"Wakayama","lat":34.226376,"lng":135.198715},{"店舗名":"ロジカフェ （RojiCAFE）","住所":"〒640-8329 和歌山県和歌山市田中町５丁目１−２","ステータス":"RECEIPT","region":"Wakayama","lat":34.228817,"lng":135.190018},{"店舗名":"DeeDeeタイキッチン","住所":"〒640-8331 和歌山県和歌山市美園町","ステータス":"APP_DISPLAY","region":"Wakayama","lat":34.230206,"lng":135.186111},{"店舗名":"熱帯酒場","住所":"〒640-8331 和歌山県和歌山市美園町２丁目８","ステータス":"APP_DISPLAY","region":"Wakayama","lat":34.231308,"lng":135.185501},{"店舗名":"焼肉 肉十八","住所":"〒640-8331 和歌山県和歌山市美園町４丁目７５","ステータス":"RECEIPT","region":"Wakayama","lat":34.231056,"lng":135.188599},{"店舗名":"とんかつの和吉 和歌山西口駅前店","住所":"〒640-8331 和歌山県和歌山市美園町５丁目１−２","ステータス":"APP_DISPLAY","region":"Wakayama","lat":34.231747,"lng":135.18985},{"店舗名":"魚民 和歌山西口駅前店","住所":"〒640-8331 和歌山県和歌山市美園町５丁目１−２","ステータス":"APP_DISPLAY","region":"Wakayama","lat":34.231747,"lng":135.18985},{"店舗名":"からあげの鉄人 和歌山西口駅前店","住所":"〒640-8331 和歌山県和歌山市美園町５丁目１−２","ステータス":"APP_DISPLAY","region":"Wakayama","lat":34.231747,"lng":135.18985},{"店舗名":"東鳥春","住所":"〒640-8331 和歌山県和歌山市美園町５丁目３−７","ステータス":"APP_DISPLAY","region":"Wakayama","lat":34.230595,"lng":135.189743},{"店舗名":"GARAM MASALA INDO PAK Restaurant","住所":"〒640-8331 和歌山県和歌山市美園町5丁目7-9","ステータス":"APP_DISPLAY","region":"Wakayama","lat":34.231174,"lng":135.190399},{"店舗名":"鮨酒巴 財部","住所":"〒640-8342 和歌山県和歌山市友田町２丁目１６","ステータス":"APP_DISPLAY","region":"Wakayama","lat":34.232536,"lng":135.18541},{"店舗名":"精進cafeふぉい 和歌山駅前店","住所":"〒640-8342 和歌山県和歌山市友田町３丁目８７","ステータス":"APP_DISPLAY","region":"Wakayama","lat":34.232037,"lng":135.187012},{"店舗名":"鰻料理 二与呂","住所":"〒640-8342 和歌山県和歌山市友田町４丁目６７","ステータス":"APP_DISPLAY","region":"Wakayama","lat":34.23315,"lng":135.188293},{"店舗名":"韓国焼肉家庭料理 金海食堂","住所":"〒640-8343","ステータス":"APP_DISPLAY","region":"Wakayama","lat":34.235634,"lng":135.188477},{"店舗名":"餃子酒場Tsutsumu","住所":"〒640-8343 和歌山県和歌山市吉田８１６","ステータス":"APP_DISPLAY","region":"Wakayama","lat":34.234604,"lng":135.184967},{"店舗名":"インド料理 ディヤ","住所":"〒640-8345 和歌山県和歌山市新在家１２５−４","ステータス":"APP_DISPLAY","region":"Wakayama","lat":34.244289,"lng":135.200592},{"店舗名":"よなよなクレープ753あろち店","住所":"〒640-8350 和歌山県和歌山市北ノ新地分銅丁５ サンイチビル1番館 2","ステータス":"RECEIPT","region":"Wakayama","lat":34.233257,"lng":135.18364},{"店舗名":"七輪焼 つどいや","住所":"〒640-8353 和歌山県和歌山市北ノ新地榎丁７","ステータス":"APP_DISPLAY","region":"Wakayama","lat":34.231926,"lng":135.184265},{"店舗名":"燦味壱隊","住所":"〒640-8355 和歌山県和歌山市北ノ新地２丁目２６","ステータス":"APP_DISPLAY","region":"Wakayama","lat":34.232353,"lng":135.183365},{"店舗名":"balder coffee wakayama","住所":"〒640-8375","ステータス":"APP_DISPLAY","region":"Wakayama","lat":34.232361,"lng":135.182053},{"店舗名":"紀まぐれ","住所":"〒640-8377 和歌山県和歌山市新堺丁２４","ステータス":"APP_DISPLAY","region":"Wakayama","lat":34.234531,"lng":135.179718},{"店舗名":"HORUMON MAFIA（ホルモンマフィア）","住所":"〒640-8384 和歌山県和歌山市畑屋敷葛屋丁２４ スエヨシビル 1階","ステータス":"RECEIPT","region":"Wakayama","lat":34.234451,"lng":135.182785},{"店舗名":"とうがらし","住所":"〒640-8384 和歌山県和歌山市畑屋敷葛屋丁８ 1f","ステータス":"APP_DISPLAY","region":"Wakayama","lat":34.234837,"lng":135.182816},{"店舗名":"大門","住所":"〒640-8392 和歌山県和歌山市中之島１７３３","ステータス":"APP_DISPLAY","region":"Wakayama","lat":34.237644,"lng":135.18335},{"店舗名":"サムジャナ・キッチン","住所":"〒640-8392 和歌山県和歌山市中之島２２６２","ステータス":"APP_DISPLAY","region":"Wakayama","lat":34.236187,"lng":135.186386},{"店舗名":"長安","住所":"〒640-8392 和歌山県和歌山市中之島２３１９","ステータス":"APP_DISPLAY","region":"Wakayama","lat":34.23568,"lng":135.185242},{"店舗名":"お弁当マル","住所":"〒640-8393 和歌山県和歌山市畑屋敷端ノ丁 金山ビル 2f","ステータス":"RECEIPT","region":"Wakayama","lat":34.236374,"lng":135.184143},{"店舗名":"◯crepe","住所":"〒640-8393 和歌山県和歌山市畑屋敷端ノ丁２４","ステータス":"RECEIPT","region":"Wakayama","lat":34.23621,"lng":135.183777},{"店舗名":"バン、タイ、レストラン","住所":"〒640-8396 和歌山県和歌山市畑屋敷西ノ丁６８","ステータス":"APP_DISPLAY","region":"Wakayama","lat":34.235287,"lng":135.180984},{"店舗名":"スタミナ丼 活家 和歌山店","住所":"〒640-8399 和歌山県和歌山市畑屋敷兵庫ノ丁１２","ステータス":"RECEIPT","region":"Wakayama","lat":34.23587,"lng":135.18277},{"店舗名":"お粥 煮え花 和歌山店","住所":"〒640-8399 和歌山県和歌山市畑屋敷兵庫ノ丁１２","ステータス":"PENDING","region":"Wakayama","lat":34.23587,"lng":135.18277},{"店舗名":"かつ丼 とん吉 和歌山店","住所":"〒640-8399 和歌山県和歌山市畑屋敷兵庫ノ丁１２","ステータス":"PENDING","region":"Wakayama","lat":34.23587,"lng":135.18277},{"店舗名":"かつ丼屋 のぶお 和歌山店","住所":"〒640-8399 和歌山県和歌山市畑屋敷兵庫ノ丁１２","ステータス":"RECEIPT","region":"Wakayama","lat":34.23587,"lng":135.18277},{"店舗名":"うどんと肉 角立 和歌山店","住所":"〒640-8399 和歌山県和歌山市畑屋敷兵庫ノ丁１２","ステータス":"PENDING","region":"Wakayama","lat":34.23587,"lng":135.18277},{"店舗名":"さぬきうどん・どんぶり 博好 和歌山店","住所":"〒640-8399 和歌山県和歌山市畑屋敷兵庫ノ丁１２","ステータス":"PENDING","region":"Wakayama","lat":34.23587,"lng":135.18277},{"店舗名":"とりめし かえで食堂 和歌山店","住所":"〒640-8399 和歌山県和歌山市畑屋敷兵庫ノ丁１２","ステータス":"PENDING","region":"Wakayama","lat":34.23587,"lng":135.18277},{"店舗名":"どんぶり 神宮軒 和歌山店","住所":"〒640-8399 和歌山県和歌山市畑屋敷兵庫ノ丁１２","ステータス":"PENDING","region":"Wakayama","lat":34.23587,"lng":135.18277},{"店舗名":"のり弁 浅草屋 和歌山店","住所":"〒640-8399 和歌山県和歌山市畑屋敷兵庫ノ丁１２","ステータス":"PENDING","region":"Wakayama","lat":34.23587,"lng":135.18277},{"店舗名":"インド料理　MASTER SHIKHAR","住所":"〒640-8431","ステータス":"APP_DISPLAY","region":"Wakayama","lat":34.256718,"lng":135.14502},{"店舗名":"吉野家 和歌山向店","住所":"〒640-8431 和歌山県和歌山市向２０３−１","ステータス":"APP_DISPLAY","region":"Wakayama","lat":34.255646,"lng":135.144196},{"店舗名":"ピザハット 和歌山パームシティ店","住所":"〒640-8433 和歌山県和歌山市中野３１−１","ステータス":"APP_DISPLAY","region":"Wakayama","lat":34.25528,"lng":135.140701},{"店舗名":"チキン・ウイングストリート 和歌山パームシティ店","住所":"〒640-8433 和歌山県和歌山市中野３１−１","ステータス":"APP_DISPLAY","region":"Wakayama","lat":34.25528,"lng":135.140701},{"店舗名":"トスカーニパスタ 和歌山パームシティ店","住所":"〒640-8433 和歌山県和歌山市中野３１−１","ステータス":"APP_DISPLAY","region":"Wakayama","lat":34.25528,"lng":135.140701},{"店舗名":"和こころ家","住所":"〒640-8471","ステータス":"APP_DISPLAY","region":"Wakayama","lat":34.268085,"lng":135.182678},{"店舗名":"かっぱ寿司 和歌山六十谷店","住所":"〒640-8482 和歌山県和歌山市六十谷１０３９−３","ステータス":"APP_DISPLAY","region":"Wakayama","lat":34.263214,"lng":135.200104},{"店舗名":"mooi","住所":"〒640-8483","ステータス":"RECEIPT","region":"Wakayama","lat":34.270943,"lng":135.192947},{"店舗名":"はざま屋の唐揚専門店新中島店","住所":"〒641-0006","ステータス":"APP_DISPLAY","region":"Wakayama","lat":34.20845,"lng":135.186951},{"店舗名":"吉野家 42号線和歌山紀三井寺店","住所":"〒641-0012 和歌山県和歌山市紀三井寺５４１−１","ステータス":"APP_DISPLAY","region":"Wakayama","lat":34.180126,"lng":135.18692},{"店舗名":"喫茶ノア・ハウス","住所":"〒641-0013","ステータス":"APP_DISPLAY","region":"Wakayama","lat":34.17691,"lng":135.197708},{"店舗名":"80 ESPRESSO WAKAURABASE","住所":"〒641-0023","ステータス":"APP_DISPLAY","region":"Wakayama","lat":34.187622,"lng":135.159286},{"店舗名":"メイルカフェ meil cafe","住所":"〒641-0042 和歌山県和歌山市新堀東１丁目１−６","ステータス":"APP_DISPLAY","region":"Wakayama","lat":34.214314,"lng":135.171753},{"店舗名":"とちのいちご園","住所":"〒649-6323 和歌山県和歌山市井ノ口３１１−４","ステータス":"APP_DISPLAY","region":"Wakayama","lat":34.239616,"lng":135.246658},{"店舗名":"三幸フード","住所":"〒649-6324和歌山県和歌山市祢宜１５９０","ステータス":"APP_DISPLAY","region":"Wakayama","lat":34.230202,"lng":135.251068},{"店舗名":"築地銀だこ イズミヤ和歌山店","住所":"和歌山県和歌山市新生町7-20","ステータス":"APP_DISPLAY","region":"Wakayama","lat":34.222118,"lng":135.188354}]