[{"店舗名":"シフォンケーキ専門店 Kinu.","住所":"〒335-0001","ステータス":"APP_DISPLAY","region":"Warabi","lat":35.829842,"lng":139.682983},{"店舗名":"Labbaik Halalfood & Restaurant","住所":"〒335-0001 埼玉県蕨市北町１丁目１６−１３","ステータス":"APP_DISPLAY","region":"Warabi","lat":35.830173,"lng":139.685501},{"店舗名":"満億鮮肉鋪","住所":"〒335-0001 埼玉県蕨市北町１丁目１６−１３","ステータス":"APP_DISPLAY","region":"Warabi","lat":35.830173,"lng":139.685501},{"店舗名":"Ｄｒｅａｍ　Ｋｉｔｃｈｅｎ　Ｒｅｓｔａｕｒａｎｔ　ａｎｄ　Ｂａｒ","住所":"〒335-0001 埼玉県蕨市北町１丁目１６−１３","ステータス":"APP_DISPLAY","region":"Warabi","lat":35.830173,"lng":139.685501},{"店舗名":"ドミノ・ピザ 蕨北町店","住所":"〒335-0001 埼玉県蕨市北町１丁目１７−２１","ステータス":"APP_DISPLAY","region":"Warabi","lat":35.830212,"lng":139.684525},{"店舗名":"鶏太郎 蕨店","住所":"〒335-0001 埼玉県蕨市北町１丁目２５−１２","ステータス":"APP_DISPLAY","region":"Warabi","lat":35.830151,"lng":139.681046},{"店舗名":"江西料理","住所":"〒335-0001 埼玉県蕨市北町１丁目３−４","ステータス":"APP_DISPLAY","region":"Warabi","lat":35.828514,"lng":139.686295},{"店舗名":"蕨 BAR RAIZ","住所":"〒335-0001 埼玉県蕨市北町１丁目４−１９","ステータス":"APP_DISPLAY","region":"Warabi","lat":35.829193,"lng":139.686996},{"店舗名":"メガナ・ハレル・マート&ダイニング","住所":"〒335-0001 埼玉県蕨市北町１丁目５−９","ステータス":"APP_DISPLAY","region":"Warabi","lat":35.829899,"lng":139.686295},{"店舗名":"かつや 蕨北町店","住所":"〒335-0001 埼玉県蕨市北町３丁目４−８","ステータス":"APP_DISPLAY","region":"Warabi","lat":35.82687,"lng":139.676468},{"店舗名":"京都北白川 ラーメン魁力屋 蕨店","住所":"〒335-0001 埼玉県蕨市北町５丁目４−３","ステータス":"APP_DISPLAY","region":"Warabi","lat":35.831047,"lng":139.673004},{"店舗名":"麺場 田所商店 南浦和店","住所":"〒335-0001 埼玉県蕨市北町５丁目９−８","ステータス":"APP_DISPLAY","region":"Warabi","lat":35.83313,"lng":139.669922},{"店舗名":"寿し政","住所":"〒335-0001埼玉県蕨市北町１－８－８","ステータス":"APP_DISPLAY","region":"Warabi","lat":35.828098,"lng":139.684647},{"店舗名":"魚民 蕨東口駅前店","住所":"〒335-0002 埼玉県蕨市塚越１丁目２−１５","ステータス":"APP_DISPLAY","region":"Warabi","lat":35.828526,"lng":139.691238},{"店舗名":"果茶果茶 蕨駅前","住所":"〒335-0002 埼玉県蕨市塚越１丁目２−１５","ステータス":"APP_DISPLAY","region":"Warabi","lat":35.828526,"lng":139.691238},{"店舗名":"隠れ菴　忍家蕨駅東口店","住所":"〒335-0002 埼玉県蕨市塚越１丁目２−１５","ステータス":"APP_DISPLAY","region":"Warabi","lat":35.828526,"lng":139.691238},{"店舗名":"からあげの鉄人 蕨東口駅前店","住所":"〒335-0002 埼玉県蕨市塚越１丁目２−１５ マルベリービル","ステータス":"APP_DISPLAY","region":"Warabi","lat":35.828526,"lng":139.691238},{"店舗名":"とんかつの和吉 蕨東口駅前店","住所":"〒335-0002 埼玉県蕨市塚越１丁目２−１５ マルベリービル","ステータス":"APP_DISPLAY","region":"Warabi","lat":35.828526,"lng":139.691238},{"店舗名":"大衆鰻 うな銀 蕨東口駅前店","住所":"〒335-0002 埼玉県蕨市塚越１丁目２−１５ マルベリービル","ステータス":"APP_DISPLAY","region":"Warabi","lat":35.828526,"lng":139.691238},{"店舗名":"ミルゼリッチ 蕨駅前店","住所":"〒335-0002 埼玉県蕨市塚越１丁目２−１５ マルベリービル","ステータス":"APP_DISPLAY","region":"Warabi","lat":35.828526,"lng":139.691238},{"店舗名":"わらび餅茶屋 蕨駅前店","住所":"〒335-0002 埼玉県蕨市塚越１丁目２−１５ マルベリービル","ステータス":"APP_DISPLAY","region":"Warabi","lat":35.828526,"lng":139.691238},{"店舗名":"吉野家 蕨駅前店","住所":"〒335-0002 埼玉県蕨市塚越１丁目４−１","ステータス":"APP_DISPLAY","region":"Warabi","lat":35.827854,"lng":139.690948},{"店舗名":"～ステーキと焙煎黒カレー～ふ らんす亭蕨店 France tei Warabi","住所":"〒335-0002 埼玉県蕨市塚越１丁目４−７ 聖ビル 2F","ステータス":"APP_DISPLAY","region":"Warabi","lat":35.827744,"lng":139.691879},{"店舗名":"バーガーキング蕨駅東口店","住所":"〒335-0002 埼玉県蕨市塚越１丁目５−１１","ステータス":"APP_DISPLAY","region":"Warabi","lat":35.827484,"lng":139.692444},{"店舗名":"鮨 おくうら 蕨店","住所":"〒335-0002 埼玉県蕨市塚越１丁目５−１４","ステータス":"APP_DISPLAY","region":"Warabi","lat":35.827663,"lng":139.692108},{"店舗名":"大盛海鮮天丼マウンテン 蕨店","住所":"〒335-0002 埼玉県蕨市塚越１丁目５−１４","ステータス":"APP_DISPLAY","region":"Warabi","lat":35.827663,"lng":139.692108},{"店舗名":"鮨 酒 肴 杉玉 蕨店","住所":"〒335-0002 埼玉県蕨市塚越１丁目５−１４","ステータス":"APP_DISPLAY","region":"Warabi","lat":35.827663,"lng":139.692108},{"店舗名":"鮨 よし田 蕨店","住所":"〒335-0002 埼玉県蕨市塚越１丁目５−１４ 1,1fc","ステータス":"APP_DISPLAY","region":"Warabi","lat":35.827663,"lng":139.692108},{"店舗名":"まぐろ丼と海鮮丼 近衛 蕨店","住所":"〒335-0002 埼玉県蕨市塚越１丁目５−１４ 1,1fc","ステータス":"APP_DISPLAY","region":"Warabi","lat":35.827663,"lng":139.692108},{"店舗名":"stm haral food","住所":"〒335-0002 埼玉県蕨市塚越１丁目９−９","ステータス":"APP_DISPLAY","region":"Warabi","lat":35.826366,"lng":139.694183},{"店舗名":"GORKHALI","住所":"〒335-0002 埼玉県蕨市塚越２-１-１８","ステータス":"APP_DISPLAY","region":"Warabi","lat":35.8284,"lng":139.69223},{"店舗名":"フィリピンレストラン レインボー","住所":"〒335-0002 埼玉県蕨市塚越２丁目１−１","ステータス":"APP_DISPLAY","region":"Warabi","lat":35.828621,"lng":139.692078},{"店舗名":"Hà Nội Beer Garden","住所":"〒335-0002 埼玉県蕨市塚越２丁目１−１","ステータス":"APP_DISPLAY","region":"Warabi","lat":35.828621,"lng":139.692078},{"店舗名":"ザ・ルンビニ アジアンダイニング&バー","住所":"〒335-0002 埼玉県蕨市塚越５丁目４８−１","ステータス":"APP_DISPLAY","region":"Warabi","lat":35.819611,"lng":139.702408},{"店舗名":"明洞","住所":"〒335-0002 埼玉県蕨市塚越７丁目３７−１３","ステータス":"APP_DISPLAY","region":"Warabi","lat":35.819153,"lng":139.707291},{"店舗名":"かつや 蕨塚越店","住所":"〒335-0002 埼玉県蕨市塚越７丁目８−２","ステータス":"APP_DISPLAY","region":"Warabi","lat":35.824131,"lng":139.706833},{"店舗名":"鰻の成瀬 蕨店","住所":"〒335-0003 埼玉県蕨市南町２丁目１６−１","ステータス":"APP_DISPLAY","region":"Warabi","lat":35.820274,"lng":139.695847},{"店舗名":"ホルモンひろ","住所":"〒335-0003 埼玉県蕨市南町３－２０－５","ステータス":"APP_DISPLAY","region":"Warabi","lat":35.816589,"lng":139.700623},{"店舗名":"ゴツ盛り牛カルビ丼 重兵衛 蕨南店","住所":"〒335-0003 埼玉県蕨市南町３丁目２５−１１","ステータス":"APP_DISPLAY","region":"Warabi","lat":35.817295,"lng":139.700165},{"店舗名":"宮崎辛麺 響 南町3丁目3号店","住所":"〒335-0003 埼玉県蕨市南町３丁目２５−１１","ステータス":"APP_DISPLAY","region":"Warabi","lat":35.817295,"lng":139.700165},{"店舗名":"赤身肉ローストビーフとハンバーグ The Roast Beef Tokyo 蕨南店","住所":"〒335-0003 埼玉県蕨市南町３丁目２５−１１","ステータス":"APP_DISPLAY","region":"Warabi","lat":35.817295,"lng":139.700165},{"店舗名":"アンナプルナ annapurna","住所":"〒335-0004","ステータス":"RECEIPT","region":"Warabi","lat":35.825909,"lng":139.690643},{"店舗名":"クレイジーケバブ＆アジアンダイニング","住所":"〒335-0004 埼玉県蕨市中央","ステータス":"APP_DISPLAY","region":"Warabi","lat":35.825909,"lng":139.690643},{"店舗名":"GUGINI MOMO COTTAGE","住所":"〒335-0004 埼玉県蕨市中央","ステータス":"APP_DISPLAY","region":"Warabi","lat":35.825909,"lng":139.690643},{"店舗名":"MANAKAMANA RESTAURANT&HALAL FOOD","住所":"〒335-0004 埼玉県蕨市中央","ステータス":"APP_DISPLAY","region":"Warabi","lat":35.825909,"lng":139.690643},{"店舗名":"spicy motel 欧風カレー＆ステーキ肉バル","住所":"〒335-0004 埼玉県蕨市中央１丁目","ステータス":"APP_DISPLAY","region":"Warabi","lat":35.825909,"lng":139.690643},{"店舗名":"福记麻辣烫","住所":"〒335-0004 埼玉県蕨市中央１丁目１１−１","ステータス":"APP_DISPLAY","region":"Warabi","lat":35.826889,"lng":139.689072},{"店舗名":"We kitchen 蘭州牛肉拉麺","住所":"〒335-0004 埼玉県蕨市中央１丁目１１−１","ステータス":"APP_DISPLAY","region":"Warabi","lat":35.826889,"lng":139.689072},{"店舗名":"津味軒","住所":"〒335-0004 埼玉県蕨市中央１丁目１１−１","ステータス":"APP_DISPLAY","region":"Warabi","lat":35.826889,"lng":139.689072},{"店舗名":"カレーハウス CoCo壱番屋 蕨中央店","住所":"〒335-0004 埼玉県蕨市中央１丁目１１−１２","ステータス":"APP_DISPLAY","region":"Warabi","lat":35.82613,"lng":139.688889},{"店舗名":"Bui tapioca warabi","住所":"〒335-0004 埼玉県蕨市中央１丁目１２−２","ステータス":"APP_DISPLAY","region":"Warabi","lat":35.82579,"lng":139.689484},{"店舗名":"そうめん専門　甚-JIN-　蕨店","住所":"〒335-0004 埼玉県蕨市中央１丁目１３−１ スポーツクラブNAS蕨","ステータス":"APP_DISPLAY","region":"Warabi","lat":35.826038,"lng":139.689926},{"店舗名":"吉野家 蕨駅西口店","住所":"〒335-0004 埼玉県蕨市中央１丁目２５−１","ステータス":"APP_DISPLAY","region":"Warabi","lat":35.828159,"lng":139.688889},{"店舗名":"カラオケすなっく ちぐさ","住所":"〒335-0004 埼玉県蕨市中央１丁目２５−９","ステータス":"APP_DISPLAY","region":"Warabi","lat":35.828331,"lng":139.688599},{"店舗名":"ホルモン道場 佳乃坊 蕨店","住所":"〒335-0004 埼玉県蕨市中央１丁目２９－２","ステータス":"APP_DISPLAY","region":"Warabi","lat":35.828403,"lng":139.688629},{"店舗名":"横濱家系ラーメン 二代目 野中家","住所":"〒335-0004 埼玉県蕨市中央１丁目９−３ セントラルプラザ","ステータス":"APP_DISPLAY","region":"Warabi","lat":35.826729,"lng":139.689636},{"店舗名":"Dubbing Foods Room","住所":"〒335-0004 埼玉県蕨市中央１丁目９−８","ステータス":"APP_DISPLAY","region":"Warabi","lat":35.826706,"lng":139.689194},{"店舗名":"福味 饱藏 蕨店","住所":"〒335-0004 埼玉県蕨市中央２丁目３−１５ 月岡荘","ステータス":"APP_DISPLAY","region":"Warabi","lat":35.824421,"lng":139.689575},{"店舗名":"焼きたてのはらみ匠蕨中央","住所":"〒335-0004 埼玉県蕨市中央３ー５ー６","ステータス":"APP_DISPLAY","region":"Warabi","lat":35.825832,"lng":139.688599},{"店舗名":"韓国惣菜金ちゃん korean dining kinchan","住所":"〒335-0004 埼玉県蕨市中央３丁目１６−３ キャニオンマンション蕨","ステータス":"APP_DISPLAY","region":"Warabi","lat":35.827682,"lng":139.685562},{"店舗名":"家味道","住所":"〒335-0004 埼玉県蕨市中央３丁目１９−２０ ライオンズプラザ蕨シティー","ステータス":"APP_DISPLAY","region":"Warabi","lat":35.826485,"lng":139.685898},{"店舗名":"ラ・テラス大作","住所":"〒335-0004 埼玉県蕨市中央３丁目４−１","ステータス":"APP_DISPLAY","region":"Warabi","lat":35.826775,"lng":139.688477},{"店舗名":"【サクッと爆上げ!!爆盛鶏唐丼】唐揚げ商店鳥一ミート 蕨駅西口店","住所":"〒335-0004 埼玉県蕨市中央３丁目５－６","ステータス":"APP_DISPLAY","region":"Warabi","lat":35.825832,"lng":139.688599},{"店舗名":"アンナプルナ レストラン＆バー","住所":"〒335-0004 埼玉県蕨市中央３丁目５−６","ステータス":"APP_DISPLAY","region":"Warabi","lat":35.825832,"lng":139.688599},{"店舗名":"【出汁の旨みとたっぷり具材】雑炊の気分 蕨駅西口店","住所":"〒335-0004 埼玉県蕨市中央３丁目５−６","ステータス":"APP_DISPLAY","region":"Warabi","lat":35.825832,"lng":139.688599},{"店舗名":"【ふわふわ半熟】太陽のオムライス 蕨駅西口店","住所":"〒335-0004 埼玉県蕨市中央３丁目５−６","ステータス":"APP_DISPLAY","region":"Warabi","lat":35.825832,"lng":139.688599},{"店舗名":"ガリバタハウス TOKYO 蕨中央","住所":"〒335-0004 埼玉県蕨市中央３丁目５−６","ステータス":"APP_DISPLAY","region":"Warabi","lat":35.825832,"lng":139.688599},{"店舗名":"絶品ラー油つけそば 侍空 蕨中央","住所":"〒335-0004 埼玉県蕨市中央３丁目５−６","ステータス":"APP_DISPLAY","region":"Warabi","lat":35.825832,"lng":139.688599},{"店舗名":"【本格麻辣×自家製春雨】白虎麻辣湯 蕨駅西口店","住所":"〒335-0004 埼玉県蕨市中央３丁目５−６","ステータス":"APP_DISPLAY","region":"Warabi","lat":35.825832,"lng":139.688599},{"店舗名":"クリスピーチキンアンドトマト 蕨駅前店 CRISPY CHICKEN n' TOMATO Warabiekimae","住所":"〒335-0004 埼玉県蕨市中央３丁目５−６","ステータス":"APP_DISPLAY","region":"Warabi","lat":35.825832,"lng":139.688599},{"店舗名":"絶品牛ハラミ SteakGuity 蕨中央店","住所":"〒335-0004 埼玉県蕨市中央３丁目５−６","ステータス":"APP_DISPLAY","region":"Warabi","lat":35.825832,"lng":139.688599},{"店舗名":"宮崎辛麺 響 蕨中央","住所":"〒335-0004 埼玉県蕨市中央３丁目５−６ 蕨 ハイリーハイツ","ステータス":"APP_DISPLAY","region":"Warabi","lat":35.825832,"lng":139.688599},{"店舗名":"メシが進む！生姜焼きとん亭KING中央店","住所":"〒335-0004 埼玉県蕨市中央３丁目５−６ 蕨 ハイリーハイツ 103","ステータス":"APP_DISPLAY","region":"Warabi","lat":35.825832,"lng":139.688599},{"店舗名":"韓国ビビンバハルモニ蕨中央","住所":"〒335-0004 埼玉県蕨市中央３丁目５−６ 蕨 ハイリーハイツ 103","ステータス":"APP_DISPLAY","region":"Warabi","lat":35.825832,"lng":139.688599},{"店舗名":"つけ麺 小半","住所":"〒335-0004 埼玉県蕨市中央３丁目６−２","ステータス":"RECEIPT","region":"Warabi","lat":35.825642,"lng":139.688919},{"店舗名":"あぺたいと 戸田店","住所":"〒335-0004 埼玉県蕨市中央６丁目１６−２２","ステータス":"APP_DISPLAY","region":"Warabi","lat":35.818939,"lng":139.681732},{"店舗名":"インド・ネパールレストラン アーマ","住所":"〒335-0004 埼玉県蕨市中央６丁目３−４８","ステータス":"APP_DISPLAY","region":"Warabi","lat":35.820881,"lng":139.685547},{"店舗名":"寿司・旬菜 それぞれ","住所":"〒335-0004 埼玉県蕨市中央７丁目３１−１５","ステータス":"APP_DISPLAY","region":"Warabi","lat":35.817123,"lng":139.687607},{"店舗名":"カレーパン専門店　うさぎ","住所":"〒335-0004 埼玉県蕨市中央７丁目３８−３","ステータス":"APP_DISPLAY","region":"Warabi","lat":35.817459,"lng":139.6866},{"店舗名":"ぱぱれすとらん弁当部","住所":"〒335-0005 埼玉県蕨市錦町１丁目１０−１１","ステータス":"APP_DISPLAY","region":"Warabi","lat":35.819279,"lng":139.681458},{"店舗名":"ケンタッキーフライドチキン ビバモール蕨錦町店","住所":"〒335-0005 埼玉県蕨市錦町１丁目１２−１","ステータス":"APP_DISPLAY","region":"Warabi","lat":35.822811,"lng":139.677795},{"店舗名":"ジェラフル　ビバモール蕨錦町店","住所":"〒335-0005 埼玉県蕨市錦町１丁目１２−１ ビバモール蕨錦町","ステータス":"APP_DISPLAY","region":"Warabi","lat":35.822811,"lng":139.677795},{"店舗名":"麺屋こころ蕨店","住所":"埼玉県蕨市中央１－３－１ぬくいビル１階","ステータス":"RECEIPT","region":"Warabi","lat":35.827507,"lng":139.688828}]