[{"店舗名":"ピザハット 大和高田神楽店","住所":"〒635-0026 奈良県大和高田市神楽１１０−３","ステータス":"APP_DISPLAY","region":"Yamato-Takada","lat":34.524727,"lng":135.741486},{"店舗名":"チキン・ウイングストリート 大和高田神楽店","住所":"〒635-0026 奈良県大和高田市神楽１１０−３","ステータス":"APP_DISPLAY","region":"Yamato-Takada","lat":34.524727,"lng":135.741486},{"店舗名":"トスカーニパスタ 大和高田神楽店","住所":"〒635-0026 奈良県大和高田市神楽１１０−３","ステータス":"APP_DISPLAY","region":"Yamato-Takada","lat":34.524727,"lng":135.741486},{"店舗名":"酒と串　鉄板天晴","住所":"〒635-0031 奈良県大和高田市今里４５６−４","ステータス":"APP_DISPLAY","region":"Yamato-Takada","lat":34.507687,"lng":135.758575},{"店舗名":"E-nami","住所":"〒635-0043 奈良県大和高田市出１６９−１","ステータス":"RECEIPT","region":"Yamato-Takada","lat":34.496658,"lng":135.749619},{"店舗名":"家庭料理と串カツ ちづるん","住所":"〒635-0043 奈良県大和高田市出325-6","ステータス":"APP_DISPLAY","region":"Yamato-Takada","lat":34.492641,"lng":135.748459},{"店舗名":"ジャンク屋　剣","住所":"〒635-0054 奈良県大和高田市曽大根１２２−７","ステータス":"APP_DISPLAY","region":"Yamato-Takada","lat":34.495495,"lng":135.736832},{"店舗名":"吉野家 大和高田東室店","住所":"〒635-0055 奈良県大和高田市曽大根１丁目１−５","ステータス":"APP_DISPLAY","region":"Yamato-Takada","lat":34.49892,"lng":135.735107},{"店舗名":"ほっかほっか亭 大和高田春日町店","住所":"〒635-0067 奈良県大和高田市春日町２丁目１−１","ステータス":"APP_DISPLAY","region":"Yamato-Takada","lat":34.503708,"lng":135.739624},{"店舗名":"甲ノ鳥","住所":"〒635-0071 奈良県大和高田市築山","ステータス":"APP_DISPLAY","region":"Yamato-Takada","lat":34.52478,"lng":135.734589},{"店舗名":"地びーる屋まあまあ","住所":"〒635-0082 奈良県大和高田市本郷町２−２５","ステータス":"RECEIPT","region":"Yamato-Takada","lat":34.514786,"lng":135.743942},{"店舗名":"うなぎ家　敏","住所":"〒635-0082 奈良県大和高田市本郷町２−４０","ステータス":"APP_DISPLAY","region":"Yamato-Takada","lat":34.515671,"lng":135.744019},{"店舗名":"スリランカレストラン SOUTH VILLAGE CEYLON","住所":"〒635-0082 奈良県大和高田市本郷町３−１０","ステータス":"RECEIPT","region":"Yamato-Takada","lat":34.514763,"lng":135.7435},{"店舗名":"123BAKERY","住所":"〒635-0085","ステータス":"APP_DISPLAY","region":"Yamato-Takada","lat":34.507675,"lng":135.743774},{"店舗名":"串まさ","住所":"〒635-0085 奈良県大和高田市片塩町６−１０","ステータス":"RECEIPT","region":"Yamato-Takada","lat":34.507095,"lng":135.744415},{"店舗名":"ピザ・ピーターパン　大和高田店","住所":"〒635-0087","ステータス":"APP_DISPLAY","region":"Yamato-Takada","lat":34.514141,"lng":135.742065},{"店舗名":"5K COFFEE","住所":"〒635-0097","ステータス":"RECEIPT","region":"Yamato-Takada","lat":34.517914,"lng":135.742233},{"店舗名":"大衆鰻 うな銀 大和高田駅前店","住所":"〒635-0097 奈良県大和高田市北本町１４−４","ステータス":"APP_DISPLAY","region":"Yamato-Takada","lat":34.519356,"lng":135.743011},{"店舗名":"とんかつの和吉 大和高田駅前店","住所":"〒635-0097 奈良県大和高田市北本町１４−４","ステータス":"APP_DISPLAY","region":"Yamato-Takada","lat":34.519356,"lng":135.743011},{"店舗名":"韓国クリスピーチキン＆HOTドッグ　チキンモッコパ 大和高田駅前店","住所":"〒635-0097 奈良県大和高田市北本町１４−４","ステータス":"APP_DISPLAY","region":"Yamato-Takada","lat":34.519356,"lng":135.743011},{"店舗名":"魚民 大和高田駅前店","住所":"〒635-0097 奈良県大和高田市北本町１４−４","ステータス":"APP_DISPLAY","region":"Yamato-Takada","lat":34.519356,"lng":135.743011},{"店舗名":"からあげの鉄人 大和高田駅前店","住所":"〒635-0097 奈良県大和高田市北本町１４−４","ステータス":"APP_DISPLAY","region":"Yamato-Takada","lat":34.519356,"lng":135.743011}]