[{"店舗名":"ひなたのこねこさん","住所":"〒581-0003","ステータス":"APP_DISPLAY","region":"Yao","lat":34.627277,"lng":135.600861},{"店舗名":"炭火焼鳥　らんま","住所":"〒581-0003 大阪府八尾市本町１丁目１−７","ステータス":"APP_DISPLAY","region":"Yao","lat":34.627438,"lng":135.600296},{"店舗名":"【インドカレー専門店】ヒマラヤキッチンカビタ Himalayan Kitchen Kabita","住所":"〒581-0003 大阪府八尾市本町2丁目1-2","ステータス":"APP_DISPLAY","region":"Yao","lat":34.627834,"lng":135.600021},{"店舗名":"カビタ","住所":"〒581-0003 大阪府八尾市本町２丁目１−２ ヒマラヤンビル 1f","ステータス":"RECEIPT","region":"Yao","lat":34.627834,"lng":135.600021},{"店舗名":"crepecomugi","住所":"〒581-0003 大阪府八尾市本町３丁目６−１","ステータス":"APP_DISPLAY","region":"Yao","lat":34.626087,"lng":135.597961},{"店舗名":"poimaru.","住所":"〒581-0003 大阪府八尾市本町４丁目２−４３","ステータス":"APP_DISPLAY","region":"Yao","lat":34.629677,"lng":135.597015},{"店舗名":"焼肉 河内家","住所":"〒581-0003 大阪府八尾市本町7-11-5","ステータス":"APP_DISPLAY","region":"Yao","lat":34.630375,"lng":135.601059},{"店舗名":"油そば専門店-大阪油党","住所":"〒581-0004","ステータス":"APP_DISPLAY","region":"Yao","lat":34.626545,"lng":135.603439},{"店舗名":"鮨 おくうら 近鉄八尾店","住所":"〒581-0004 大阪府八尾市東本町３丁目５−７","ステータス":"APP_DISPLAY","region":"Yao","lat":34.629864,"lng":135.602646},{"店舗名":"鮨 よし田 近鉄八尾店","住所":"〒581-0004 大阪府八尾市東本町３丁目５−７","ステータス":"APP_DISPLAY","region":"Yao","lat":34.629864,"lng":135.602646},{"店舗名":"まぐろ丼と海鮮丼 近衛 近鉄八尾店","住所":"〒581-0004 大阪府八尾市東本町３丁目５−７","ステータス":"APP_DISPLAY","region":"Yao","lat":34.629864,"lng":135.602646},{"店舗名":"鮨 酒 肴 杉玉 近鉄八尾店","住所":"〒581-0004 大阪府八尾市東本町３丁目５−７","ステータス":"APP_DISPLAY","region":"Yao","lat":34.629864,"lng":135.602646},{"店舗名":"大盛海鮮天丼マウンテン 近鉄八尾店","住所":"〒581-0004 大阪府八尾市東本町３丁目５−７","ステータス":"APP_DISPLAY","region":"Yao","lat":34.629864,"lng":135.602646},{"店舗名":"大起水産 回転寿司 八尾店","住所":"〒581-0005 大阪府八尾市荘内町１丁目１−４４","ステータス":"APP_DISPLAY","region":"Yao","lat":34.625786,"lng":135.607727},{"店舗名":"そら食堂","住所":"〒581-0012","ステータス":"APP_DISPLAY","region":"Yao","lat":34.627502,"lng":135.613037},{"店舗名":"ドミノ・ピザ 八尾小阪合町店","住所":"〒581-0012 大阪府八尾市小阪合町２丁目５−１３","ステータス":"APP_DISPLAY","region":"Yao","lat":34.625774,"lng":135.613647},{"店舗名":"鰻 才谷や 八尾店","住所":"〒581-0013","ステータス":"APP_DISPLAY","region":"Yao","lat":34.626865,"lng":135.619125},{"店舗名":"今日も一日ご安全に","住所":"〒581-0013 大阪府八尾市山本南1丁目3-14","ステータス":"APP_DISPLAY","region":"Yao","lat":34.620934,"lng":135.62384},{"店舗名":"Mm","住所":"〒581-0013 大阪府八尾市山本町南１丁目３−２０","ステータス":"RECEIPT","region":"Yao","lat":34.627548,"lng":135.619232},{"店舗名":"ジャンボ酒場 河内山本駅前店","住所":"〒581-0013 大阪府八尾市山本町南１丁目４−１","ステータス":"APP_DISPLAY","region":"Yao","lat":34.627651,"lng":135.619965},{"店舗名":"Cafe Laughing","住所":"〒581-0013 大阪府八尾市山本町南６丁目１２−１６","ステータス":"APP_DISPLAY","region":"Yao","lat":34.621883,"lng":135.62178},{"店舗名":"PAINAHULA","住所":"〒581-0013 大阪府八尾市山本町南7丁目13‐29","ステータス":"APP_DISPLAY","region":"Yao","lat":34.618855,"lng":135.621399},{"店舗名":"うな希”ののは","住所":"〒581-0014","ステータス":"APP_DISPLAY","region":"Yao","lat":34.618946,"lng":135.612823},{"店舗名":"海鮮丼専門店 丼丸 高安店","住所":"〒581-0014 大阪府八尾市中田","ステータス":"APP_DISPLAY","region":"Yao","lat":34.618946,"lng":135.612823},{"店舗名":"京都北白川 ラーメン魁力屋 八尾店","住所":"〒581-0014 大阪府八尾市中田３丁目６","ステータス":"APP_DISPLAY","region":"Yao","lat":34.61779,"lng":135.610703},{"店舗名":"鶏笑 八尾 青山通り店","住所":"〒581-0016 大阪府八尾市八尾木北１丁目３","ステータス":"APP_DISPLAY","region":"Yao","lat":34.615837,"lng":135.610825},{"店舗名":"Love & Cheese","住所":"〒581-0017","ステータス":"RECEIPT","region":"Yao","lat":34.624458,"lng":135.608292},{"店舗名":"大起水産 海鮮丼と干物定食 八尾店","住所":"〒581-0017 大阪府八尾市高美町１丁目１−７","ステータス":"RECEIPT","region":"Yao","lat":34.625713,"lng":135.607803},{"店舗名":"大起水産 海鮮丼と干物定食 八尾店","住所":"〒581-0017 大阪府八尾市高美町１丁目１−７","ステータス":"APP_DISPLAY","region":"Yao","lat":34.625713,"lng":135.607803},{"店舗名":"mila mila","住所":"〒581-0017 大阪府八尾市高美町１丁目３−８","ステータス":"APP_DISPLAY","region":"Yao","lat":34.625713,"lng":135.609009},{"店舗名":"鶏に恋した日","住所":"〒581-0017 大阪府八尾市高美町１丁目３−８","ステータス":"APP_DISPLAY","region":"Yao","lat":34.625713,"lng":135.609009},{"店舗名":"グリルショップやの","住所":"〒581-0017 大阪府八尾市高美町４丁目１３−３","ステータス":"APP_DISPLAY","region":"Yao","lat":34.617249,"lng":135.610336},{"店舗名":"やきとり大吉 八尾青山店","住所":"〒581-0018 大阪府八尾市青山町１丁目４−２","ステータス":"APP_DISPLAY","region":"Yao","lat":34.625637,"lng":135.610626},{"店舗名":"インドレストランBINDU ビンドゥ 八尾本店","住所":"〒581-0018 大阪府八尾市青山町４丁目２−３５","ステータス":"APP_DISPLAY","region":"Yao","lat":34.620487,"lng":135.610123},{"店舗名":"Muoi Coffee","住所":"〒581-0019 大阪府八尾市南小阪合町３丁目","ステータス":"APP_DISPLAY","region":"Yao","lat":34.62468,"lng":135.616989},{"店舗名":"ケンタッキーフライドチキン アクロスプラザ八尾店","住所":"〒581-0023 大阪府八尾市都塚４丁目１０１８","ステータス":"APP_DISPLAY","region":"Yao","lat":34.604092,"lng":135.621796},{"店舗名":"明洞ポチャ 志紀店","住所":"〒581-0025 大阪府八尾市天王寺屋","ステータス":"RECEIPT","region":"Yao","lat":34.608097,"lng":135.608093},{"店舗名":"インドカレーマウントエベレスト","住所":"〒581-0025 大阪府八尾市天王寺屋２丁目１０９−１","ステータス":"APP_DISPLAY","region":"Yao","lat":34.605892,"lng":135.611053},{"店舗名":"〈ごはん大盛まで無料〉ハンバーグ亭 沢村 八尾市店","住所":"〒581-0025 大阪府八尾市天王寺屋２丁目１０９−１","ステータス":"RECEIPT","region":"Yao","lat":34.605892,"lng":135.611053},{"店舗名":"〈ごはん特盛まで無料〉デミグラスハンバーグの店 デミたま 八尾市店","住所":"〒581-0025 大阪府八尾市天王寺屋２丁目１０９−１","ステータス":"RECEIPT","region":"Yao","lat":34.605892,"lng":135.611053},{"店舗名":"Namielle","住所":"〒581-0026 大阪府八尾市曙町","ステータス":"APP_DISPLAY","region":"Yao","lat":34.609623,"lng":135.609985},{"店舗名":"気まぐれ虎ッ虎","住所":"〒581-0031","ステータス":"APP_DISPLAY","region":"Yao","lat":34.60284,"lng":135.612244},{"店舗名":"ほっかほっか亭 志紀店","住所":"〒581-0031 大阪府八尾市志紀町１丁目８−１","ステータス":"APP_DISPLAY","region":"Yao","lat":34.60133,"lng":135.614105},{"店舗名":"ジャンボ酒場 志紀駅前店","住所":"〒581-0031 大阪府八尾市志紀町２丁目１３","ステータス":"APP_DISPLAY","region":"Yao","lat":34.600292,"lng":135.614944},{"店舗名":"丸幸水産　志紀店","住所":"〒581-0031 大阪府八尾市志紀町３丁目","ステータス":"RECEIPT","region":"Yao","lat":34.600628,"lng":135.615387},{"店舗名":"インド・ネパール料理 シワリラ 志紀店","住所":"〒581-0031 大阪府八尾市志紀町３丁目２９","ステータス":"APP_DISPLAY","region":"Yao","lat":34.601627,"lng":135.614716},{"店舗名":"吉野家 イズミヤSC八尾店","住所":"〒581-0036 大阪府八尾市沼１丁目１","ステータス":"APP_DISPLAY","region":"Yao","lat":34.588596,"lng":135.602982},{"店舗名":"バーガーキング イズミヤ八尾店","住所":"〒581-0036 大阪府八尾市沼１丁目１","ステータス":"APP_DISPLAY","region":"Yao","lat":34.588596,"lng":135.602982},{"店舗名":"ケンタッキーフライドチキン イズミヤ八尾店","住所":"〒581-0036 大阪府八尾市沼１丁目１","ステータス":"APP_DISPLAY","region":"Yao","lat":34.588596,"lng":135.602982},{"店舗名":"3ANGEL'S FILIPINO FOOD & SAR I-SARI STORE","住所":"〒581-0038 大阪府八尾市若林町３丁目２","ステータス":"RECEIPT","region":"Yao","lat":34.592419,"lng":135.58345},{"店舗名":"特盛お得どんぶりや","住所":"〒581-0039","ステータス":"APP_DISPLAY","region":"Yao","lat":34.595703,"lng":135.586929},{"店舗名":"今晩飯店 KONBAN HANTEN","住所":"〒581-0039 大阪府八尾市太田新町","ステータス":"APP_DISPLAY","region":"Yao","lat":34.595703,"lng":135.586929},{"店舗名":"TEXAS American diner","住所":"〒581-0051 大阪府八尾市竹渕西３丁目１４５","ステータス":"APP_DISPLAY","region":"Yao","lat":34.617626,"lng":135.563156},{"店舗名":"【アサイー&グリークヨーグルト】GREEKSPOON 八尾竹渕西店","住所":"〒581-0051 大阪府八尾市竹渕西３丁目１４５","ステータス":"RECEIPT","region":"Yao","lat":34.617626,"lng":135.563156},{"店舗名":"焼肉はらだ 本店","住所":"〒581-0054 大阪府八尾市南亀井町４丁目４−２０","ステータス":"APP_DISPLAY","region":"Yao","lat":34.61187,"lng":135.579025},{"店舗名":"吉野家 太子堂店","住所":"〒581-0056 大阪府八尾市南太子堂２丁目１−５９","ステータス":"APP_DISPLAY","region":"Yao","lat":34.612888,"lng":135.58989},{"店舗名":"ラーメンまこと屋八尾南太子堂店","住所":"〒581-0056 大阪府八尾市南太子堂３丁目１−６５","ステータス":"APP_DISPLAY","region":"Yao","lat":34.612732,"lng":135.587296},{"店舗名":"白馬童子","住所":"〒581-0056 大阪府八尾市南太子堂６丁目１−３３","ステータス":"APP_DISPLAY","region":"Yao","lat":34.613434,"lng":135.585419},{"店舗名":"ピザハット 八尾店","住所":"〒581-0063 大阪府八尾市太子堂４丁目３−１８ アネックス太子堂","ステータス":"APP_DISPLAY","region":"Yao","lat":34.61293,"lng":135.586746},{"店舗名":"チキン・ウイングストリート 八尾店","住所":"〒581-0063 大阪府八尾市太子堂４丁目３−１８ アネックス太子堂","ステータス":"APP_DISPLAY","region":"Yao","lat":34.61293,"lng":135.586746},{"店舗名":"トスカーニパスタ 八尾店","住所":"〒581-0063 大阪府八尾市太子堂４丁目３−１８ アネックス太子堂","ステータス":"APP_DISPLAY","region":"Yao","lat":34.61293,"lng":135.586746},{"店舗名":"パートナー","住所":"〒581-0064 大阪府八尾市跡部本町1-1-34","ステータス":"APP_DISPLAY","region":"Yao","lat":34.618443,"lng":135.584778},{"店舗名":"ネギトロ一本勝負 久宝寺店","住所":"〒581-0064 大阪府八尾市跡部本町１丁目４−１６ セイシャルビル 1階","ステータス":"APP_DISPLAY","region":"Yao","lat":34.617458,"lng":135.584183},{"店舗名":"海鮮ユッケ丼 鮪家 toroya 久宝寺店","住所":"〒581-0064 大阪府八尾市跡部本町１丁目４−１６ セイシャルビル 1階","ステータス":"APP_DISPLAY","region":"Yao","lat":34.617458,"lng":135.584183},{"店舗名":"東京からあげ あげたて 久宝寺店","住所":"〒581-0064 大阪府八尾市跡部本町１丁目４−１６ セイシャルビル 1階","ステータス":"APP_DISPLAY","region":"Yao","lat":34.617458,"lng":135.584183},{"店舗名":"じゃんぼ総本店 JR久宝寺駅前店","住所":"〒581-0068 大阪府八尾市跡部北の町２丁目４−３８","ステータス":"APP_DISPLAY","region":"Yao","lat":34.620701,"lng":135.584412},{"店舗名":"米粉ワッフルFabby","住所":"〒581-0072 大阪府八尾市久宝寺","ステータス":"RECEIPT","region":"Yao","lat":34.626579,"lng":135.591812},{"店舗名":"ちりとり鍋利花","住所":"〒581-0072 大阪府八尾市久宝寺１丁目２−３０","ステータス":"RECEIPT","region":"Yao","lat":34.625374,"lng":135.591568},{"店舗名":"FIESTA PHILIPPINE STORE","住所":"〒581-0072 大阪府八尾市久宝寺５丁目４−２９","ステータス":"APP_DISPLAY","region":"Yao","lat":34.62574,"lng":135.584839},{"店舗名":"Osteria il Gatto","住所":"〒581-0074","ステータス":"APP_DISPLAY","region":"Yao","lat":34.624508,"lng":135.597137},{"店舗名":"神楽坂","住所":"〒581-0074 大阪府八尾市栄町１丁目１−３－Cー２","ステータス":"APP_DISPLAY","region":"Yao","lat":34.62521,"lng":135.597931},{"店舗名":"オ・バン-八尾","住所":"〒581-0081","ステータス":"APP_DISPLAY","region":"Yao","lat":34.624874,"lng":135.604797},{"店舗名":"鶏屋　くだかけ","住所":"〒581-0084 大阪府八尾市植松町","ステータス":"APP_DISPLAY","region":"Yao","lat":34.615505,"lng":135.599716},{"店舗名":"バインミー ミエンナム","住所":"〒581-0085 大阪府八尾市安中町","ステータス":"APP_DISPLAY","region":"Yao","lat":34.620209,"lng":135.597672},{"店舗名":"ほっかほっか亭 JR八尾駅前店","住所":"〒581-0085 大阪府八尾市安中町１丁目６−１３","ステータス":"APP_DISPLAY","region":"Yao","lat":34.618504,"lng":135.597427},{"店舗名":"Blue Lotus Cafe","住所":"〒581-0085 大阪府八尾市安中町１丁目６−９","ステータス":"APP_DISPLAY","region":"Yao","lat":34.6185,"lng":135.597656},{"店舗名":"タコタコチャンピオン","住所":"〒581-0085 大阪府八尾市安中町2-6-9","ステータス":"APP_DISPLAY","region":"Yao","lat":34.618336,"lng":135.597382},{"店舗名":"八尾駅前珈琲","住所":"〒581-0085 大阪府八尾市安中町３丁目７−６","ステータス":"APP_DISPLAY","region":"Yao","lat":34.618019,"lng":135.597061},{"店舗名":"ジャンボ酒場 JR八尾駅前店","住所":"〒581-0085 大阪府八尾市安中町３丁目８−９","ステータス":"APP_DISPLAY","region":"Yao","lat":34.617844,"lng":135.596832},{"店舗名":"Fairies","住所":"〒581-0085 大阪府八尾市安中町６丁目","ステータス":"APP_DISPLAY","region":"Yao","lat":34.617165,"lng":135.601547},{"店舗名":"シャムタイム","住所":"〒581-0086","ステータス":"RECEIPT","region":"Yao","lat":34.621208,"lng":135.599426},{"店舗名":"シャムタイム（おいしいカレーとナンのお店）","住所":"〒581-0086 大阪府八尾市陽光園２丁目３−１６","ステータス":"APP_DISPLAY","region":"Yao","lat":34.619793,"lng":135.598343},{"店舗名":"21時にアイス 八尾店 Ice at 21:00","住所":"〒581-0086 大阪府八尾市陽光園２丁目３−１６","ステータス":"APP_DISPLAY","region":"Yao","lat":34.619793,"lng":135.598343},{"店舗名":"カフェ ニワトコ","住所":"〒581-0086 大阪府八尾市陽光園２丁目４−６","ステータス":"APP_DISPLAY","region":"Yao","lat":34.619286,"lng":135.599594},{"店舗名":"活魚いし田","住所":"〒581-0086 大阪府八尾市陽光園２丁目４−６","ステータス":"APP_DISPLAY","region":"Yao","lat":34.619286,"lng":135.599594},{"店舗名":"鉄板酒館 粉九","住所":"〒581-0086 大阪府八尾市陽光園２丁目６−３１","ステータス":"APP_DISPLAY","region":"Yao","lat":34.619137,"lng":135.599197},{"店舗名":"Korean table マウン","住所":"〒581-0086 大阪府八尾市陽光園２丁目６−３２","ステータス":"APP_DISPLAY","region":"Yao","lat":34.619152,"lng":135.599304},{"店舗名":"春夏冬","住所":"〒581-0087 大阪府八尾市明美町１丁目","ステータス":"RECEIPT","region":"Yao","lat":34.621315,"lng":135.601685},{"店舗名":"フォーベトちゃん八尾店","住所":"〒581-0093","ステータス":"RECEIPT","region":"Yao","lat":34.606819,"lng":135.60614},{"店舗名":"フォーベトちゃん","住所":"〒581-0093 大阪府八尾市東老原２丁目４","ステータス":"APP_DISPLAY","region":"Yao","lat":34.606434,"lng":135.6082},{"店舗名":"餃子専門店　小洞天　八尾","住所":"〒581-0801 大阪府八尾市山城町１丁目１","ステータス":"APP_DISPLAY","region":"Yao","lat":34.631184,"lng":135.599091},{"店舗名":"油そば 豚魂 八尾店 TON-KON","住所":"〒581-0801 大阪府八尾市山城町１丁目２−３","ステータス":"APP_DISPLAY","region":"Yao","lat":34.631477,"lng":135.59903},{"店舗名":"韓国チーズキンパ専門店 ジョウンキンパ 八尾店 Joen-Gimbap Yao cheese gimbap restaurant","住所":"〒581-0801 大阪府八尾市山城町１丁目２−３","ステータス":"APP_DISPLAY","region":"Yao","lat":34.631477,"lng":135.59903},{"店舗名":"韓国ジャージャー麺 梨泰院トンバンジャージャー麺 八尾店","住所":"〒581-0801 大阪府八尾市山城町１丁目２−３","ステータス":"APP_DISPLAY","region":"Yao","lat":34.631477,"lng":135.59903},{"店舗名":"極厚メガチャーシュー丼 丼二郎 八尾店","住所":"〒581-0801 大阪府八尾市山城町１丁目２−３","ステータス":"APP_DISPLAY","region":"Yao","lat":34.631477,"lng":135.59903},{"店舗名":"ゴツ盛り牛カルビ丼 重兵衛 八尾店","住所":"〒581-0801 大阪府八尾市山城町１丁目２−３","ステータス":"APP_DISPLAY","region":"Yao","lat":34.631477,"lng":135.59903},{"店舗名":"ケーキ工房TORUTA","住所":"〒581-0801 大阪府八尾市山城町１丁目２−８","ステータス":"APP_DISPLAY","region":"Yao","lat":34.63158,"lng":135.59848},{"店舗名":"ケーキ工房TORUTA","住所":"〒581-0801 大阪府八尾市山城町１丁目２−８","ステータス":"RECEIPT","region":"Yao","lat":34.63158,"lng":135.59848},{"店舗名":"韓国家庭料理 南大門","住所":"〒581-0802","ステータス":"APP_DISPLAY","region":"Yao","lat":34.631622,"lng":135.600296},{"店舗名":"おでんと肴　清水","住所":"〒581-0802","ステータス":"APP_DISPLAY","region":"Yao","lat":34.631622,"lng":135.600296},{"店舗名":"ピース・アシュベリー","住所":"〒581-0802 大阪府八尾市北本町１丁目","ステータス":"APP_DISPLAY","region":"Yao","lat":34.631622,"lng":135.600296},{"店舗名":"福来園","住所":"〒581-0802 大阪府八尾市北本町1丁目2-21","ステータス":"APP_DISPLAY","region":"Yao","lat":34.631989,"lng":135.600906},{"店舗名":"STAND  SUWA","住所":"〒581-0802 大阪府八尾市北本町２丁目","ステータス":"APP_DISPLAY","region":"Yao","lat":34.631714,"lng":135.602371},{"店舗名":"ケンタッキーフライドチキン 近鉄八尾店","住所":"〒581-0802 大阪府八尾市北本町２丁目１","ステータス":"APP_DISPLAY","region":"Yao","lat":34.630791,"lng":135.600754},{"店舗名":"ラーメンステーション近鉄八尾店","住所":"〒581-0802 大阪府八尾市北本町２丁目１−１","ステータス":"APP_DISPLAY","region":"Yao","lat":34.630791,"lng":135.600754},{"店舗名":"肉彩 椛","住所":"〒581-0802 大阪府八尾市北本町２丁目１１−４","ステータス":"APP_DISPLAY","region":"Yao","lat":34.632839,"lng":135.601364},{"店舗名":"さかな屋　一縁","住所":"〒581-0802 大阪府八尾市北本町２丁目１２−３","ステータス":"RECEIPT","region":"Yao","lat":34.633133,"lng":135.601624},{"店舗名":"屯舍麻辣湯 近鉄八尾店","住所":"〒581-0802 大阪府八尾市北本町２丁目２－２７","ステータス":"APP_DISPLAY","region":"Yao","lat":34.630356,"lng":135.60202},{"店舗名":"アンカーリッジプラス","住所":"〒581-0802 大阪府八尾市北本町２丁目９−１７−１０４","ステータス":"APP_DISPLAY","region":"Yao","lat":34.632683,"lng":135.601974},{"店舗名":"餃子ノまるお","住所":"〒581-0802 大阪府八尾市北本町２丁目９−２０","ステータス":"APP_DISPLAY","region":"Yao","lat":34.632679,"lng":135.602295},{"店舗名":"ハーブガーデン アリオ八尾 HerbGarden ArioYao","住所":"〒581-0803","ステータス":"RECEIPT","region":"Yao","lat":34.631809,"lng":135.603989},{"店舗名":"モツナベダイニング en+","住所":"〒581-0803","ステータス":"APP_DISPLAY","region":"Yao","lat":34.631809,"lng":135.603989},{"店舗名":"【クレープ専門店】ウッフ 八尾店【こだわり卵のスイーツ】","住所":"〒581-0803","ステータス":"RECEIPT","region":"Yao","lat":34.631809,"lng":135.603989},{"店舗名":"福福らーめん 八尾店","住所":"〒581-0803 大阪府八尾市光町１丁目１０−２","ステータス":"APP_DISPLAY","region":"Yao","lat":34.633293,"lng":135.60434},{"店舗名":"ラーメン男塾 八尾店","住所":"〒581-0803 大阪府八尾市光町１丁目１０−２","ステータス":"APP_DISPLAY","region":"Yao","lat":34.633293,"lng":135.60434},{"店舗名":"広泉マーラータン","住所":"〒581-0803 大阪府八尾市光町１丁目５３","ステータス":"APP_DISPLAY","region":"Yao","lat":34.630657,"lng":135.603821},{"店舗名":"串カツ田中 近鉄八尾店","住所":"〒581-0803 大阪府八尾市光町１丁目５５","ステータス":"APP_DISPLAY","region":"Yao","lat":34.631809,"lng":135.603989},{"店舗名":"ナマステヤミーキッチン","住所":"〒581-0803 大阪府八尾市光町２丁目","ステータス":"APP_DISPLAY","region":"Yao","lat":34.631275,"lng":135.605835},{"店舗名":"らーめん四恩","住所":"〒581-0803 大阪府八尾市光町２丁目１８０","ステータス":"APP_DISPLAY","region":"Yao","lat":34.629093,"lng":135.605743},{"店舗名":"SHION'S FACTORY","住所":"〒581-0803 大阪府八尾市光町２丁目１８０","ステータス":"APP_DISPLAY","region":"Yao","lat":34.629093,"lng":135.605743},{"店舗名":"酒と餃子 よつば","住所":"〒581-0803 大阪府八尾市光町２丁目１８０","ステータス":"RECEIPT","region":"Yao","lat":34.629093,"lng":135.605743},{"店舗名":"吉野家 近鉄八尾駅前店","住所":"〒581-0803 大阪府八尾市光町２丁目１８０−１","ステータス":"APP_DISPLAY","region":"Yao","lat":34.629093,"lng":135.605743},{"店舗名":"囲炉裏と天ぷら よつば","住所":"〒581-0803 大阪府八尾市光町２丁目１８０－１７","ステータス":"RECEIPT","region":"Yao","lat":34.629093,"lng":135.605743},{"店舗名":"ショコロブ アリオ八尾店","住所":"〒581-0803 大阪府八尾市光町２丁目３","ステータス":"APP_DISPLAY","region":"Yao","lat":34.632385,"lng":135.60582},{"店舗名":"ハーブガーデン　アリオ八尾","住所":"〒581-0803 大阪府八尾市光町２丁目３","ステータス":"APP_DISPLAY","region":"Yao","lat":34.632385,"lng":135.60582},{"店舗名":"Any1","住所":"〒581-0816 大阪府八尾市佐堂町3丁目3-3","ステータス":"APP_DISPLAY","region":"Yao","lat":34.634789,"lng":135.590652},{"店舗名":"お好み焼き　ヒロ","住所":"〒581-0822 大阪府八尾市高砂町３丁目６６−１１","ステータス":"RECEIPT","region":"Yao","lat":34.649632,"lng":135.611023},{"店舗名":"インドネパール料理マウントフジ 八尾店 Mount Fuji Yao","住所":"〒581-0831 大阪府八尾市山本町北８丁目１−１７","ステータス":"APP_DISPLAY","region":"Yao","lat":34.646591,"lng":135.616608},{"店舗名":"クリスピーチキンアンドトマト 八尾店","住所":"〒581-0831 大阪府八尾市山本町北８丁目１−１７","ステータス":"APP_DISPLAY","region":"Yao","lat":34.646591,"lng":135.616608},{"店舗名":"アサイーボウルとグリークヨーグルトbeauty 山本町店","住所":"〒581-0831 大阪府八尾市山本町北８丁目１−１７","ステータス":"APP_DISPLAY","region":"Yao","lat":34.646591,"lng":135.616608},{"店舗名":"高たんぱく・糖質制限カオマン ガイ 東京鶏飯食堂八尾店","住所":"〒581-0831 大阪府八尾市山本町北８丁目１−１７","ステータス":"APP_DISPLAY","region":"Yao","lat":34.646591,"lng":135.616608},{"店舗名":"もりおか冷麺【REIMEN本舗】 八尾店","住所":"〒581-0831 大阪府八尾市山本町北８丁目１−１７","ステータス":"APP_DISPLAY","region":"Yao","lat":34.646591,"lng":135.616608},{"店舗名":"たっぷりたんぱく肉とブロッコリー生活 八尾店","住所":"〒581-0831 大阪府八尾市山本町北８丁目１−１７","ステータス":"APP_DISPLAY","region":"Yao","lat":34.646591,"lng":135.616608},{"店舗名":"チキンオーバーライス 八尾店","住所":"〒581-0831 大阪府八尾市山本町北８丁目１−１７","ステータス":"APP_DISPLAY","region":"Yao","lat":34.646591,"lng":135.616608},{"店舗名":"東京冷麺スタンド 八尾店","住所":"〒581-0831 大阪府八尾市山本町北８丁目１−１７","ステータス":"APP_DISPLAY","region":"Yao","lat":34.646591,"lng":135.616608},{"店舗名":"Master Of chicken 山本町北店","住所":"〒581-0831 大阪府八尾市山本町北８丁目１−１７","ステータス":"APP_DISPLAY","region":"Yao","lat":34.646591,"lng":135.616608},{"店舗名":"【もっちり玄米と低脂質チキン】とりげん食堂 八尾山本町北店","住所":"〒581-0831 大阪府八尾市山本町北８丁目１−１７","ステータス":"APP_DISPLAY","region":"Yao","lat":34.646591,"lng":135.616608},{"店舗名":"【チキンステーキ弁当】Master Of Chicken～山本町北店～","住所":"〒581-0831 大阪府八尾市山本町北８丁目１−１７","ステータス":"APP_DISPLAY","region":"Yao","lat":34.646591,"lng":135.616608},{"店舗名":"【本格カオマンガイ】ヘルシーカオキッチン～山本町北店～","住所":"〒581-0831 大阪府八尾市山本町北８丁目１−１７","ステータス":"APP_DISPLAY","region":"Yao","lat":34.646591,"lng":135.616608},{"店舗名":"【チキンステーキ弁当】Master Of Chicken～山本町北店～","住所":"〒581-0831 大阪府八尾市山本町北８丁目１−１７","ステータス":"RECEIPT","region":"Yao","lat":34.646591,"lng":135.616608},{"店舗名":"【本格カオマンガイ】ヘルシーカオキッチン～山本町北店～","住所":"〒581-0831 大阪府八尾市山本町北８丁目１−１７","ステータス":"RECEIPT","region":"Yao","lat":34.646591,"lng":135.616608},{"店舗名":"KISSA ZEROICHI","住所":"〒581-0832 大阪府八尾市堤町２丁目１０−２０","ステータス":"APP_DISPLAY","region":"Yao","lat":34.636337,"lng":135.614975},{"店舗名":"三笠寿司","住所":"〒581-0833","ステータス":"APP_DISPLAY","region":"Yao","lat":34.630264,"lng":135.61116},{"店舗名":"おにぎり福","住所":"〒581-0843","ステータス":"APP_DISPLAY","region":"Yao","lat":34.641029,"lng":135.618469},{"店舗名":"あほや 八尾上之島店","住所":"〒581-0845 大阪府八尾市上之島町北１丁目３４","ステータス":"APP_DISPLAY","region":"Yao","lat":34.638988,"lng":135.619095},{"店舗名":"あんじぇとあーら","住所":"〒581-0846","ステータス":"APP_DISPLAY","region":"Yao","lat":34.635029,"lng":135.621078},{"店舗名":"パティスリーイグレックオガワ","住所":"〒581-0847 大阪府八尾市東山本町１丁目９−９","ステータス":"APP_DISPLAY","region":"Yao","lat":34.627415,"lng":135.624496},{"店舗名":"クロワッサンの店 koyomi","住所":"〒581-0847 大阪府八尾市東山本町3丁目２－２７","ステータス":"APP_DISPLAY","region":"Yao","lat":34.629627,"lng":135.622696},{"店舗名":"YUPEUR CAFE","住所":"〒581-0851 大阪府八尾市上尾町","ステータス":"APP_DISPLAY","region":"Yao","lat":34.635181,"lng":135.629333},{"店舗名":"GAURAB INDIAN NEPALI RESTAURANT","住所":"〒581-0851 大阪府八尾市上尾町","ステータス":"APP_DISPLAY","region":"Yao","lat":34.635181,"lng":135.629333},{"店舗名":"吉野家 170号線八尾店","住所":"〒581-0854 大阪府八尾市大竹１丁目６２","ステータス":"APP_DISPLAY","region":"Yao","lat":34.637791,"lng":135.635498},{"店舗名":"Bloom Company","住所":"〒581-0867","ステータス":"APP_DISPLAY","region":"Yao","lat":34.62809,"lng":135.619659},{"店舗名":"ピザハット 河内山本駅前店","住所":"〒581-0867 大阪府八尾市山本町１丁目２−５","ステータス":"APP_DISPLAY","region":"Yao","lat":34.628727,"lng":135.619415},{"店舗名":"チキン・ウイングストリート 河内山本駅前店","住所":"〒581-0867 大阪府八尾市山本町１丁目２−５","ステータス":"APP_DISPLAY","region":"Yao","lat":34.628727,"lng":135.619415},{"店舗名":"トスカーニパスタ 河内山本駅前店","住所":"〒581-0867 大阪府八尾市山本町１丁目２−５","ステータス":"APP_DISPLAY","region":"Yao","lat":34.628727,"lng":135.619415},{"店舗名":"喫茶M","住所":"〒581-0867 大阪府八尾市山本町１丁目３−２０","ステータス":"RECEIPT","region":"Yao","lat":34.628796,"lng":135.619461},{"店舗名":"スシマス 山本店","住所":"〒581-0867 大阪府八尾市山本町１丁目９−１８ メゾン北新","ステータス":"APP_DISPLAY","region":"Yao","lat":34.627342,"lng":135.621704},{"店舗名":"和洋遊食 たいよう","住所":"〒581-0868 大阪府八尾市西山本町５丁目１６−９","ステータス":"APP_DISPLAY","region":"Yao","lat":34.633595,"lng":135.616241},{"店舗名":"【メガ盛り‼】1キロ弁当工房肉MAX!!大盛りからあげお弁当 八尾山本店","住所":"〒581-0868 大阪府八尾市西山本町５丁目１６−９","ステータス":"APP_DISPLAY","region":"Yao","lat":34.633595,"lng":135.616241},{"店舗名":"【本格麻辣×自家製春雨】白虎麻辣湯 八尾山本店","住所":"〒581-0868 大阪府八尾市西山本町５丁目１６−９","ステータス":"RECEIPT","region":"Yao","lat":34.633595,"lng":135.616241},{"店舗名":"HARENOHI CAFE","住所":"〒581-0869","ステータス":"APP_DISPLAY","region":"Yao","lat":34.629581,"lng":135.608109},{"店舗名":"熊猫中華物産店 PandaBussannten","住所":"〒581-0869 大阪府八尾市桜ヶ丘１丁目２−１","ステータス":"APP_DISPLAY","region":"Yao","lat":34.630295,"lng":135.608597},{"店舗名":"Mog 桜ヶ丘店","住所":"〒581-0869 大阪府八尾市桜ヶ丘３丁目６１","ステータス":"RECEIPT","region":"Yao","lat":34.632378,"lng":135.607956},{"店舗名":"Cafe&Dining salaha","住所":"〒581-0871","ステータス":"RECEIPT","region":"Yao","lat":34.619244,"lng":135.62648},{"店舗名":"アルパナ","住所":"〒581-0871 大阪府八尾市高安町北１丁目","ステータス":"APP_DISPLAY","region":"Yao","lat":34.619244,"lng":135.62648},{"店舗名":"吉野家 八尾高安店","住所":"〒581-0871 大阪府八尾市高安町北７丁目１７８−６","ステータス":"APP_DISPLAY","region":"Yao","lat":34.619129,"lng":135.629166},{"店舗名":"手作り韓国惣菜 ママキムチ","住所":"〒581-0872 大阪府八尾市郡川","ステータス":"APP_DISPLAY","region":"Yao","lat":34.623135,"lng":135.633041},{"店舗名":"miccoro","住所":"〒581-0874 大阪府八尾市教興寺４丁目６","ステータス":"APP_DISPLAY","region":"Yao","lat":34.617313,"lng":135.631958},{"店舗名":"中華彩宴　てんぺい","住所":"〒581-0875","ステータス":"APP_DISPLAY","region":"Yao","lat":34.61821,"lng":135.626282},{"店舗名":"ＯＬＤ","住所":"〒581-0875","ステータス":"RECEIPT","region":"Yao","lat":34.61821,"lng":135.626282},{"店舗名":"インド･ネパール料理 スパイスキッチン","住所":"〒581-0883 大阪府八尾市恩智中町２丁目３２５","ステータス":"APP_DISPLAY","region":"Yao","lat":34.610229,"lng":135.628189},{"店舗名":"Pom cafe","住所":"〒581-0883 大阪府八尾市恩智中町２丁目３２５","ステータス":"APP_DISPLAY","region":"Yao","lat":34.610229,"lng":135.628189},{"店舗名":"ゆくるカフェ","住所":"〒581-0883 大阪府八尾市恩智中町３丁目3−１ 1番地","ステータス":"APP_DISPLAY","region":"Yao","lat":34.607609,"lng":135.631744},{"店舗名":"クリスピーチキンアンドトマト 八尾店 CRISPY CHICKEN n' TOMATO Yao","住所":"〒581-8680 大阪府八尾市光町２丁目６０","ステータス":"APP_DISPLAY","region":"Yao","lat":34.629749,"lng":135.605331},{"店舗名":"インドレストランBINDU ビンドゥ リノアス八尾店","住所":"〒581-8680 大阪府八尾市光町２丁目６０","ステータス":"APP_DISPLAY","region":"Yao","lat":34.629749,"lng":135.605331},{"店舗名":"バーガーキング リノアス八尾店","住所":"〒581-8680 大阪府八尾市光町２丁目６０","ステータス":"APP_DISPLAY","region":"Yao","lat":34.629749,"lng":135.605331},{"店舗名":"ほっかほっか亭 福万寺町南店","住所":"大阪府八尾市福万寺町南５丁目１－９","ステータス":"APP_DISPLAY","region":"Yao","lat":34.641453,"lng":135.62352},{"店舗名":"玄三八尾店","住所":"八尾市太子堂3丁目3-10","ステータス":"APP_DISPLAY","region":"Yao","lat":34.612904,"lng":135.588638}]