[{"店舗名":"インディアンカレーエレファント 日永カヨー店","住所":"〒510-0007 三重県四日市市別名４丁目","ステータス":"APP_DISPLAY","region":"Yokkaichi","lat":34.99712,"lng":136.628738},{"店舗名":"勘平","住所":"〒510-0033 三重県四日市市川原町７−１８","ステータス":"RECEIPT","region":"Yokkaichi","lat":34.973148,"lng":136.628677},{"店舗名":"dress up coffee","住所":"〒510-0056","ステータス":"APP_DISPLAY","region":"Yokkaichi","lat":34.954891,"lng":136.627075},{"店舗名":"ヒマラヤダイニングネパールレストラン","住所":"〒510-0064","ステータス":"APP_DISPLAY","region":"Yokkaichi","lat":34.959003,"lng":136.616074},{"店舗名":"アトリエ オランジェ","住所":"〒510-0064","ステータス":"APP_DISPLAY","region":"Yokkaichi","lat":34.959003,"lng":136.616074},{"店舗名":"たこ焼き　ころ姫","住所":"〒510-0064 三重県四日市市新正１丁目","ステータス":"APP_DISPLAY","region":"Yokkaichi","lat":34.959003,"lng":136.616074},{"店舗名":"SAREE","住所":"〒510-0064 三重県四日市市新正１丁目１−５ ＹＫビル","ステータス":"RECEIPT","region":"Yokkaichi","lat":34.959927,"lng":136.619049},{"店舗名":"REDS' BURGER DINER","住所":"〒510-0067 三重県四日市市浜田町５−３","ステータス":"APP_DISPLAY","region":"Yokkaichi","lat":34.965492,"lng":136.619553},{"店舗名":"本家かまどや四日市西浦通り店","住所":"〒510-0071 三重県四日市市西浦","ステータス":"APP_DISPLAY","region":"Yokkaichi","lat":34.969917,"lng":136.617218},{"店舗名":"宝龍","住所":"〒510-0071 三重県四日市市西浦１丁目９−１４","ステータス":"RECEIPT","region":"Yokkaichi","lat":34.969574,"lng":136.617676},{"店舗名":"ホットペッパー","住所":"〒510-0071 三重県四日市市西浦２丁目４−１１","ステータス":"APP_DISPLAY","region":"Yokkaichi","lat":34.973022,"lng":136.617065},{"店舗名":"ネパール食堂ミテリレストラン","住所":"〒510-0072 三重県四日市市九の城町８−１７","ステータス":"APP_DISPLAY","region":"Yokkaichi","lat":34.964485,"lng":136.613266},{"店舗名":"ZONE5 ベトナム香　レストラン","住所":"〒510-0074 三重県四日市市鵜の森１丁目２−１５","ステータス":"RECEIPT","region":"Yokkaichi","lat":34.965721,"lng":136.617203},{"店舗名":"ハムロキッチン","住所":"〒510-0074 三重県四日市市鵜の森１丁目４−１６","ステータス":"APP_DISPLAY","region":"Yokkaichi","lat":34.966412,"lng":136.614441},{"店舗名":"REDS' DINER &Gimme Donuts","住所":"〒510-0074 三重県四日市市鵜の森１丁目４−５","ステータス":"APP_DISPLAY","region":"Yokkaichi","lat":34.965942,"lng":136.616028},{"店舗名":"麻婆専門店陳さん","住所":"〒510-0075 三重県四日市市安島1-3-31","ステータス":"RECEIPT","region":"Yokkaichi","lat":34.968884,"lng":136.616714},{"店舗名":"mamiemamie　四日市店","住所":"〒510-0075 三重県四日市市安島１丁目３１−１","ステータス":"APP_DISPLAY","region":"Yokkaichi","lat":34.967194,"lng":136.617905},{"店舗名":"やっぱりナンカレー","住所":"〒510-0075 三重県四日市市安島１丁目６−８","ステータス":"APP_DISPLAY","region":"Yokkaichi","lat":34.969154,"lng":136.615402},{"店舗名":"鰻の森田","住所":"〒510-0085","ステータス":"APP_DISPLAY","region":"Yokkaichi","lat":34.965813,"lng":136.624237},{"店舗名":"J.J.Jerk","住所":"〒510-0085","ステータス":"RECEIPT","region":"Yokkaichi","lat":34.965813,"lng":136.624237},{"店舗名":"なか唐亭 諏訪町店 nakakaratei suwacyoten","住所":"〒510-0085 三重県四日市市諏訪町３−７","ステータス":"APP_DISPLAY","region":"Yokkaichi","lat":34.96571,"lng":136.623245},{"店舗名":"たまおばちゃんのおかんの隠れ家","住所":"〒510-0086","ステータス":"RECEIPT","region":"Yokkaichi","lat":34.967148,"lng":136.620987},{"店舗名":"カルアータイ イーサン","住所":"〒510-0086","ステータス":"RECEIPT","region":"Yokkaichi","lat":34.967148,"lng":136.620987},{"店舗名":"ゑびすセンター","住所":"〒510-0086","ステータス":"RECEIPT","region":"Yokkaichi","lat":34.967148,"lng":136.620987},{"店舗名":"台湾料理 味味","住所":"〒510-0086 三重県四日市市諏訪栄町１０- 8","ステータス":"APP_DISPLAY","region":"Yokkaichi","lat":34.967819,"lng":136.619797},{"店舗名":"鶏'sすたいる","住所":"〒510-0086 三重県四日市市諏訪栄町１１−５","ステータス":"APP_DISPLAY","region":"Yokkaichi","lat":34.967468,"lng":136.620926},{"店舗名":"インド・ネパールレストラン クスブ Indian・Nepalese Restaurant Kusbu","住所":"〒510-0086 三重県四日市市諏訪栄町２０−１","ステータス":"APP_DISPLAY","region":"Yokkaichi","lat":34.966343,"lng":136.622437},{"店舗名":"麺屋こころ 四日市店","住所":"〒510-0086 三重県四日市市諏訪栄町3-3","ステータス":"APP_DISPLAY","region":"Yokkaichi","lat":34.966282,"lng":136.621475},{"店舗名":"居酒屋よいち","住所":"〒510-0086 三重県四日市市諏訪栄町3番8号","ステータス":"APP_DISPLAY","region":"Yokkaichi","lat":34.966782,"lng":136.62146},{"店舗名":"うどんと肉 角立 四日市店","住所":"〒510-0086 三重県四日市市諏訪栄町６−２０","ステータス":"APP_DISPLAY","region":"Yokkaichi","lat":34.966995,"lng":136.620544},{"店舗名":"お粥 煮え花 四日市店","住所":"〒510-0086 三重県四日市市諏訪栄町６−２０","ステータス":"APP_DISPLAY","region":"Yokkaichi","lat":34.966995,"lng":136.620544},{"店舗名":"かつ丼 とん吉 四日市店","住所":"〒510-0086 三重県四日市市諏訪栄町６−２０","ステータス":"APP_DISPLAY","region":"Yokkaichi","lat":34.966995,"lng":136.620544},{"店舗名":"かつ丼屋 のぶお 四日市店","住所":"〒510-0086 三重県四日市市諏訪栄町６−２０","ステータス":"APP_DISPLAY","region":"Yokkaichi","lat":34.966995,"lng":136.620544},{"店舗名":"旨辛スタミナ鉄板焼き 天神軒 四日市店","住所":"〒510-0086 三重県四日市市諏訪栄町６−２０","ステータス":"APP_DISPLAY","region":"Yokkaichi","lat":34.966995,"lng":136.620544},{"店舗名":"さぬきうどん・どんぶり 博好 四日市店","住所":"〒510-0086 三重県四日市市諏訪栄町６−２０","ステータス":"APP_DISPLAY","region":"Yokkaichi","lat":34.966995,"lng":136.620544},{"店舗名":"スタミナ丼 活家 四日市店","住所":"〒510-0086 三重県四日市市諏訪栄町６−２０","ステータス":"APP_DISPLAY","region":"Yokkaichi","lat":34.966995,"lng":136.620544},{"店舗名":"どんぶり 神宮軒 四日市店","住所":"〒510-0086 三重県四日市市諏訪栄町６−２０","ステータス":"APP_DISPLAY","region":"Yokkaichi","lat":34.966995,"lng":136.620544},{"店舗名":"のり弁 浅草屋 四日市店","住所":"〒510-0086 三重県四日市市諏訪栄町６−２０","ステータス":"APP_DISPLAY","region":"Yokkaichi","lat":34.966995,"lng":136.620544},{"店舗名":"本格もつ鍋 竹名屋総本店 四日市店","住所":"〒510-0086 三重県四日市市諏訪栄町６−２０","ステータス":"APP_DISPLAY","region":"Yokkaichi","lat":34.966995,"lng":136.620544},{"店舗名":"十勝帯広豚丼 三代目ぶた広 四日市店","住所":"〒510-0086 三重県四日市市諏訪栄町６−２０","ステータス":"APP_DISPLAY","region":"Yokkaichi","lat":34.966995,"lng":136.620544},{"店舗名":"ハヤシ＆カレー ハッシュトマト 四日市店","住所":"〒510-0086 三重県四日市市諏訪栄町６−２０","ステータス":"APP_DISPLAY","region":"Yokkaichi","lat":34.966995,"lng":136.620544},{"店舗名":"ぶた玉丼とうどん ぶた玉家 四日市店","住所":"〒510-0086 三重県四日市市諏訪栄町６−２０","ステータス":"APP_DISPLAY","region":"Yokkaichi","lat":34.966995,"lng":136.620544},{"店舗名":"熟成厚切りとんてき 三元道 四日市店","住所":"〒510-0086 三重県四日市市諏訪栄町６−２０","ステータス":"APP_DISPLAY","region":"Yokkaichi","lat":34.966995,"lng":136.620544},{"店舗名":"とりめし かえで食堂 四日市店","住所":"〒510-0086 三重県四日市市諏訪栄町６−２０","ステータス":"APP_DISPLAY","region":"Yokkaichi","lat":34.966995,"lng":136.620544},{"店舗名":"ブラックビーフ 四日市店","住所":"〒510-0086 三重県四日市市諏訪栄町６−２０","ステータス":"APP_DISPLAY","region":"Yokkaichi","lat":34.966995,"lng":136.620544},{"店舗名":"韓国カルビ丼とスンドゥブ 洞山 四日市店","住所":"〒510-0086 三重県四日市市諏訪栄町６−２０","ステータス":"APP_DISPLAY","region":"Yokkaichi","lat":34.966995,"lng":136.620544},{"店舗名":"背徳めし食堂 四日市店","住所":"〒510-0086 三重県四日市市諏訪栄町６−２０","ステータス":"APP_DISPLAY","region":"Yokkaichi","lat":34.966995,"lng":136.620544},{"店舗名":"鶏天豚天 通天道 四日市店","住所":"〒510-0086 三重県四日市市諏訪栄町６−２０","ステータス":"APP_DISPLAY","region":"Yokkaichi","lat":34.966995,"lng":136.620544},{"店舗名":"韓国クッパとビビンバ 全州 四日市店","住所":"〒510-0086 三重県四日市市諏訪栄町６−２０","ステータス":"APP_DISPLAY","region":"Yokkaichi","lat":34.966995,"lng":136.620544},{"店舗名":"出前つけ麺専門店 三田製麺所 四日市店","住所":"〒510-0086 三重県四日市市諏訪栄町６−２０","ステータス":"APP_DISPLAY","region":"Yokkaichi","lat":34.966995,"lng":136.620544},{"店舗名":"元祖金沢チャンピオンカレーデリバリー 四日市店","住所":"〒510-0086 三重県四日市市諏訪栄町６−２０","ステータス":"APP_DISPLAY","region":"Yokkaichi","lat":34.966995,"lng":136.620544},{"店舗名":"焼津 大坪水産のまぐろ丼 四日市店","住所":"〒510-0086 三重県四日市市諏訪栄町６−２０","ステータス":"APP_DISPLAY","region":"Yokkaichi","lat":34.966995,"lng":136.620544},{"店舗名":"鶏弁 とり日和 四日市店","住所":"〒510-0086 三重県四日市市諏訪栄町６−２０","ステータス":"APP_DISPLAY","region":"Yokkaichi","lat":34.966995,"lng":136.620544},{"店舗名":"焼きかつ丼 勝吉 四日市店","住所":"〒510-0086 三重県四日市市諏訪栄町６−２０","ステータス":"APP_DISPLAY","region":"Yokkaichi","lat":34.966995,"lng":136.620544},{"店舗名":"台湾カフェ 時香茶 四日市店","住所":"〒510-0086 三重県四日市市諏訪栄町６−２０","ステータス":"APP_DISPLAY","region":"Yokkaichi","lat":34.966995,"lng":136.620544},{"店舗名":"宅配とんかつ かさねや 四日市店","住所":"〒510-0086 三重県四日市市諏訪栄町６−２０","ステータス":"APP_DISPLAY","region":"Yokkaichi","lat":34.966995,"lng":136.620544},{"店舗名":"肉汁つけうどん 六三四 四日市店","住所":"〒510-0086 三重県四日市市諏訪栄町６−２０","ステータス":"APP_DISPLAY","region":"Yokkaichi","lat":34.966995,"lng":136.620544},{"店舗名":"DE NHAT QUAN","住所":"〒510-0086 三重県四日市市諏訪栄町９−１０","ステータス":"APP_DISPLAY","region":"Yokkaichi","lat":34.968376,"lng":136.620956},{"店舗名":"FIESTA RESTO BAR","住所":"〒510-0087 三重県四日市市西新地４−１３","ステータス":"APP_DISPLAY","region":"Yokkaichi","lat":34.969444,"lng":136.62175},{"店舗名":"鳥番","住所":"〒510-0087 三重県四日市市西新地８−７","ステータス":"RECEIPT","region":"Yokkaichi","lat":34.969982,"lng":136.620804},{"店舗名":"本家かまどやニューシンチョウ店","住所":"〒510-0092","ステータス":"APP_DISPLAY","region":"Yokkaichi","lat":34.966274,"lng":136.631012},{"店舗名":"ねぎやき茶屋","住所":"〒510-0092 三重県四日市市新町１−１０","ステータス":"APP_DISPLAY","region":"Yokkaichi","lat":34.965538,"lng":136.629669},{"店舗名":"CAFE VIET","住所":"〒510-0105","ステータス":"APP_DISPLAY","region":"Yokkaichi","lat":34.905724,"lng":136.61998},{"店舗名":"クッキングおーだい","住所":"〒510-0105","ステータス":"RECEIPT","region":"Yokkaichi","lat":34.905724,"lng":136.61998},{"店舗名":"ニワクレープ","住所":"〒510-0803","ステータス":"APP_DISPLAY","region":"Yokkaichi","lat":34.985359,"lng":136.62735},{"店舗名":"＃のむアイス三重店","住所":"〒510-0821","ステータス":"APP_DISPLAY","region":"Yokkaichi","lat":34.973392,"lng":136.608246},{"店舗名":"四日市焼肉　がっつぽーく","住所":"〒510-0821 三重県四日市市久保田１丁目３−１０","ステータス":"APP_DISPLAY","region":"Yokkaichi","lat":34.972557,"lng":136.607925},{"店舗名":"台湾ドーナツとからあげのお店 フーダオ foodao","住所":"〒510-0824 三重県四日市市城東町３−１ 富士美荘本館","ステータス":"APP_DISPLAY","region":"Yokkaichi","lat":34.964275,"lng":136.610825},{"店舗名":"チヂミが自慢の韓国料理居酒屋おんどる","住所":"〒510-0826 三重県四日市市赤堀","ステータス":"APP_DISPLAY","region":"Yokkaichi","lat":34.959446,"lng":136.612396},{"店舗名":"うな勢　Unasei","住所":"〒510-0829","ステータス":"APP_DISPLAY","region":"Yokkaichi","lat":34.964848,"lng":136.603561},{"店舗名":"焼肉＆韓国料理　味道園","住所":"〒510-0833 三重県四日市市中川原","ステータス":"RECEIPT","region":"Yokkaichi","lat":34.967125,"lng":136.604706},{"店舗名":"元祖からあげ本舗かんべや　中川原店","住所":"〒510-0833 三重県四日市市中川原３丁目５−３","ステータス":"APP_DISPLAY","region":"Yokkaichi","lat":34.970024,"lng":136.601669},{"店舗名":"【手作り韓国家庭料理】新韓日館","住所":"〒510-0845 三重県四日市市海山道町","ステータス":"APP_DISPLAY","region":"Yokkaichi","lat":34.944668,"lng":136.620621},{"店舗名":"しんちゃんのお店","住所":"〒510-0863 三重県四日市市塩浜４１０１−１","ステータス":"APP_DISPLAY","region":"Yokkaichi","lat":34.927837,"lng":136.620621},{"店舗名":"泉州浪速屋 四日市店","住所":"〒510-0874 三重県四日市市河原田町１２５４−２","ステータス":"APP_DISPLAY","region":"Yokkaichi","lat":34.913063,"lng":136.607071},{"店舗名":"カレーハウス","住所":"〒510-0874 三重県四日市市河原田町１５０４","ステータス":"APP_DISPLAY","region":"Yokkaichi","lat":34.914242,"lng":136.598175},{"店舗名":"吉楽庵【本格和食弁当と人気海鮮丼】和の食彩 吉楽庵Wanoshokusai Kirakuan【四日市 河原田町】","住所":"〒510-0874 三重県四日市市河原田町字西台２０７６","ステータス":"APP_DISPLAY","region":"Yokkaichi","lat":34.914242,"lng":136.598175},{"店舗名":"イスタンブール ケバブ＆バー","住所":"〒510-0875 三重県四日市市大治田２丁目１−１４","ステータス":"RECEIPT","region":"Yokkaichi","lat":34.931114,"lng":136.598251},{"店舗名":"台湾魯肉飯陳さん","住所":"〒510-0883","ステータス":"APP_DISPLAY","region":"Yokkaichi","lat":34.937527,"lng":136.602936},{"店舗名":"中華料理 味神館","住所":"〒510-0883 三重県四日市市泊小柳町3-37","ステータス":"APP_DISPLAY","region":"Yokkaichi","lat":34.940491,"lng":136.606674},{"店舗名":"鶏匠 縁屋 イオンタウン四日市泊店","住所":"〒510-0883 三重県四日市市泊小柳町4-5-1","ステータス":"RECEIPT","region":"Yokkaichi","lat":34.940277,"lng":136.602753},{"店舗名":"インドレストランナンハウス　四日市泊店","住所":"〒510-0883 三重県四日市市泊小柳町４−５−１","ステータス":"APP_DISPLAY","region":"Yokkaichi","lat":34.940277,"lng":136.602753},{"店舗名":"天巻き専門店 一(いち)","住所":"〒510-0885","ステータス":"APP_DISPLAY","region":"Yokkaichi","lat":34.945862,"lng":136.590027},{"店舗名":"まねきだこ","住所":"〒510-0885","ステータス":"APP_DISPLAY","region":"Yokkaichi","lat":34.945862,"lng":136.590027},{"店舗名":"ブルックピッツェリア BROOK PIZZERIA","住所":"〒510-0885 三重県四日市市日永５丁目１２−１２","ステータス":"APP_DISPLAY","region":"Yokkaichi","lat":34.941776,"lng":136.601074},{"店舗名":"丸源ラーメン 四日市日永店","住所":"〒510-0886 三重県四日市市日永東１丁目２−１６","ステータス":"PENDING","region":"Yokkaichi","lat":34.951424,"lng":136.609543},{"店舗名":"プロキリティ","住所":"〒510-0891 三重県四日市市日永西２丁目１９−１０","ステータス":"APP_DISPLAY","region":"Yokkaichi","lat":34.951748,"lng":136.597336},{"店舗名":"鉄板ダイニング弘","住所":"〒510-0891 三重県四日市市日永西２丁目１９−３","ステータス":"APP_DISPLAY","region":"Yokkaichi","lat":34.951752,"lng":136.598282},{"店舗名":"【アサイーボウル】Sweet Acai 四日市店","住所":"〒510-0943 三重県四日市市西日野町1548-3","ステータス":"APP_DISPLAY","region":"Yokkaichi","lat":34.953327,"lng":136.587006},{"店舗名":"HINOBASE delivery","住所":"〒510-0943 三重県四日市市西日野町１５４８−３","ステータス":"APP_DISPLAY","region":"Yokkaichi","lat":34.953327,"lng":136.587006},{"店舗名":"大戸屋ごはん処 四日市笹川店","住所":"〒510-0943 三重県四日市市西日野町１５５８−１","ステータス":"APP_DISPLAY","region":"Yokkaichi","lat":34.951988,"lng":136.582779},{"店舗名":"BABY FACE PLANET’S 四日市笹川店","住所":"〒510-0944 三重県四日市市笹川８丁目７５","ステータス":"APP_DISPLAY","region":"Yokkaichi","lat":34.940712,"lng":136.577469},{"店舗名":"kitchen&Coffee BEE","住所":"〒510-0947 三重県四日市市八王子町","ステータス":"RECEIPT","region":"Yokkaichi","lat":34.954456,"lng":136.564026},{"店舗名":"KHWOPA RESTAURANT","住所":"〒510-0954 三重県四日市市釆女町","ステータス":"APP_DISPLAY","region":"Yokkaichi","lat":34.922337,"lng":136.576324},{"店舗名":"【お土産やギフトにもピッタリなスイーツ】おやつの寅一 【 四日市 富 田 】","住所":"〒510-8014","ステータス":"RECEIPT","region":"Yokkaichi","lat":35.004635,"lng":136.650955},{"店舗名":"なか唐亭　富田店 nakakaratei tomitaten","住所":"〒510-8014 三重県四日市市富田４丁目２−４","ステータス":"APP_DISPLAY","region":"Yokkaichi","lat":35.007633,"lng":136.649292},{"店舗名":"クジラドライブイン","住所":"〒510-8015 三重県四日市市松原町１−１","ステータス":"APP_DISPLAY","region":"Yokkaichi","lat":35.007854,"lng":136.654144},{"店舗名":"中華料理 豊合","住所":"〒510-8015 三重県四日市市松原町７−１２","ステータス":"APP_DISPLAY","region":"Yokkaichi","lat":35.010525,"lng":136.657471},{"店舗名":"インドレストランナンハウス 四日市北店 indian restaurant nan house yokkaichikita","住所":"〒510-8016 三重県四日市市富州原町２−４０","ステータス":"APP_DISPLAY","region":"Yokkaichi","lat":35.008869,"lng":136.655441},{"店舗名":"Caccaさんのキッシュ","住所":"〒510-8016 三重県四日市市富州原町８−１１","ステータス":"APP_DISPLAY","region":"Yokkaichi","lat":35.009872,"lng":136.658722},{"店舗名":"スナオール 富田店","住所":"〒510-8025 三重県四日市市富田栄町２４−１","ステータス":"APP_DISPLAY","region":"Yokkaichi","lat":35.009415,"lng":136.646347},{"店舗名":"インド・ネパール料理　スナオール四日市富田店","住所":"〒510-8025 三重県四日市市富田栄町２４−１","ステータス":"RECEIPT","region":"Yokkaichi","lat":35.009415,"lng":136.646347},{"店舗名":"Everest","住所":"〒510-8033 三重県四日市市下さざらい町５−１１","ステータス":"APP_DISPLAY","region":"Yokkaichi","lat":35.019455,"lng":136.643326},{"店舗名":"プロキリティ大矢知店","住所":"〒510-8034","ステータス":"APP_DISPLAY","region":"Yokkaichi","lat":35.017254,"lng":136.63121},{"店舗名":"Blue Bee SAND","住所":"〒512-0902 三重県四日市市小杉町３７４−１","ステータス":"APP_DISPLAY","region":"Yokkaichi","lat":34.986134,"lng":136.606293},{"店舗名":"カレーハウスおに家","住所":"〒512-0904","ステータス":"APP_DISPLAY","region":"Yokkaichi","lat":34.997459,"lng":136.599792},{"店舗名":"焼肉食堂 太陽 生桑店","住所":"〒512-0911 三重県四日市市生桑町３０２−２","ステータス":"RECEIPT","region":"Yokkaichi","lat":34.986763,"lng":136.602341},{"店舗名":"なか唐亭 生桑店","住所":"〒512-0911 三重県四日市市生桑町３０４","ステータス":"APP_DISPLAY","region":"Yokkaichi","lat":34.986763,"lng":136.602341},{"店舗名":"Primo piatto(プリモピアット)","住所":"〒512-0921 三重県四日市市尾平町","ステータス":"RECEIPT","region":"Yokkaichi","lat":34.978474,"lng":136.588806},{"店舗名":"ASIAN HALAL RESTAURANT","住所":"〒512-1113 三重県四日市市鹿間町４０１-２４","ステータス":"RECEIPT","region":"Yokkaichi","lat":34.931179,"lng":136.525299},{"店舗名":"壱　三重支部","住所":"〒512-8054 三重県四日市市朝明町","ステータス":"RECEIPT","region":"Yokkaichi","lat":35.039501,"lng":136.58699},{"店舗名":"カレーハウス さくら店","住所":"１丁目-２７-５ 桜台 四日市市 三重県 512-1214","ステータス":"APP_DISPLAY","region":"Yokkaichi","lat":34.681934,"lng":134.987427},{"店舗名":"Diamond RESTO&BAR","住所":"510-0071 三重県四日市市西浦１丁目-７-３","ステータス":"APP_DISPLAY","region":"Yokkaichi","lat":34.969975,"lng":136.616776}]