[{"店舗名":"ＳｉＲＪＡＮＡ","住所":"〒342-0035 埼玉県吉川市高久","ステータス":"RECEIPT","region":"Yoshikawa","lat":35.867474,"lng":139.842209},{"店舗名":"CHEF FIGO KITCHEN","住所":"〒342-0035 埼玉県吉川市高久１丁目","ステータス":"RECEIPT","region":"Yoshikawa","lat":35.867474,"lng":139.842209},{"店舗名":"とろり天使のわらびもち 吉川店","住所":"〒342-0036 埼玉県吉川市高富１丁目５−４","ステータス":"RECEIPT","region":"Yoshikawa","lat":35.873253,"lng":139.844498},{"店舗名":"ジャーハン吉川","住所":"〒342-0041 埼玉県吉川市保","ステータス":"RECEIPT","region":"Yoshikawa","lat":35.879848,"lng":139.844864},{"店舗名":"ジャーハン吉川","住所":"〒342-0041 埼玉県吉川市保１丁目２７−４","ステータス":"RECEIPT","region":"Yoshikawa","lat":35.880413,"lng":139.844269},{"店舗名":"横浜家系ラーメン　春樹","住所":"〒342-0045 埼玉県吉川市木売１丁目７−２","ステータス":"RECEIPT","region":"Yoshikawa","lat":35.876945,"lng":139.84436},{"店舗名":"やきとり にしだ場 吉川店","住所":"〒342-0045 埼玉県吉川市木売２丁目４−２","ステータス":"RECEIPT","region":"Yoshikawa","lat":35.876045,"lng":139.844223},{"店舗名":"焼鳥丼専門　Tori-Don","住所":"〒342-0045 埼玉県吉川市木売３丁目１−１ 戸張マンション","ステータス":"RECEIPT","region":"Yoshikawa","lat":35.875473,"lng":139.844864},{"店舗名":"北海道らーめん めんぽぽ Hokkaido ra-men Menpopo","住所":"〒342-0045 埼玉県吉川市木売３丁目１−１３ グリーンコーポ明寿","ステータス":"RECEIPT","region":"Yoshikawa","lat":35.875473,"lng":139.844864},{"店舗名":"中華処 萬万亭","住所":"〒342-0056 埼玉県吉川市平沼1丁目9-6","ステータス":"RECEIPT","region":"Yoshikawa","lat":35.883408,"lng":139.844345},{"店舗名":"石臼挽き手打ち蕎麦 志美津","住所":"〒342-0061 埼玉県吉川市中央３丁目５０−２","ステータス":"RECEIPT","region":"Yoshikawa","lat":35.891483,"lng":139.858704}]