[{"店舗名":"【からあげグランプリ最高金賞】からあげ じろ吉","住所":"〒824-0001 福岡県行橋市行事","ステータス":"RECEIPT","region":"Yukuhashi","lat":33.738075,"lng":130.980148},{"店舗名":"いつもの麺で！！〜行橋本店〜","住所":"〒824-0001 福岡県行橋市行事２丁目２１−１８","ステータス":"RECEIPT","region":"Yukuhashi","lat":33.744682,"lng":130.978409},{"店舗名":"アサイーボウル グリークヨーグルトがおすすめ LULU Sweetsshop","住所":"〒824-0001 福岡県行橋市行事２丁目４−２","ステータス":"RECEIPT","region":"Yukuhashi","lat":33.737625,"lng":130.97612},{"店舗名":"ナマステマティマハル","住所":"〒824-0001 福岡県行橋市行事3丁目28-63","ステータス":"RECEIPT","region":"Yukuhashi","lat":33.742245,"lng":130.977448},{"店舗名":"ポパイ食堂Popaishokudou","住所":"〒824-0005 福岡県行橋市中央１丁目１−２","ステータス":"RECEIPT","region":"Yukuhashi","lat":33.729332,"lng":130.982269},{"店舗名":"インド料理ディパ行橋店","住所":"〒824-0005 福岡県行橋市中央１丁目１２−３７","ステータス":"RECEIPT","region":"Yukuhashi","lat":33.727417,"lng":130.977264},{"店舗名":"唐揚げ番長ごちもも","住所":"〒824-0005 福岡県行橋市中央１丁目２-９","ステータス":"RECEIPT","region":"Yukuhashi","lat":33.729492,"lng":130.980743},{"店舗名":"インド・ネパール料理ファミリー","住所":"〒824-0005 福岡県行橋市中央３丁目５−３６","ステータス":"RECEIPT","region":"Yukuhashi","lat":33.728561,"lng":130.972794},{"店舗名":"台湾料理鴻瑞","住所":"〒824-0031 福岡県行橋市西宮市１丁目１１−１１","ステータス":"RECEIPT","region":"Yukuhashi","lat":33.730598,"lng":130.966766},{"店舗名":"Bon's Crepe ゆめタウン行橋店","住所":"〒824-0031 福岡県行橋市西宮市３丁目８−１","ステータス":"RECEIPT","region":"Yukuhashi","lat":33.721012,"lng":130.967834},{"店舗名":"お弁当屋　3びきのこぶた","住所":"〒824-0032 福岡県行橋市南大橋３丁目４−１２","ステータス":"RECEIPT","region":"Yukuhashi","lat":33.723995,"lng":130.979752},{"店舗名":"And cafe","住所":"〒824-0034 福岡県行橋市泉中央８丁目３０−１１","ステータス":"RECEIPT","region":"Yukuhashi","lat":33.703419,"lng":130.982834},{"店舗名":"からあげ からり","住所":"〒824-0037 福岡県行橋市矢留８４１−１４","ステータス":"RECEIPT","region":"Yukuhashi","lat":33.693333,"lng":130.966675},{"店舗名":"たこ焼きJJ and acai","住所":"〒824-0038 福岡県行橋市西泉","ステータス":"RECEIPT","region":"Yukuhashi","lat":33.715939,"lng":130.97496}]